timestamp,x,y,z,pitch,roll,yaw,vx,vy,vz,battery,cpu_load,vicon_count,set_position,set_velocity,calc_thrust
0,0,0,0,0,0,0,0,0,0,0,0,0,0,0,0
0,0,0,0,-37140,-23300,98960,0,0,5330,-1344,-531,0,0,0,2100
333937,401.116,-2306.57,915.253,-39270,-16040,90670,0.240234,-1.38144,4470,-1363,-469,1,440,-400,2100
333959,366.892,-2278.3,907.62,-39240,-21220,79250,-287.681,469.234,3530,-1372,-303,4,440,-400,2100
333965,357.854,-2263.43,913.511,-35240,-27100,75430,-301.257,495.627,4030,-1381,-218,5,440,-400,2007.19
333976,330.933,-2233.92,933.653,-31090,-29410,75030,-552.125,528.326,5230,-1373,-199,7,440,-400,1967.08
333987,302.524,-2200.39,961.144,-31020,-27140,77870,-476.24,665.019,5160,-1364,-303,9,440,-400,2042.08
333997,292.586,-2154.16,980.666,-34460,-16950,81990,-109.841,1024.73,3450,-1356,-492,11,440,-400,2100
334020,361.169,-2004.92,965.023,-46630,8990,95810,1072.55,1358.66,670,-1382,-690,14,440,400,2100
334026,403.129,-1961.17,954.497,-52580,2150,116560,1398.65,1458.23,-400,-1406,-607,15,440,400,2100
334029,427.629,-1938.82,949.053,-56520,-18010,146910,1633.36,1489.95,-910,-1430,-405,16,440,400,2100
334029,427.629,-1938.82,949.053,-53920,-33100,175050,1633.36,1489.95,260,-1457,-132,16,440,400,1921.76
334029,427.629,-1938.82,949.053,-47810,-36700,195640,1633.36,1489.95,1680,-1454,13,16,440,400,1744.38
334029,427.629,-1938.82,949.053,-44760,-29810,214430,1633.36,1489.95,1550,-1438,-51,16,440,400,1790.83
334029,427.629,-1938.82,949.053,-39410,-21770,227940,1633.36,1489.95,-880,-1398,-304,16,440,400,2059.1
334029,427.629,-1938.82,949.053,-36830,-22860,236480,1633.36,1489.95,480,-1353,-561,16,440,400,2100
334103,863.723,-1884.42,1113.07,-38450,-22880,242310,1091.46,-8.39947,1050,-1360,-776,18,440,400,2100
334109,850.09,-1898.83,1099.48,-42040,-14840,240970,-454.424,-480.274,1050,-1382,-863,19,440,-400,2100
334120,815.39,-1917.98,1066.76,-45340,-9140,237950,-687.15,-315.705,400,-1388,-784,21,440,-400,2100
334130,775.331,-1930.03,1039.64,-47630,-8640,235100,-822.504,-209.814,1040,-1404,-687,23,440,-400,2100
334153,701.002,-1923.64,998.212,-48760,-7750,232520,-490.546,267.433,540,-1455,-546,26,440,-400,2100
334164,678.889,-1899.02,992.145,-47590,-7890,230080,-382.76,491.346,940,-1451,-425,28,440,-400,2100
334169,670.129,-1885.46,993.434,-46130,-6550,227580,-350.4,542.261,1410,-1448,-346,29,440,-400,2074.25
334180,652.822,-1855.02,1003.41,-44290,-2930,224900,-300.179,537.382,1390,-1424,-293,31,440,-400,2005.27
334204,631.881,-1819.76,1030.74,-41020,-3800,225720,-84.0014,116.449,540,-1359,-403,34,440,-400,2093.4
334215,627.783,-1820.86,1025.57,-42230,-8630,228710,-100.471,-52.1055,0,-1350,-502,36,440,-400,2100
334221,622.895,-1821.91,1017.38,-42610,-8980,229390,-162.932,-35.2899,-160,-1363,-518,37,440,-400,2100
334232,606.017,-1816.26,999.667,-43430,-5330,227620,-371.629,164.624,-530,-1374,-540,39,440,-400,2100
334244,579.623,-1793.21,974.691,-44810,-4510,226300,-474.335,465.273,-780,-1380,-563,41,440,-400,2100
334255,548.078,-1755.83,947.027,-45570,-5940,225400,-628.168,723.681,-310,-1387,-536,43,440,-400,2100
334266,509.789,-1707.49,918.23,-47090,-3810,223530,-720.099,916.225,200,-1404,-511,45,440,-400,2100
334272,486.448,-1678.91,903.044,-48050,2960,219900,-778.024,952.374,130,-1416,-455,46,440,-400,2100
334282,446.213,-1629.91,881.569,-48260,8400,218510,-797.429,987.245,-230,-1422,-364,48,440,-400,2100
334294,400.48,-1579.76,865.487,-49090,9580,216680,-741.355,772.424,150,-1432,-324,50,440,-400,2100
334316,341.079,-1531.33,847.578,-54410,8080,221980,-388.636,263.778,10,-1457,-315,53,440,-400,2100
334327,326.448,-1524.37,837.453,-57380,4830,228820,-246.272,72.5402,-280,-1486,-318,55,440,-400,2100
334332,320.998,-1525.21,831.638,-58620,-4050,243780,-218.005,-33.8958,-720,-1504,-335,56,440,-400,2100
334343,304.943,-1530.24,817.156,-60980,-9430,258170,-339.623,-109.693,-590,-1524,-278,58,440,-400,2100
334354,276.47,-1533.5,807.156,-63520,-3650,265610,-572.36,-21.657,-1030,-1539,-163,60,440,-400,2036.27
334365,242.29,-1521.56,807.788,-64920,1910,267040,-600.667,313.171,-1060,-1549,-167,62,440,-400,2042.77
334378,220.1,-1480.33,810.945,-61450,-140,268500,-278.086,707.822,20,-1542,10,64,440,-400,1880.12
334383,215.393,-1461.03,819.248,-58440,1850,266970,-188.295,772.1,810,-1516,135,65,440,-400,1724.02
334395,205.303,-1420.93,849.848,-57270,7960,264870,-149.223,620.579,-160,-1489,35,67,440,-400,1798.92
334407,205.964,-1385.36,870.076,-55270,11350,262610,83.0094,587.003,150,-1470,48,69,440,-356,1778.44
334418,214.846,-1362.89,889.363,-50360,13300,259360,177.64,310.525,690,-1438,151,71,440,-262,1654.19
334429,225.586,-1366.73,917.902,-46600,13090,260530,165.928,-202.874,60,-1392,180,73,440,-209,1608.09
334434,230.809,-1376.78,931.964,-43450,13270,263800,208.924,-401.959,-730,-1347,98,74,440,-231,1661.61
334446,246.102,-1413.84,955.708,-40980,9860,269970,270.439,-671.544,-2430,-1308,-32,76,440,-169,1768.84
334456,258.171,-1446.77,958.526,-41160,1830,275880,233.474,-611.589,-2770,-1277,-164,78,440,-206,1897.45
334467,263.29,-1467.25,942.228,-42180,-550,278470,41.8129,-291.21,-2920,-1282,-216,80,440,-398,1970.86
334467,263.29,-1467.25,942.228,-41960,5910,275240,41.8129,-291.21,-2710,-1292,-166,80,440,-398,1924.27
334467,263.29,-1467.25,942.228,-42380,12530,271020,41.8129,-291.21,-2750,-1290,-97,80,440,-398,1858.41
334469,263.01,-1468.34,938.429,-45180,16360,265590,-28.0212,-108.978,-1390,-1290,-54,81,440,-400,1816.25
334520,165.511,-1310.65,876.813,-48600,20050,260880,-397.239,589.512,-980,-1289,-100,84,440,-400,1905.45
334530,155.99,-1287.1,862.238,-49730,18360,265050,-140.595,426.802,-1220,-1300,-97,86,440,-400,1918.35
334541,152.165,-1270.7,846.076,-49880,19730,270060,-48.8296,251.088,-1580,-1313,-24,88,440,-400,1857.72
334547,149.25,-1267.05,842.448,-49850,22270,273690,-97.1624,121.614,-1620,-1319,-56,89,440,-400,1885.19
334558,141.687,-1268.35,831.273,-53340,20640,279020,-137.254,-69.763,-990,-1326,-24,91,440,-400,1875.29
334570,118.162,-1292.2,816.948,-55830,15860,285680,-478.321,-514.809,-540,-1332,-61,93,440,-400,1908.8
334582,77.1685,-1340.45,795.274,-59490,9520,295890,-755.036,-890.424,-500,-1351,-96,95,440,-400,1962.46
334592,29.3332,-1393.58,775.361,-62370,290,309570,-1026.46,-1098.75,-730,-1360,12,97,440,-400,1878.83
334598,-6.86665,-1427.24,768.53,-61310,-15380,329840,-1206.66,-1122.28,-790,-1356,92,98,440,-400,1803.96
334609,-91.2986,-1485.87,763.08,-62040,-28590,346110,-1631.86,-1009.17,-40,-1354,51,100,440,-400,1844.14
334620,-198.458,-1529.33,753.609,-63270,-37030,2390,-2033.54,-683.093,0,-1373,-122,102,440,-400,2021.03
334631,-316.891,-1550.83,726.605,-69140,-41730,18680,-2164.59,-282.694,-480,-1437,-258,104,440,-400,2100
334643,-438.231,-1543.83,683.482,-74360,-48340,36470,-1913.81,253.721,-960,-1518,-298,106,440,-400,2100
334649,-490.405,-1529.44,658.87,-77680,-44060,39570,-1739.15,479.748,-560,-1598,-138,107,440,-400,2100
334660,-557.236,-1488.58,630.501,-80080,-35970,39610,-1068.68,801.828,-20,-1644,-15,109,440,-400,2036.6
334683,-613.383,-1403.84,613.226,-83450,-22580,30720,-181.472,616.319,-370,-1664,160,112,440,-400,1866.41
334694,-608.894,-1382.38,613.244,-82840,-22940,18420,167.869,338.361,-90,-1661,154,114,440,-272,1869.34
334699,-601.497,-1378.54,611.847,-81320,-25170,8620,295.894,153.542,-10,-1662,204,115,440,-144,1821.34
334711,-574.853,-1381.71,611.415,-77420,-24610,358940,490.19,-114.748,110,-1648,306,117,440,50,1719.13
334733,-513.717,-1396.98,632.783,-66500,-30380,50,543.775,15.3712,340,-1584,401,120,440,103,1607.98
334745,-487.637,-1373.39,654.67,-65060,-32860,2490,395.998,532.781,640,-1538,423,122,440,-44,1600
334750,-478.739,-1354.69,664.501,-66460,-36360,5770,355.922,747.855,750,-1515,265,123,440,-84,1704.91
334761,-459.211,-1305.07,673.907,-67890,-39450,7710,374.24,934.118,880,-1512,158,125,440,-65,1806.9
334772,-433.47,-1250.42,668.188,-68830,-34330,2690,497.95,1007.21,1060,-1523,102,127,440,57,1868.35
334783,-397.634,-1194.73,656.042,-73220,-24080,352300,681.191,1010.41,1000,-1524,27,129,440,241,1952.3
334816,-293.375,-1072.04,591.905,-77960,3500,302010,439.068,475.407,500,-1565,254,133,428.815,10,1782.67
334827,-284.085,-1050.28,592.274,-78770,-16270,320930,43.1568,381.106,140,-1554,336,135,423.923,-150,1704.45
334832,-287.6,-1040.56,593.705,-76090,-58280,5600,-140.578,388.72,-120,-1569,541,136,416.225,-400,1600
334844,-302.899,-1006.89,618.444,-70280,-73120,22380,-302.842,648.913,760,-1587,710,138,402.757,-400,1600
334854,-315.849,-961.199,662.581,-65070,-74120,30750,-226.869,983.439,1350,-1604,611,140,384.479,-400,1600
334864,-320.942,-902.713,703.388,-64640,-74350,40900,-45.5952,1229.24,750,-1617,311,142,361.085,-400,1605.37
334887,-277.134,-766.143,705.328,-74120,-90910,52000,670.974,1101.95,1910,-1739,-51,145,306.457,364,1991.09
334893,-252.012,-736.731,696.52,-81280,-85900,37820,837.383,980.399,2230,-1831,58,146,294.693,400,1886.67
334904,-199.788,-697.14,689.431,-85160,-86780,310,958.745,627.045,1140,-1891,210,148,278.856,400,1744.02
334915,-151.072,-673.009,702.722,-86110,-92920,319690,847.234,389.054,1050,-1937,307,150,269.203,400,1634.48
334927,-113.665,-651.56,731.15,-86620,-101870,309330,531.248,351.065,1420,-1980,321,152,260.624,270,1600
334939,-99.0619,-633.218,763.651,-84430,-107100,336730,173.401,269.869,1660,-2036,221,154,256.526,56,1671.96
334945,-96.9846,-628.062,775.939,-81620,-106840,343620,69.2441,171.899,1290,-2090,96,155,251.225,-181,1778.89
334957,-96.673,-624.796,789.677,-80670,-105610,347480,-6.67788,24.3975,970,-2134,61,157,249.918,-256,1799.55
334959,-96.8417,-624.718,792.144,-80220,-105980,349220,-16.8734,7.77993,810,-2166,-41,158,249.887,-266,1895.53
334989,-85.9978,-633.201,794.492,-81270,-109500,341980,140.468,-74.164,930,-2261,-94,161,253.28,-112,1961.53
334999,-79.5094,-635.255,791.982,-85220,-109450,325570,110.317,-28.7838,1100,-2293,-40,163,254.102,-143,1904.9
335005,-78.0514,-635.986,792.745,-86230,-107320,332630,48.5969,-24.3533,480,-2318,-99,164,254.394,-205,1957.6
335016,-82.9314,-636.406,789.684,-85930,-107020,7040,-135.793,-2.794,710,-2334,-113,166,254.562,-390,1980.65
335040,-119.929,-649.395,770.718,-87040,-96440,65200,-392.682,-278.629,430,-2371,-58,169,259.758,-400,1940.87
335051,-133.726,-680.013,765.912,-85780,-94200,31030,-226.024,-636.564,-660,-2359,-12,171,272.005,-400,1902.04
335057,-138.295,-700.49,763.98,-88160,-100110,338500,-152.299,-682.581,100,-2344,81,172,280.196,-400,1813.6
335081,-180.5,-771.874,776.297,-91470,-92430,322700,-593.995,-505.275,-470,-2344,-41,175,308.75,-400,1898.03
335091,-218.906,-792.921,762.161,-87100,-89420,329760,-830.566,-373.826,-1410,-2320,-132,177,317.169,-400,2030.99
335102,-267.967,-803.489,737.968,-82300,-94890,20080,-922.681,-102.612,-1050,-2298,13,179,321.396,-400,1897.9
335108,-292.264,-802.671,731.966,-77720,-109060,52500,-809.929,27.2608,-1040,-2307,29,180,321.069,-400,1885.77
335119,-321.046,-792.823,723.66,-75540,-127170,69260,-387.949,208.255,-860,-2361,9,182,317.129,-400,1909.59
335130,-316.61,-778.571,715.804,-76880,-127820,69090,201.548,276.276,-550,-2417,54,184,311.428,-109,1875.14
335141,-271.584,-765.383,716.704,-81530,-121000,55970,953.569,238.695,-380,-2441,241,186,306.153,400,1694.04
335152,-197.787,-752.238,738.168,-88210,-119870,10220,1439.44,247.518,-80,-2452,288,188,300.895,400,1618.74
335163,-114.398,-736.514,763.792,-94250,-119140,19390,1502.87,301.29,-140,-2454,227,190,294.606,400,1656.16
335174,-38.3328,-718.531,781.803,-96870,-120200,10510,1325.98,332.424,-110,-2462,118,192,290.737,400,1756.11
335180,-2.86505,-708.955,787.363,-96820,-124690,354030,1182.26,319.212,110,-2468,148,193,283.582,400,1729.09
335190,43.6747,-695.565,799.138,-96950,-131310,351070,836.225,241.162,400,-2497,102,195,278.226,400,1744.95
335201,75.2585,-688.386,808.688,-96790,-134790,5880,466.548,90.8636,250,-2563,-47,197,275.354,191,1897.16
335224,81.2213,-690.288,791.935,-91500,-135630,47320,-235.644,1.59212,10,-2683,-113,200,276.115,-400,1979.63
335230,67.7413,-688.063,785.322,-88830,-136240,47130,-449.332,74.1724,-260,-2724,-310,201,275.225,-400,2100
335242,31.5615,-676.709,752.92,-85870,-137460,92910,-645.513,227.361,-260,-2777,-459,203,270.684,-400,2100
335265,-42.6019,-634.385,656.401,-83410,-143550,153890,-576.054,372.767,390,-2870,-312,206,253.754,-400,2100
335276,-63.9296,-622.79,622.528,-86910,-145590,141970,-274.314,133.319,320,-2919,-202,208,250.449,-400,2100
335282,-74.5027,-620.46,607.817,-90940,-147560,132430,-352.435,77.6789,70,-2957,-138,209,248.184,-400,2100
335293,-89.1587,-625.78,590.582,-92650,-146430,182920,-255.759,-133.418,-430,-3011,-299,211,250.312,-400,2100
335304,-110.771,-632.752,555.715,-90190,-144470,233410,-454.581,-99.1728,-510,-3072,-338,213,253.101,-400,2100
335316,-141.545,-636.023,518.175,-87370,-146290,260160,-534.425,-11.4841,-290,-3110,-227,215,254.409,-400,2100
335326,-169.188,-631.463,499.231,-86200,-148200,237240,-572.915,127.249,-570,-3143,-216,217,252.585,-400,2100
335337,-192.653,-616.385,477.811,-86580,-149120,219030,-381.811,327.137,-1140,-3181,-305,219,250.48,-400,2100
335342,-200.773,-603.921,465.076,-88600,-150330,260290,-324.823,498.564,-1510,-3223,-147,220,241.568,-400,2100
335354,-208.464,-553.671,454.003,-91550,-151630,270880,-52.4553,950.589,-1950,-3250,-11,222,221.468,-273,2100
335366,-195.893,-483.034,465.753,-97520,-156600,221150,363.656,1211.75,-3260,-3268,39,224,193.213,170,2058
335377,-164.377,-404.596,483.684,-106730,-165220,196640,616.999,1497.73,-3160,-3311,61,226,161.838,400,2038
335382,-144.525,-366.238,496.942,-112450,-178720,179730,794.076,1534.31,-220,-3372,-35,227,146.495,400,2100
335398,-102.622,-266.741,530.043,-116380,174680,166680,444.137,957.459,-3000,-3455,-116,230,116.271,283,2100
335404,-93.5475,-243.388,539.957,-118170,167670,159550,302.481,778.462,-2480,-3527,-374,231,97.355,205,2100
335415,-93.4958,-208.207,546.276,-121330,167960,152570,-74.9855,588.075,-1260,-3601,-647,233,83.2829,-158,2100
335438,-135.19,-170.425,486.512,-123460,171290,129370,-464.794,332.357,-6960,-3761,-1104,236,68.17,-400,2100
335449,-156.901,-142.482,464.584,-128340,169990,122810,-366.6,588.489,-4360,-3848,-1179,238,62.8779,-400,2100
335455,-165.587,-125.382,462.157,-132650,170310,123730,-289.517,570.003,-5050,-3926,-1220,239,50.1529,-339,2100
335466,-180.333,-110.319,468.035,-129640,176310,129220,-291.144,215.288,-5650,-4019,-1501,241,44.1274,-335,2100
335488,-214.812,-98.0635,459.625,-119090,-177710,150430,-353.714,-47.7934,-3370,-4245,-1865,244,39.2254,-392,2100
335500,-229.781,-113.161,434.754,-117370,-177760,173860,-215.32,-375.959,-2550,-4371,-1856,246,40.7529,-324,2100
335510,-242.244,-139.679,415.813,-116200,-172580,194590,-258.849,-563.123,-3220,-4458,-1852,248,55.8714,-314,2100
335516,-248.298,-154.197,403.618,-115250,-169760,208380,-201.802,-483.958,-3600,-4507,-1799,249,61.6789,-263,2100
335527,-255.405,-167.617,382.123,-115910,-169960,213920,-94.5652,-141.998,-3070,-4542,-1792,251,67.0468,-161,2100
335550,-231.155,-123.222,320.412,-121070,-166250,215660,396.635,603.5,-820,-4634,-1747,254,49.2887,347,2100
335561,-204.989,-91.4772,285.774,-125520,-165650,219990,488.519,558.248,-230,-4667,-1724,256,36.5909,400,2100
335566,-195.506,-79.317,267.118,-130810,-169830,226410,379.316,486.407,-2050,-4689,-1441,257,31.7268,347,2100
335578,-202.236,-50.9212,231.121,-137360,-175190,227270,-362.594,555.286,2020,-4730,-1455,259,20.3685,-382,2100
335600,-237.497,-20.0179,174.614,-148120,-175000,229520,-170.068,118.027,1270,-4852,-1394,262,8.00715,-178,2100
335612,-240.944,-14.8605,147.371,-152630,-171870,231740,-4.21553,102.766,350,-4899,-1369,264,5.94419,-10,2100
335617,-244.932,-10.5332,135.228,-157140,-171600,233280,-159.544,173.092,1740,-4950,-1355,265,4.21328,-163,2100
335623,-249.93,-5.40144,121.356,-158090,-171060,232570,-166.607,171.058,540,-5005,-1047,266,2.16058,-168,2100
335640,-255.611,-1.30167,104.48,-158920,-171650,231650,17.5724,10.4227,1190,-5025,-1143,268,0.52067,17,2100
335651,-257.534,-2.46751,96.8994,-160430,-171780,230230,-41.5726,-44.23,1180,-5049,-1103,270,0.987002,-42,2100
335662,-258.542,-7.99938,88.8739,-162920,-171200,228560,-3.01037,-129.293,-550,-5061,-1081,272,3.19975,-6,2100
335673,-260.614,-7.83311,81.7533,-164010,-170510,227630,-36.0535,8.16726,850,-5078,-945,274,3.13324,-42,2100
335679,-261.196,-8.13511,80.9457,-168880,-168930,227590,-19.4061,-10.0666,490,-5102,-924,275,3.25404,-22,2100
335702,-267.894,-12.67,78.8746,-167890,-162980,225530,88.7203,-86,-1310,-5138,-839,278,5.06801,83,2100
335708,-265.682,-13.3685,78.9739,-170890,-164360,225510,73.73,-23.2844,-460,-5136,-777,279,5.34742,68,2100
335724,-269.498,-11.0498,78.5556,-171340,-164640,224540,-65.7532,26.3839,40,-5130,-755,281,4.41993,-70,2100
335730,-268.723,-11.073,78.4104,-168490,-163290,221340,25.8155,-0.773507,-250,-5112,-707,282,4.42921,21,2100
335736,-266.802,-11.7594,78.4474,-170170,-163430,221440,64.0491,-22.8799,-800,-5094,-644,283,4.70377,59,2100
335738,-266.355,-12.1739,78.619,-170450,-163210,219460,44.6377,-41.4453,-820,-5083,-616,284,4.86955,39,2100
335738,-266.355,-12.1739,78.619,-170060,-163260,214610,44.6377,-41.4453,-110,-5063,-570,284,4.86955,39,2100
335771,-267.447,-11.2481,78.3003,-170470,-163380,212500,-6.61766,5.61104,-90,-5051,-526,285,4.49923,-11,2100
335794,-267.619,-11.1875,78.3189,-169640,-161850,210730,-2.00398,-12.9415,-400,-5020,-460,288,4.47498,-6,2100
335806,-267.611,-11.3315,78.2599,-169180,-161900,209790,3.74508,5.36895,-230,-4999,-421,290,4.59703,-8,2100
335811,-267.611,-11.1576,78.2734,-168890,-161410,208740,-0.020254,6.9563,-190,-4967,-382,291,4.46304,-4,2100
335823,-267.613,-11.3556,78.3074,-168560,-161070,207750,2.6847,-6.58037,-310,-4937,-341,293,4.54223,-1,2100
335856,-267.681,-11.3275,78.229,-167540,-160120,204710,-7.39419,-3.80164,-260,-4879,-257,297,4.53099,-11,2100
335866,-267.837,-11.1879,78.2301,-167200,-159780,203670,5.48226,0.606612,-210,-4855,-231,299,4.47516,1,2100
335877,-267.877,-11.3764,78.0538,-166860,-159440,202670,-0.812745,-1.12635,-220,-4833,-207,301,4.55057,-5,2100
335877,-267.877,-11.3764,78.0538,-166510,-159110,201670,-0.812745,-1.12635,-240,-4812,-189,301,4.55057,-5,2100
335877,-267.877,-11.3764,78.0538,-166170,-158720,200650,-0.812745,-1.12635,-240,-4798,-172,301,4.55057,-5,2100
335877,-267.877,-11.3764,78.0538,-164270,-157680,198870,-0.812745,-1.12635,-2170,-4766,-110,301,4.55057,-5,2100
335880,-267.875,-11.3905,78.0756,-166200,-158280,198780,0.160911,-0.936859,-530,-4744,-124,302,4.55619,-4,2100
335880,-267.875,-11.3905,78.0756,-166070,-158280,197900,0.160911,-0.936859,90,-4739,-132,302,4.55619,-4,2100
335932,-280.081,-7.6631,78.0362,-163900,-157140,195970,-21.9618,1.61187,-210,-4733,-139,304,3.06524,-25,2100
335932,-280.081,-7.6631,78.0362,-164220,-156780,195350,-21.9618,1.61187,-540,-4714,-116,304,3.06524,-25,2100
335938,-279.403,-8.00025,77.9929,-164660,-156990,194690,22.5976,-11.2385,-130,-4696,-109,305,3.2001,19,2100
335953,-278.999,-8.47913,78.2188,-163560,-156330,193330,5.38153,-6.38503,-210,-4677,-116,306,3.39165,1,2100
335968,-279.747,-7.99935,78.0996,-163120,-155950,192300,-9.97073,6.39704,-340,-4663,-110,307,3.39165,1,2100
335983,-279.013,-8.32583,78.1435,-163310,-155800,191480,9.79299,-4.35307,-200,-4647,-104,308,3.33033,6,2100
335987,-279.212,-8.24465,78.1583,-162700,-155450,190460,-9.99526,4.05897,-350,-4643,-115,309,3.29786,-13,2100
336009,-279.032,-7.78088,78.0284,-161990,-155380,189390,11.9873,8.74817,-180,-4633,-117,311,3.11235,8,2100
336020,-279.017,-7.57001,78.0439,-161980,-155060,188540,-3.9652,1.70442,-140,-4633,-126,313,3.028,-6,2100
336026,-279.219,-7.6094,78.0649,-161600,-154700,187470,-6.7435,-1.31301,-240,-4627,-141,314,3.04376,-9,2100
336037,-279.105,-7.63646,78.0695,-161140,-154380,186420,5.52785,-0.0490559,-220,-4618,-148,316,3.05458,2,2100
336049,-279.065,-7.58952,78.0406,-160930,-154050,185450,-2.17548,1.18331,-210,-4616,-161,317,3.03581,-5,2100
336060,-279.121,-7.59315,78.0038,-160520,-153710,184390,1.7134,-1.1019,-200,-4607,-176,319,3.03726,-1,2100
336071,-279.04,-7.57257,78.0108,-160170,-153370,183380,1.86101,0.610068,-200,-4602,-187,321,3.02903,-1,2100
336071,-279.04,-7.57257,78.0108,-159850,-153030,182370,1.86101,0.610068,-240,-4600,-206,321,3.02903,-1,2100
336073,-279.015,-7.61289,78.0105,-159490,-152710,181350,2.44541,-4.03198,-190,-4596,-226,322,3.04516,0,2100
336073,-279.015,-7.61289,78.0105,-159160,-152380,180350,2.44541,-4.03198,-170,-4594,-249,322,3.04516,0,2100
336073,-279.015,-7.61289,78.0105,-158820,-152060,179320,2.44541,-4.03198,-180,-4589,-274,322,3.04516,0,2100
336073,-279.015,-7.61289,78.0105,-158490,-151720,178300,2.44541,-4.03198,-210,-4585,-296,322,3.04516,0,2100
336073,-279.015,-7.61289,78.0105,-158150,-151390,177300,2.44541,-4.03198,-190,-4580,-316,322,3.04516,0,2100
336073,-279.015,-7.61289,78.0105,-157800,-151040,176270,2.44541,-4.03198,-180,-4591,-348,322,3.04516,0,2100
336073,-279.015,-7.61289,78.0105,-157460,-150710,175260,2.44541,-4.03198,-150,-4601,-381,322,3.04516,0,2100
336073,-279.015,-7.61289,78.0105,-157130,-150380,174240,2.44541,-4.03198,-140,-4609,-413,322,3.04516,0,2100
336073,-279.015,-7.61289,78.0105,-156790,-150050,173220,2.44541,-4.03198,-110,-4619,-449,322,3.04516,0,2100
336073,-279.015,-7.61289,78.0105,-156460,-149710,172200,2.44541,-4.03198,-140,-4620,-478,322,3.04516,0,2100
336073,-279.015,-7.61289,78.0105,-156120,-149380,171180,2.44541,-4.03198,-130,-4631,-513,322,3.04516,0,2100
336073,-279.015,-7.61289,78.0105,-155780,-149040,170170,2.44541,-4.03198,-140,-4632,-541,322,3.04516,0,2100
336073,-279.015,-7.61289,78.0105,-155440,-148700,169150,2.44541,-4.03198,-170,-4632,-571,322,3.04516,0,2100
336073,-279.015,-7.61289,78.0105,-155110,-148370,168140,2.44541,-4.03198,-150,-4624,-598,322,3.04516,0,2100
336232,-279.093,-7.5302,78.014,-154770,-148020,167120,-0.0584042,0.128447,-210,-4617,-622,324,3.01208,-3,2100
336243,-279.084,-7.5445,78.0166,-154420,-147690,166110,0.648634,-0.645738,-140,-4613,-650,326,3.0178,-2,2100
336255,-279.104,-7.52832,78.0005,-154070,-147330,165090,-0.336905,0.473904,-160,-4607,-674,328,3.01702,-3,2100
336261,-279.096,-7.53624,78.024,-153720,-146990,164060,0.260459,-0.263768,-110,-4608,-710,329,3.01449,-2,2100
336284,-279.086,-7.50582,77.9927,-153040,-146300,162030,1.16374,0.767829,-160,-4620,-787,332,3.00233,-1,2100
336296,-279.093,-7.52945,78.0169,-152700,-145970,161010,0.628077,-0.524997,-140,-4616,-822,334,3.00548,-3,2100
336306,-279.11,-7.5091,77.9957,-152370,-145630,159990,-0.454748,-0.20067,-140,-4614,-859,336,3.00164,-3,2100
336312,-279.115,-7.4894,77.9726,-152030,-145290,158970,-0.168192,0.656985,-140,-4624,-898,337,2.99576,-3,2100
336322,-279.137,-7.47823,77.9751,-151690,-144960,157950,-0.200144,1.26062,-140,-4641,-944,339,2.99129,-3,2100
336333,-279.128,-7.47068,77.969,-151350,-144610,156930,-0.842007,1.61023,-190,-4656,-985,341,2.98827,-3,2100
336344,-279.116,-7.47322,77.9939,-151010,-144280,155910,-0.413281,0.530523,-170,-4665,-1028,343,2.98929,-3,2100
336376,-279.237,-7.52293,78.0614,-149990,-143260,152870,-0.869736,0.732301,-210,-4728,-1169,347,3.00917,-3,2100
336387,-279.184,-7.52168,78.0079,-149650,-142920,151850,0.0385644,1.08947,-190,-4751,-1213,349,3.00867,-2,2100
336393,-279.129,-7.54051,77.929,-149300,-142570,150830,1.81234,-0.627582,-160,-4771,-1255,350,3.0162,-1,2100
336398,-279.09,-7.55068,77.9362,-148960,-142230,149810,1.58722,-0.406546,-150,-4780,-1293,351,3.02027,-1,2100
336398,-279.09,-7.55068,77.9362,-148620,-141890,148800,1.58722,-0.406546,-190,-4794,-1336,351,3.02027,-1,2100
336398,-279.09,-7.55068,77.9362,-148280,-141560,147780,1.58722,-0.406546,-160,-4809,-1380,351,3.02027,-1,2100
336398,-279.09,-7.55068,77.9362,-147940,-141230,146760,1.58722,-0.406546,-240,-4823,-1423,351,3.02027,-1,2100
336398,-279.09,-7.55068,77.9362,-147610,-140890,145740,1.58722,-0.406546,-210,-4818,-1455,351,3.02027,-1,2100
336398,-279.09,-7.55068,77.9362,-147270,-140560,144730,1.58722,-0.406546,-200,-4831,-1496,351,3.02027,-1,2100
336398,-279.09,-7.55068,77.9362,-146930,-140220,143710,1.58722,-0.406546,-180,-4859,-1549,351,3.02027,-1,2100
336398,-279.09,-7.55068,77.9362,-146600,-139890,142680,1.58722,-0.406546,-160,-4883,-1599,351,3.02027,-1,2100
336398,-279.09,-7.55068,77.9362,-146260,-139560,141660,1.58722,-0.406546,-160,-4888,-1641,351,3.02027,-1,2100
336398,-279.09,-7.55068,77.9362,-145580,-138890,139640,1.58722,-0.406546,-120,-4899,-1718,351,3.02027,-1,2100
336398,-279.09,-7.55068,77.9362,-145250,-138550,138610,1.58722,-0.406546,-110,-4916,-1764,351,3.02027,-1,2100
336398,-279.09,-7.55068,77.9362,-144910,-138210,137590,1.58722,-0.406546,-200,-4935,-1809,351,3.02027,-1,2100
336398,-279.09,-7.55068,77.9362,-144560,-137860,136560,1.58722,-0.406546,-150,-4960,-1856,351,3.02027,-1,2100
336398,-279.09,-7.55068,77.9362,-144220,-137530,135550,1.58722,-0.406546,-150,-4989,-1907,351,3.02027,-1,2100
336398,-279.09,-7.55068,77.9362,-143890,-137190,134530,1.58722,-0.406546,-180,-5008,-1950,351,3.02027,-1,2100
336398,-279.09,-7.55068,77.9362,-143540,-136850,133500,1.58722,-0.406546,-160,-5024,-1992,351,3.02027,-1,2100
336398,-279.09,-7.55068,77.9362,-143200,-136510,132480,1.58722,-0.406546,-230,-5042,-2034,351,3.02027,-1,2100
336398,-279.09,-7.55068,77.9362,-142850,-136160,131470,1.58722,-0.406546,-220,-5056,-2071,351,3.02027,-1,2100
336398,-279.09,-7.55068,77.9362,-142510,-135820,130450,1.58722,-0.406546,-190,-5068,-2109,351,3.02027,-1,2100
336398,-279.09,-7.55068,77.9362,-142180,-135490,129430,1.58722,-0.406546,-170,-5084,-2150,351,3.02027,-1,2100
336398,-279.09,-7.55068,77.9362,-141840,-135160,128430,1.58722,-0.406546,-140,-5099,-2191,351,3.02027,-1,2100
336398,-279.09,-7.55068,77.9362,-141500,-134810,127400,1.58722,-0.406546,-140,-5115,-2234,351,3.02027,-1,2100
336398,-279.09,-7.55068,77.9362,-141160,-134480,126380,1.58722,-0.406546,-150,-5124,-2272,351,3.02027,-1,2100
336403,-279.108,-7.53962,77.9729,-140820,-134150,125370,-0.729665,0.442132,-200,-5140,-2314,352,3.01585,-3,2100
336658,-279.339,-7.31502,78.1987,-140480,-133810,124350,-0.180773,0.176157,-160,-5155,-2351,353,2.92601,-3,2100
336669,-279.28,-7.39014,78.2218,-140140,-133470,123340,0.026089,-0.414107,-160,-5167,-2390,355,2.95606,-2,2100
336693,-279.272,-7.36261,78.201,-139470,-132790,121300,1.09638,-0.620411,-130,-5202,-2474,358,2.94504,-1,2100
336699,-279.278,-7.36883,78.2294,-139130,-132450,120290,-0.219107,-0.207374,-170,-5221,-2517,359,2.94753,-3,2100
336710,-279.312,-7.34099,78.1817,-138800,-132120,119260,-0.369937,0.270811,-150,-5235,-2558,361,2.9364,-3,2100
336719,-279.282,-7.37029,78.2041,-138450,-131770,118250,-0.121851,0.204299,-130,-5256,-2602,363,2.94812,-3,2100
336731,-279.012,-7.2937,78.3054,-138110,-131430,117270,6.37,5.49441,-170,-5274,-2640,365,2.91748,3,2100
336742,-278.971,-7.26973,78.0906,-137770,-131100,116240,9.42346,5.82375,-140,-5285,-2678,367,2.90789,6,2100
336759,-279.128,-7.49494,77.9363,-137100,-130420,114220,-0.345796,-0.159777,-160,-5309,-2746,370,2.99798,-3,2100
336771,-279.038,-7.49164,77.9294,-136750,-130070,113190,1.43516,0.0295893,-160,-5316,-2775,372,2.99666,-1,2100
336782,-279.129,-7.46563,77.9541,-136410,-129730,112170,0.166909,0.109221,-150,-5330,-2810,374,2.98625,-2,2100
336804,-279.121,-7.47059,77.9708,-135730,-129060,110130,0.375252,1.16737,-160,-5359,-2877,377,2.98824,-2,2100
336816,-279.156,-7.4537,77.9635,-135400,-128720,109120,-0.689385,-0.0307388,-170,-5393,-2923,379,2.98111,-3,2100
336821,-279.16,-7.46404,77.9725,-135050,-128370,108090,-0.17312,-0.413695,-150,-5424,-2964,380,2.98562,-3,2100
336832,-279.132,-7.46434,77.9713,-134710,-128040,107070,0.668156,-0.908986,-170,-5439,-2995,382,2.98574,-2,2100
336844,-279.136,-7.4485,77.9404,-134380,-127700,106050,0.442856,0.165538,-170,-5463,-3033,384,2.9794,-2,2100
336853,-279.117,-7.48353,77.986,-134040,-127370,105040,0.971571,-1.18596,-160,-5499,-3078,386,2.99341,-2,2100
336867,-279.113,-7.49699,77.9825,-133710,-127040,104030,1.3901,-0.450536,-130,-5525,-3119,388,2.99429,-3,2100
336873,-279.131,-7.49403,77.985,-133380,-126700,102980,-0.608561,0.0987228,-160,-5554,-3161,389,2.99761,-3,2100
336896,-279.143,-7.49333,77.9958,-132700,-126030,100940,-0.258456,-0.671609,-150,-5593,-3228,392,2.99733,-3,2100
336908,-279.158,-7.44089,77.9567,-132360,-125690,99920,-0.354051,1.05933,-180,-5609,-3261,394,2.98907,-3,2100
336913,-279.134,-7.45761,77.9687,-132030,-125340,98920,0.96365,-0.668822,-150,-5629,-3297,395,2.98305,-2,2100
336926,-279.111,-7.47115,77.9668,-131670,-125000,97920,-0.144732,0.416788,-150,-5646,-3327,397,2.98846,-3,2100
336937,-279.144,-7.46983,77.9611,-131350,-124670,96880,-0.144697,0.032092,-130,-5660,-3354,399,2.98793,-3,2100
336943,-279.164,-7.47279,77.9787,-131000,-124330,95910,-0.672298,-0.0988238,-170,-5673,-3381,400,2.98912,-3,2100
336955,-279.139,-7.47932,77.9879,-130670,-123990,94880,1.29164,-1.25014,-160,-5680,-3403,402,2.99173,-1,2100
336966,-279.158,-7.4221,77.9162,-130330,-123650,93880,0.943536,0.327219,-140,-5687,-3422,404,2.96884,-2,2100
336972,-279.174,-7.40895,77.9241,-129980,-123310,92840,-0.522337,0.438401,-150,-5695,-3443,405,2.96358,-3,2100
336986,-279.168,-7.55451,77.8291,-129630,-123000,91870,0.693798,-3.81825,-170,-5702,-3463,407,3.0218,-2,2100
336997,-279.157,-7.4947,77.846,-129130,-122840,91000,1.51277,0.701344,-70,-5699,-3476,409,2.99788,-1,2100
337009,-278.977,-7.33246,77.7559,-128880,-122850,89990,-1.53968,7.47983,-30,-5700,-3492,411,2.93299,-4,2100
337013,-278.987,-7.23173,77.7666,-128500,-122620,88960,-0.516812,5.03664,0,-5712,-3516,412,2.89269,-3,2100
337025,-278.996,-7.05191,77.7888,-128170,-122150,87940,0.614673,-0.0169182,-10,-5727,-3541,414,2.82076,-2,2100
337037,-278.985,-7.20729,77.7394,-127830,-121670,86900,1.11348,-4.20027,-120,-5737,-3561,416,2.88292,-1,2100
337048,-278.998,-7.31559,77.7285,-127160,-121180,84890,-0.507804,-2.3802,-40,-5742,-3589,418,2.92624,-3,2100
337065,-279,-7.12008,77.7346,-126810,-120930,83870,0.767459,3.25126,0,-5754,-3611,420,2.84803,-2,2100
337077,-279.032,-6.98563,77.7544,-126470,-120570,82860,0.213376,1.37044,10,-5756,-3627,422,2.79425,-2,2100
337082,-279.006,-7.00738,77.7669,-126140,-120180,81830,1.02228,-0.870084,-20,-5764,-3645,423,2.80295,-1,2100
337098,-279.029,-7.09993,77.7101,-125790,-119830,80790,-1.10189,-1.0706,-70,-5764,-3655,425,2.83997,-3,2100
337109,-278.89,-7.00554,77.884,-125450,-119530,79780,3.76411,5.68996,-30,-5755,-3662,427,2.80222,0,2100
337119,-278.937,-6.85767,77.9029,-125120,-119170,78740,1.65141,-1.14797,10,-5748,-3671,429,2.73159,-6,2100
337127,-278.946,-6.81856,77.8741,-124770,-118820,77700,-0.223488,0.977751,-50,-5752,-3687,430,2.72742,-2,2100
337138,-278.674,-6.73126,78.1066,-124430,-118490,76680,6.60904,1.86473,-50,-5750,-3699,432,2.6925,3,2100
337148,-278.54,-6.88069,78.1149,-124100,-118190,75670,1.99477,-6.31784,0,-5743,-3706,434,2.75228,0,2100
337161,-278.537,-6.7693,78.1048,-123770,-117860,74670,-0.0298778,1.49216,-10,-5743,-3718,435,2.70772,-2,2100
337173,-278.574,-6.92319,78.0723,-123800,-116330,75500,-1.03912,-4.35044,790,-5751,-3728,437,2.71707,-2,2100
337179,-279.551,-7.70932,78.1256,-123480,-115100,74580,-32.5563,-26.2044,-1200,-5752,-3764,438,3.08373,-35,2100
337190,-280.05,-6.79964,76.6049,-122590,-117280,70620,26.8752,40.8499,530,-5754,-3767,440,2.71986,24,2100
337196,-277.679,-6.05176,77.9668,-123230,-116830,71280,79.0423,24.9292,-320,-5777,-3786,441,2.42071,76,2100
337209,-279.002,-6.05056,77.8625,-122400,-116360,68760,-15.6777,-1.53052,-40,-5800,-3816,443,2.42023,-18,2100
337221,-278.15,-5.94213,77.8767,-122540,-117130,68780,10.9231,8.17227,100,-5822,-3797,445,2.37685,8,2100
337226,-278.397,-5.59229,77.8473,-122070,-116850,67850,-9.8427,13.9939,520,-5841,-3837,446,2.23692,-12,2100
337240,-278.691,-5.26324,78.0232,-121460,-115210,66070,4.79,-6.83371,-140,-5849,-3850,448,2.1053,2,2100
337252,-278.259,-6.34952,78.0129,-121250,-114460,65210,5.38252,-15.3455,-120,-5841,-3836,450,2.53981,2,2100
337273,-277.975,-7.10925,78.1466,-120260,-112990,62580,7.17586,-10.2771,-150,-5809,-3817,453,2.8437,4,2100
337285,-277.621,-7.30467,78.1059,-119830,-112940,61360,7.26837,0.436212,-220,-5802,-3797,455,2.92187,1,2100
337291,-277.807,-7.0436,78.0672,-119950,-113120,60960,-6.17422,8.70233,60,-5811,-3791,456,2.81744,-8,2100
337302,-278.211,-6.62001,78.0174,-119170,-112310,59050,-4.72964,6.03974,-160,-5800,-3794,458,2.64801,-7,2100
337346,-278.356,-5.43633,77.3694,-118460,-112320,55190,-15.6794,21.2661,50,-5778,-3718,463,2.17453,-17,2100
337352,-278.127,-5.77891,77.8863,-117980,-111820,54690,7.64443,-11.4192,50,-5771,-3704,464,2.31156,5,2100
337363,-278.224,-5.98544,77.8592,-117660,-111470,53880,-0.69153,-3.07396,0,-5767,-3691,466,2.39418,-3,2100
337373,-278.158,-5.66715,77.7973,-117380,-111190,53100,-1.41282,1.29095,220,-5765,-3684,468,2.26686,-3,2100
337384,-278.358,-6.02802,77.9231,-116910,-110630,51610,4.62193,-3.86951,10,-5757,-3676,470,2.41121,2,2100
337395,-278.251,-6.14735,77.8857,-116600,-110270,50750,-0.563496,-0.606907,50,-5747,-3660,472,2.45894,-3,2100
337417,-278.226,-6.16315,77.9898,-116100,-109590,48400,3.40926,-0.389075,90,-5719,-3626,475,2.43192,-5,2100
337428,-278.243,-6.15019,77.8597,-115740,-109200,47410,0.925717,-1.64949,-10,-5717,-3610,477,2.44028,-4,2100
337444,-278.151,-6.15657,77.8718,-115110,-108540,45180,2.25347,2.40565,0,-5696,-3572,479,2.46263,0,2100
337455,-278.129,-6.18269,77.8991,-114700,-108200,44190,0.771577,-3.1845,20,-5692,-3552,481,2.47308,-1,2100
337478,-278.072,-6.10167,77.9033,-114020,-107530,42230,-0.0196334,1.09608,0,-5663,-3505,484,2.44067,-2,2100
337483,-278.171,-6.09285,77.9086,-113700,-107240,41250,-3.94518,0.352948,70,-5661,-3487,485,2.43714,-6,2100
337494,-278.234,-6.04212,77.9013,-113360,-106870,40250,-4.83249,5.51104,30,-5651,-3468,487,2.41685,-7,2100
337505,-278.147,-6.15695,77.9931,-200,-90,253140,2.20443,-4.10689,30,-19,-12,488,2.46278,0,2100
337516,-278.095,-5.52085,77.7807,-110,-30,249280,2.94485,19.6535,20,564,282,490,2.20834,0,1836.98
337527,-278.497,-5.16052,77.4423,-70,-140,250520,-13.1027,16.9418,0,1124,555,492,2.06421,-15,1600
337527,-278.497,-5.16052,77.4423,-290,-260,251160,-13.1027,16.9418,50,1652,798,492,2.06421,-15,1600
337527,-278.497,-5.16052,77.4423,80,-340,252200,-13.1027,16.9418,60,2074,969,492,2.06421,-15,1600
337527,-278.497,-5.16052,77.4423,410,-250,253210,-13.1027,16.9418,110,2411,1087,492,2.06421,-15,1600
337537,-278.025,-5.57566,77.8593,720,-490,254210,-6.56098,29.1222,100,2671,1163,493,2.23027,-8,1600
337577,-279.003,-5.23513,76.0327,1140,-500,255240,-25.7103,22.1387,130,2921,1225,494,2.09405,-27,1600
337588,-278.379,-5.44845,77.9117,1540,-680,256130,-1.53528,3.63451,60,3124,1270,496,2.17938,-3,1600
337600,-278.631,-4.45781,79.1022,1150,-120,256640,-15.2625,42.582,550,3309,1377,498,1.78312,-17,1600
337610,-277.973,-5.7875,93.9697,1560,3490,256490,-27.248,-41.9449,1670,3628,2283,500,2.315,-29,1600
337622,-279.844,-16.9807,211.418,610,4380,256560,-21.3881,-283.387,-1870,3907,2412,502,3.39165,-44,1600
337628,-281.156,-18.4907,273.193,-570,1890,255170,-43.7357,-50.3329,-790,4116,2180,503,7.39629,-51,1600
337639,-283.456,-21.2171,367.885,-2730,-740,254790,-93.7065,-37.6098,-80,4318,2265,505,8.48683,-102,1600
337649,-287.354,-22.2962,462.179,-2010,-1790,255930,-25.9637,-0.0271372,-120,4494,2098,507,8.9185,-34,1600
337672,-285.816,-14.645,656.568,310,2290,260620,23.4004,100.648,280,4766,1939,510,5.858,17,1600
337682,-282.355,-9.3756,733.955,1160,3820,262500,70.2489,87.7166,-30,4865,1808,512,3.75024,66,1600
337693,-275.837,-7.83329,811.562,2240,4510,263980,85.1152,5.30139,30,4975,1684,514,3.19693,155,1600
337699,-273.089,-9.16885,848.503,3330,4810,265170,91.6268,-44.5187,-780,5081,1625,515,3.66754,87,1600
337709,-267.878,-13.9063,908.215,4080,5000,266230,84.0914,-66.6348,-800,5178,1579,517,5.56251,78,1600
337733,-251.397,-34.2218,1046.03,4220,5700,268020,88.8624,-191.105,-710,5284,1397,520,9.27123,202,1600
337744,-249.534,-46.8858,1102.77,4000,4800,268190,26.9856,-251.798,-780,5340,1324,522,16.2363,23,1600
337749,-249.128,-53.3561,1126.95,3540,3660,268160,16.2387,-258.811,-870,5394,1229,523,21.3424,-5,1600
337761,-250.948,-70.0538,1181.44,2590,2460,268630,-49.3803,-280.332,-670,5448,1155,525,28.0215,-77,1600
337772,-256.123,-83.5225,1226.76,1570,1940,268940,-114.325,-228.825,-810,5501,1097,527,33.409,-147,1600
337793,-269.882,-101.041,1305.46,-150,2300,270100,-137.626,-108.471,-580,5572,958,530,40.4164,-178,1600
337805,-277.113,-106.284,1346.7,-970,2930,271450,-110.008,-89.4939,-880,5591,908,532,41.4398,-172,1600
337811,-279.536,-107.109,1367.41,-1790,1430,273910,-80.781,-27.5018,-960,5607,896,533,42.8437,-123,1600
337822,-283.317,-109.5,1408.78,-1110,-2590,276720,-61.9324,-22.0134,210,5625,892,535,43.8,-105,1600
337845,-284.078,-105.966,1494.69,-640,-8190,278260,-24.8298,93.2676,70,5699,660,538,42.3864,-67,1600
337856,-283.729,-91.4585,1521.87,-1270,-6550,276660,3.72405,309.777,390,5714,464,540,36.5834,-32,1600
337861,-283.05,-82.4061,1527.69,-2410,-7210,275300,27.1909,362.099,910,5716,247,541,32.9624,-5,1600
337872,-282.764,-62.7801,1523.28,-4570,-6980,273590,-15.0256,347.03,1180,5685,196,543,25.112,-40,1600
337883,-284.914,-41.7531,1514.25,-5630,-6910,272070,-55.319,380.263,1280,5668,128,545,16.7012,-72,1600
337893,-290.459,-24.9953,1504.34,-6340,-6770,270240,-125.052,327.137,1470,5650,27,547,9.9981,-135,1600
337905,-298.404,-9.44129,1484.47,-6920,-7100,269160,-124.937,221.034,1490,5587,-86,549,3.77652,-128,1687
337927,-309.182,10.3186,1437.04,-5940,-5950,269490,-87.8132,156.493,1300,5493,-84,552,-0.48993,-99,1687
337933,-311.412,14.2603,1427.6,-4830,-4430,269590,-74.332,131.392,800,5440,-117,553,-5.70413,-68,1721
337944,-314.422,21.6482,1411.2,-3420,-3170,270100,-27.096,133.464,870,5402,-117,555,-8.65929,-18,1722
337955,-315.861,27.6027,1398.69,-2430,-2090,270750,-39.9149,86.2453,560,5378,-116,557,-11.0411,-28,1721
337966,-318.29,31.1771,1388.5,-1770,-1410,270940,-42.2526,72.1615,-80,5363,-113,559,-12.4708,-29,1718
337987,-318.326,38.4765,1376.22,-910,-520,269400,28.1683,76.7786,170,5347,-104,562,-15.3906,43,1709
337998,-315.1,41.9991,1372.1,-360,460,267360,60.917,46.6304,10,5347,-119,564,-16.7996,77,1723
338009,-310.407,44.0907,1367.14,320,1880,265580,104.826,33.8096,-120,5351,-133,566,-17.6363,122,1738
338015,-306.56,44.996,1363.62,1320,3350,264730,128.232,30.175,-190,5351,-138,567,-17.9984,146,1740
338026,-298.732,43.3777,1357.67,1770,4120,265000,145.214,-44.3041,-490,5347,-146,569,-17.3511,162,1751
338037,-291.5,36.5331,1350.78,2370,4180,266570,123.653,-153.654,-740,5334,-126,571,-14.6132,138,1734
338048,-281.891,27.4215,1346.13,3080,3950,268360,190.176,-161.619,-550,5331,-99,573,-10.9686,201,1708
338059,-270.353,15.6977,1344.25,3720,3850,269820,198.197,-238.083,-410,5335,-84,575,-6.27908,204,1689
338065,-265.319,6.47165,1344.21,4090,3530,270450,167.824,-307.535,-700,5345,-73,576,-2.58866,170,1678
338077,-256.909,-15.5114,1343.77,4430,3290,270620,145.422,-365.463,-580,5331,-81,578,6.20457,139,1686
338089,-249.515,-39.3287,1343.45,4600,3240,270140,102.341,-412.17,-480,5318,-109,580,15.7315,86,1714
338110,-249.38,-95.2318,1337.39,3280,2860,268080,-39.6846,-588.25,-430,5256,-166,582,38.0927,-77,1771
338121,-256.25,-130.928,1330.95,2550,1940,266880,-120.973,-663.209,-580,5242,-168,584,52.3714,-173,1773
338126,-259.14,-147.372,1327.87,1810,780,265760,-115.607,-657.761,-520,5239,-179,585,58.949,-174,1783
338138,-264.144,-186.371,1317.86,1210,490,265080,-75.5868,-640.467,-510,5233,-189,587,74.5484,-150,1794
338150,-268.896,-221.581,1306.2,310,-80,264210,-60.4341,-579.903,-700,5239,-171,589,88.6326,-149,1779
338161,-271.407,-249.531,1295.65,500,-10,264260,-38.0412,-479.241,-680,5251,-151,591,99.8124,-137,1756
338167,-272.17,-261.8,1289.74,500,350,264110,-25.4444,-408.969,-350,5244,-134,592,104.72,-130,1739
338178,-271.88,-279.889,1279.63,670,590,263060,10.5276,-300.929,-350,5231,-132,594,111.955,-101,1737
338190,-267.743,-295.123,1268.69,960,880,261330,92.7065,-237.009,-270,5219,-145,596,118.049,-25,1750
338195,-264.49,-301.155,1263.03,1330,1420,259160,130.136,-241.269,-290,5202,-157,597,120.462,9,1764
338209,-255.334,-317.839,1245.3,2250,1840,256960,146.036,-241.349,-10,5187,-163,599,127.136,18,1767
338220,-245.564,-333.27,1229.8,3280,2380,254810,180.147,-306.239,-30,5178,-186,601,133.308,46,1791
338230,-236.488,-352.431,1212.04,3620,2600,253070,181.541,-409.387,-70,5157,-195,603,140.972,40,1800
338242,-225.591,-384.091,1187.93,3350,2490,251790,199.33,-558.467,-140,5141,-187,605,153.637,45,1794
338254,-215.42,-425.882,1162.95,3140,2430,250870,177.849,-737.97,-210,5117,-193,607,161.497,0,1797
338254,-215.42,-425.882,1162.95,2910,2160,250140,177.849,-737.97,-150,5099,-204,607,170.353,7,1809
338254,-215.42,-425.882,1162.95,2810,2080,249690,177.849,-737.97,-210,5089,-216,607,170.353,7,1821
338254,-215.42,-425.882,1162.95,2800,1890,249470,177.849,-737.97,-460,5072,-232,607,170.353,7,1837.03
338259,-211.176,-445.98,1152.13,2400,1450,249980,169.787,-803.932,-870,5072,-179,608,178.392,-8,1785
338302,-171.056,-663.926,1043.94,2910,1250,250640,185.494,-988.956,-560,5079,-169,610,265.57,-80,1798.85
338325,-149.738,-773.905,982.522,2830,-220,252060,187.45,-899.168,-640,5038,-155,613,309.562,-122,1835.99
338336,-141.077,-819.961,953.679,2370,-1110,252680,149.626,-813.897,-780,5006,-120,615,318.218,-151,1815.85
338342,-136.302,-842.003,940.425,2190,-1430,252970,159.162,-734.725,-460,4982,-77,616,336.801,-177,1791.66
338353,-129.04,-875.653,919.13,2030,-1760,253290,128.368,-580.602,-370,4964,-65,618,350.261,-221,1792.7
338365,-122.423,-905.272,897.727,2390,-1910,253380,106.789,-461.484,-240,4945,-77,620,362.109,-255,1823.82
338376,-119.076,-927.325,875.918,2480,-2310,253240,47.7206,-375.476,-280,4925,-90,622,370.93,-323,1854.34
338381,-118.234,-935.856,865.604,2400,-3050,252800,33.6907,-341.23,-160,4910,-93,623,374.342,-340,1866.78
338392,-120.08,-953.048,842.544,1390,-3980,252290,-51.3182,-294.162,-140,4908,-85,625,381.219,-400,1876.48
338404,-127.579,-966.66,817.023,130,-4330,251770,-153.007,-203.376,-70,4895,-62,627,386.664,-400,1876.18
338426,-153.278,-968.594,777.613,-2030,-3770,250650,-258.851,96.9843,30,4883,1,630,387.438,-400,1844.01
338438,-168.444,-954.398,761.359,-2700,-3750,250170,-251.393,272.768,70,4874,28,632,385.032,-400,1825.76
338444,-175.799,-943.193,754.257,-2950,-3940,249620,-245.166,373.496,130,4863,32,633,377.277,-400,1831.75
338455,-187.355,-914.401,742.816,-2740,-3860,249090,-204.377,570.583,80,4841,44,635,365.76,-400,1828.92
338466,-196.732,-875.216,733.171,-2360,-3840,248710,-169.031,748.14,170,4823,40,636,350.086,-400,1839.66
338488,-211.875,-769.23,716.672,-1090,-3800,248620,-132.674,1079.23,190,4814,33,639,307.692,-400,1859.04
338494,-216.185,-734.839,712.042,-750,-3780,248930,-143.668,1146.37,270,4819,26,640,293.936,-400,1870.94
338506,-225.396,-660.202,701.39,-520,-3810,249490,-161.695,1275.24,210,4818,13,642,264.081,-400,1892.75
338516,-234.626,-592.631,691.599,-460,-3740,250290,-197.799,1370.05,190,4818,13,644,237.052,-400,1900.94
338528,-247.234,-506.204,679.539,-970,-3620,251180,-226.916,1463.01,280,4816,20,646,202.481,-400,1904.96
338540,-262.259,-413.602,668.647,-1610,-3640,252040,-257.366,1561.62,360,4826,34,648,184.18,-400,1895.55
338546,-268.923,-363.779,664.711,-1750,-3540,252830,-222.13,1660.77,350,4850,45,649,145.512,-367,1890.51
338557,-281.15,-268.403,656.127,-1560,-3250,253380,-200.92,1765.58,330,4862,39,651,107.361,-308,1905.74
338568,-291.882,-166.927,647.232,-1210,-2590,253670,-186.757,1862.96,280,4880,54,653,66.7709,-253,1896.24
338579,-299.704,-59.13,640.162,-410,-1510,253930,-118.635,1981.42,1070,4876,53,655,23.652,-142,1904.28
338585,-303.401,0.45715,636.391,2090,250,255450,-123.247,1986.24,1020,4880,152,656,-0.18286,-123,1808.43
338597,-309.43,106.998,640.377,1920,420,256270,-101.133,1698.95,80,4880,176,658,-42.799,-58,1783.05
338608,-313.481,194.94,651.796,1960,1350,256940,-56.0443,1590.24,1080,4888,136,660,-77.9758,21,1809.7
338620,-317.722,274.125,662.795,1170,1550,257750,-62.914,1238.82,640,4917,115,661,-109.65,46,1824.87
338626,-319.12,307.933,667.244,580,1360,258380,-46.6153,1126.96,50,4925,108,662,-123.173,76,1824.27
338637,-319.521,359.756,676.204,1240,2420,258400,-7.71364,898.243,330,4923,68,664,-143.902,136,1859.17
338661,-311.822,452.847,688.625,2190,4930,257060,114.603,655.521,100,4903,58,667,-181.139,295,1860.54
338672,-304.092,475.674,694.988,2450,5470,256060,158.331,379.113,-70,4908,48,669,-190.27,348,1865.64
338678,-297.823,483.457,698.516,3530,6550,255760,208.992,259.423,-30,4909,36,670,-193.383,400,1874.02
338702,-262.234,477.699,708.24,5730,7770,255790,328.754,-279.928,-180,4875,23,673,-191.08,400,1880.76
338708,-251.812,464.055,710.789,6160,7960,255860,347.371,-454.806,-310,4834,21,674,-185.622,400,1879.97
338720,-230.85,420.145,717.576,6200,7890,255800,349.731,-819.311,-320,4792,6,676,-168.058,400,1889.8
338731,-213.167,359.774,723.8,6080,7750,255440,319.136,-1196.12,-380,4748,-7,678,-143.91,400,1900.16
338753,-179.546,181.747,741.113,5400,7440,253660,293.652,-1847.16,-460,4685,17,681,-72.6989,366,1862.77
338764,-163.371,64.0478,752.096,4660,6570,252010,291.403,-2199.63,-1730,4679,49,683,-52.0146,349,1835
338769,-155.448,6.21825,757.974,4090,6780,250790,316.917,-2313.18,-1680,4696,151,684,-2.4873,319,1716.01
338781,-133.931,-128.813,782.303,4430,6980,251370,360.557,-2244.49,-1660,4719,182,686,51.5252,309,1662.8
338792,-112.823,-248.341,808.576,6240,7200,252100,382.467,-2159.8,-1130,4744,122,688,99.3363,283,1699
338803,-89.9297,-366.721,828.016,6140,5840,251840,413.586,-2168.71,-1460,4765,94,690,146.689,266,1712.86
338814,-67.565,-488.526,842.876,5880,4890,251180,404.413,-2211.13,-1260,4792,107,692,195.41,209,1686.32
338820,-55.229,-554.498,850.616,5170,3920,251630,411.201,-2199.05,-2140,4818,115,693,221.799,189,1672.4
338832,-33.4233,-681.904,865.173,4990,3390,252230,357.039,-2046.64,-2080,4842,130,695,272.762,84,1645.91
338844,-11.8476,-797.103,880.362,6310,2780,252660,360.422,-1850.05,-1290,4876,101,697,318.841,41,1656.88
338856,8.53542,-900.102,890.116,6810,1850,253140,311.571,-1676.18,-840,4896,67,699,339.927,27,1687.22
338862,16.9166,-948.659,892.994,5880,340,253250,279.372,-1618.54,-1840,4908,34,700,379.463,-100,1718.61
338873,27.5306,-1035.16,894.453,5080,-1400,252170,173.919,-1518.79,-1080,4922,58,702,414.062,-240,1691.44
338896,38.7263,-1165.79,896.973,4170,-3380,249230,18.7414,-917.45,-1110,4913,-9,705,440,-400,1756.42
338902,37.5941,-1188.14,894.95,3370,-4520,248870,-37.7424,-745.272,-1130,4898,-30,706,440,-400,1778.04
338913,31.7601,-1211.41,888.704,2660,-4780,249330,-128.684,-328.575,-820,4872,-73,708,440,-400,1824.04
338924,20.2977,-1211.95,877.678,1420,-3830,249970,-235.243,76.8772,-90,4847,-83,710,440,-400,1846.96
338936,0.548163,-1193.58,863.613,-480,-3110,250500,-366.042,365.214,-50,4821,-77,712,440,-400,1850.32
338947,-20.7934,-1165.57,851.845,-2500,-3310,251050,-386.279,561.775,130,4804,-80,714,440,-400,1860.71
338957,-39.6688,-1129.29,840.428,-3350,-3670,251620,-357.211,771.417,150,4777,-88,716,440,-400,1878.24
338968,-56.8874,-1076.4,827.43,-2950,-3710,252230,-302.692,1036.24,190,4749,-89,718,440,-400,1890.07
338974,-64.9501,-1041.29,820.492,-2130,-3750,253050,-268.759,1170.33,280,4746,-83,719,416.517,-400,1892.86
338986,-78.7587,-957.931,806.398,-1190,-3710,253980,-217.795,1453.07,230,4744,-67,721,383.172,-400,1888.48
339008,-99.988,-765.519,782.456,-280,-4770,255790,-196.662,1912.47,-130,4823,-10,724,306.208,-400,1851.1
339019,-111.068,-648.494,771.474,420,-4400,256070,-207.268,2203.49,300,4836,-12,726,259.398,-400,1861.97
339025,-118.081,-579.102,763.976,0,-4360,256640,-233.771,2313.07,620,4839,5,727,231.641,-400,1856.18
339036,-131.955,-442.242,752.651,-960,-3800,257070,-281.14,2531.96,880,4869,80,729,176.897,-400,1784.1
339070,-192.75,-26.7699,751.103,-1350,-2660,253710,-289.704,2318.42,1440,4924,118,734,38.529,-400,1747.81
339076,-200.375,41.4961,752.837,-450,-1170,254040,-254.173,2275.53,2060,4940,148,735,-16.5984,-237,1715.52
339087,-211.676,159.121,761.368,-420,90,254960,-211.13,2066.69,660,4948,178,737,-63.6484,-147,1678.05
339097,-219.774,253.987,773.863,200,660,254750,-124.865,1887.23,2220,4953,192,739,-101.595,-23,1650.91
339109,-229.053,347.149,794.229,900,3190,253760,-167.612,1380.38,1590,4968,143,741,-138.859,-28,1688.62
339109,-229.053,347.149,794.229,1060,4450,253330,-167.612,1380.38,1350,4972,198,741,-138.859,-28,1631.62
339113,-232.766,368.921,800.715,0,4100,253860,-185.639,1088.61,1390,4967,159,742,-147.568,-38,1662.43
339139,-257.109,438.129,858.342,-730,3910,254330,-153.885,192.352,500,4980,109,744,-175.251,21,1665.33
339151,-261.713,431.157,880.883,-320,3590,253690,-46.2848,-177.168,760,4984,24,746,-172.463,126,1731.29
339157,-263.701,421.542,888.144,-630,3620,252220,-66.2646,-320.511,100,4999,1,747,-168.617,102,1760.48
339169,-268.992,386.861,900.144,-1660,2980,252010,-82.4491,-659.089,-310,4995,3,749,-154.744,72,1735.88
339191,-271.998,303.426,918.137,-1090,2160,254130,57.4005,-750.711,-600,4966,-46,752,-121.37,178,1778.49
339202,-266.512,264.229,925.03,-470,2130,255400,106.335,-700.876,-270,4966,-41,754,-105.691,212,1765.98
339208,-262.731,243.554,928.743,50,2870,257290,126.046,-689.15,-530,4959,-69,755,-97.4216,223,1791.01
339220,-253.138,207.738,932.474,570,3320,259590,165.673,-565.072,-630,4942,-84,757,-83.0953,248,1803.02
339232,-244.655,174.787,933.745,1180,4020,261060,137.666,-538.116,-400,4914,-99,759,-69.9148,207,1817
339238,-239.081,160.085,934.083,1620,3680,261380,185.787,-490.065,-630,4893,-77,760,-64.034,249,1796.73
339249,-227.9,134.978,935.053,1840,3370,260440,214.707,-434.612,-580,4884,-69,762,-53.9912,268,1785.96
339260,-213.192,110.516,938.161,1940,3820,259600,278.074,-435.684,-630,4879,-45,764,-44.2062,322,1760.47
339272,-196.038,89.4751,942.132,3210,4920,259390,302.468,-325.315,-830,4880,-61,766,-35.79,338,1771.29
339284,-178.204,72.4149,943.046,4030,5440,260440,291.349,-266.08,-910,4873,-40,768,-28.966,320,1752.56
339294,-162.967,61.8865,944.968,3900,5470,262120,279.978,-203.283,-740,4876,-10,770,-24.7546,304,1721.03
339300,-153.463,55.6146,948.095,3700,4680,263170,316.776,-209.061,-840,4871,20,771,-22.2459,339,1687.52
339312,-135.056,46.2134,955.448,3130,3440,263570,309.829,-135.179,-810,4872,44,773,-18.4853,328,1657.64
339322,-120.79,40.9822,963.401,3620,3420,263580,251.22,-81.8338,-310,4882,20,775,-16.3929,267,1672.28
339345,-96.0965,36.4341,970.501,2150,2750,262000,172.656,-34.7135,-250,4897,-35,778,-15.2544,248,1721.96
339356,-87.1781,35.2234,968.401,1990,2690,260460,157.149,-18.2698,-260,4900,-56,780,-14.2721,180,1744.11
339362,-82.783,34.4074,965.557,1580,2390,258910,146.503,-27.2007,-90,4900,-59,781,-13.763,160,1750.55
339373,-75.1245,33.7874,958.81,1420,2510,257500,130.736,5.21404,-80,4896,-78,783,-13.515,144,1775.95
339384,-65.7941,32.1117,949.752,1210,2730,256800,170.615,-19.2249,-330,4902,-67,785,-12.8447,183,1772.2
339395,-57.4662,30.0151,939.187,1140,3140,256810,142.149,-41.2632,-140,4912,-57,787,-12.006,154,1768.65
339406,-48.2947,27.7812,927.22,910,3120,256800,174.237,-47.3475,-260,4905,-58,789,-11.1125,185,1781.22
339411,-43.2743,27.3953,921.212,600,3440,257600,200.815,-15.4359,-430,4899,-33,790,-10.9581,211,1762.03
339427,-24.5907,26.882,903.283,1380,3790,258600,249.122,15.3582,-460,4892,-25,793,-10.5992,258,1763.14
339433,-16.6534,26.7309,896.631,2040,3990,259610,264.576,-5.03388,-490,4866,-37,794,-10.6924,275,1784.7
339445,-0.178006,25.7457,883.166,3360,4440,260790,286.928,-14.1634,-400,4859,-43,796,-10.2983,297,1799.47
339467,27.3998,21.1808,858.807,3840,5060,263700,234.334,-58.9748,-720,4864,19,799,-9.49286,269,1751.12
339472,33.5896,20.4875,854.665,4260,5070,264620,247.593,-27.7303,-570,4837,31,800,-8.19502,255,1751.27
339483,46.9047,16.1094,846.024,5530,5170,265610,233.8,-99.4208,-440,4824,44,802,-6.44374,240,1744.18
339494,60.1349,9.40954,839.802,6940,5720,265250,223.166,-144.482,-60,4817,10,804,-3.76382,226,1783.16
339528,51.5034,-72.7295,804.836,1970,520,258830,-221.274,-687.214,-590,4787,29,808,29.0918,-250,1795.13
339539,41.8551,-104.703,796.358,1020,-220,256860,-160.667,-554.176,-10,4795,27,810,41.8812,-202,1798.91
339543,37.8838,-115.29,793.193,330,-460,255090,-198.563,-529.354,-240,4782,21,811,46.116,-244,1810.45
339543,37.8838,-115.29,793.193,-480,-910,254010,-198.563,-529.354,-80,4771,36,811,46.116,-244,1793.45
339543,37.8838,-115.29,793.193,-330,-1000,253340,-198.563,-529.354,0,4757,25,811,46.116,-244,1803.45
339543,37.8838,-115.29,793.193,-240,-1000,253080,-198.563,-529.354,-90,4746,31,811,46.116,-244,1800.45
339588,-10.9994,-200.155,758.479,-410,-1250,253220,-201.476,-190.888,-180,4737,28,813,80.062,-281,1830.23
339600,-24.1084,-207.51,749.866,-870,-1710,253630,-207.038,-81.8846,-80,4747,27,815,83.004,-290,1838.16
339605,-29.4677,-208.436,745.924,-950,-2030,253950,-214.372,-37.0334,0,4743,10,816,83.3743,-297,1857.42
339617,-41.8453,-206.42,734.523,-1110,-2190,254120,-204.867,57.9693,10,4724,-16,818,82.5681,-287,1892.81
339629,-52.3891,-195.35,720.479,-970,-1900,254120,-177.334,209.113,120,4701,-11,820,78.1401,-255,1901.42
339640,-60.5458,-177.559,708.528,-730,-1380,253910,-145.266,344.064,100,4691,21,822,71.0237,-216,1880.29
339651,-67.3661,-153.465,700.893,-510,-1030,253660,-114.948,474.346,80,4700,43,824,61.3859,-176,1862.6
339662,-72.1218,-124.028,693.956,-150,-650,253340,-89.9324,554.372,80,4714,59,826,56.2638,-138,1850.27
339672,-75.903,-93.9551,688.321,390,-370,252970,-65.6839,631.478,140,4724,68,828,43.8968,-129,1845.69
339678,-77.5605,-74.1465,685.13,860,-30,252590,-55.2489,660.286,210,4726,64,829,29.6586,-84,1854.59
339690,-81.1428,-33.9837,678.54,910,340,252340,-72.4369,658.176,190,4749,81,831,13.5935,-86,1843
339702,-85.774,6.24727,672.265,460,180,252350,-66.9117,674.752,170,4765,100,833,-2.49891,-64,1828.04
339713,-90.5958,42.8557,667.11,470,470,252780,-90.1664,685.621,60,4747,91,835,-8.91481,-75,1838.78
339719,-92.3132,62.7189,664.958,250,520,253580,-57.2457,662.108,50,4735,77,836,-25.0876,-32,1858.05
339730,-95.1617,99.7393,659.142,250,720,254770,-1.62399,674.565,1040,4740,90,838,-39.8957,38,1852.87
339741,-96.6909,131.116,655.205,520,720,256410,-31.1652,519.259,550,4738,100,840,-52.4462,21,1842.09
339746,-98.3069,141.378,653.916,400,730,257780,-64.6407,410.48,710,4751,144,841,-56.551,-8,1801.12
339746,-98.3069,141.378,653.916,750,1380,258870,-64.6407,410.48,890,4760,121,841,-56.551,-8,1822.03
339750,-98.9085,148.885,653.354,880,1710,259560,-30.0813,375.382,460,4761,106,842,-59.5541,29,1838.51
339782,-110.235,170.404,656.615,1070,1750,259900,-112.516,-49.8272,30,4771,106,844,-68.1615,-44,1836.95
339794,-118.948,160.828,655.357,490,770,259800,-130.095,-180.29,-90,4783,88,846,-64.3311,-65,1855.03
339800,-122.955,155.172,653.87,320,750,259420,-133.567,-188.543,-150,4767,80,847,-62.0686,-71,1864.4
339812,-130.285,144.907,651.42,750,1290,258900,-121.821,-142.904,-80,4746,85,849,-57.9628,-63,1861.54
339823,-136.431,135.945,651.797,770,1320,258220,-94.6453,-161.15,-40,4753,100,851,-54.3781,-40,1847.37
339835,-144.049,125.156,653.27,690,1470,257650,-115.799,-168.995,-270,4759,118,853,-50.0625,-65,1829.24
339841,-148.156,120.271,654.394,680,1460,257030,-136.884,-162.853,-30,4771,132,854,-48.1083,-88,1813.3
339851,-154.069,111.807,657.635,380,1380,256420,-134.321,-163.947,-60,4795,127,856,-44.7229,-89,1812.62
339874,-164.602,85.4021,662.531,110,1470,256420,-62.4643,-198.22,-290,4833,143,859,-34.1609,-28,1796.56
339886,-165.773,74.4707,665.799,520,1820,256990,-17.1806,-180.266,-240,4853,135,861,-31.9515,10,1800.93
339892,-165.005,69.2727,666.864,1130,2270,257740,25.5942,-173.267,-310,4886,152,862,-27.7091,53,1781.74
339904,-161.953,59.2085,667.755,2140,2610,258410,72.7691,-168.224,-410,4876,129,864,-23.6834,96,1802.84
339926,-146.92,45.4457,668.623,3500,4130,259430,159.394,-122.77,-240,4857,113,867,-18.1783,177,1816.97
339937,-139.225,35.8051,668.159,3770,4450,259390,139.56,-198.599,-760,4845,103,869,-16.7052,157,1829.97
339943,-135.629,28.5522,667.595,3870,4720,259800,119.872,-241.765,-1260,4836,141,870,-11.4209,131,1793.72
339954,-126.314,19.864,670.665,4450,5150,260850,194.128,-114.963,-840,4816,152,872,-7.94559,202,1778.04
339976,-97.5705,10.5791,686.398,5740,6160,262760,292.178,-50.9638,-840,4776,168,875,-4.23165,296,1747.78
339987,-81.1216,7.44012,696.313,6550,6570,263320,294.583,-72.3042,-360,4772,149,877,-2.97605,297,1752.48
339993,-72.6604,4.99554,701.299,7060,6570,263070,282.041,-81.486,-640,4767,106,878,-1.99822,284,1798.27
340005,-61.529,-8.41435,706.917,6820,6300,263240,152.282,-268.855,-700,4775,118,880,3.36574,148,1781.59
340017,-55.0676,-27.3875,711.971,6010,5190,263660,85.7695,-342.133,-910,4772,127,882,10.955,74,1768.42
340028,-51.4409,-46.5278,717.35,4650,3510,263820,65.6877,-375.994,-710,4781,119,884,18.6111,47,1771.12
340039,-49.7461,-67.0116,721.444,3040,1790,263370,22.1938,-368.457,-630,4775,113,886,23.1201,14,1775.95
340045,-49.8878,-78.1127,723.851,1500,300,262970,-4.72316,-370.036,-940,4784,146,887,31.2451,-35,1741.92
340056,-45.8701,-90.3563,730.391,1350,-120,262480,110.123,-166.12,-460,4778,178,889,36.1425,73,1703.69
340067,-37.6547,-92.8503,741.474,2040,370,261810,170.972,-9.49916,-160,4773,187,891,37.1401,133,1682.82
340077,-29.3099,-89.3452,754.494,2980,1370,260760,165.787,70.5516,-330,4789,150,893,35.7381,130,1707.4
340110,-5.16906,-65.1663,774.877,3480,2080,259560,108.298,184.689,-490,4794,68,896,26.0665,82,1777.1
340120,-1.38008,-55.9943,776.551,2760,1520,259520,54.1747,189.673,-170,4815,78,898,22.3977,31,1765.76
340126,0.264817,-50.1085,777.798,1990,640,259200,54.8299,196.192,-140,4838,89,899,20.0434,34,1752.76
340138,2.47908,-37.8341,779.891,2100,620,258540,56.9106,221.593,10,4855,84,901,15.1337,41,1756.09
340170,3.04948,-6.95741,776.843,2770,1570,255490,-56.248,144.549,-160,4914,49,905,2.78296,-59,1794.53
340181,0.0187502,-0.990994,770.224,1350,1010,254910,-67.6792,83.2799,-80,4929,55,907,0.396398,-68,1795.82
340192,-3.7677,4.8283,763.289,950,680,254550,-70.433,95.9552,-10,4929,45,909,-0.779859,-66,1802.14
340198,-5.70803,8.18322,758.646,170,460,254510,-64.6777,111.83,100,4907,32,910,-3.27329,-61,1826.09
340209,-7.52984,13.574,749.323,320,580,254420,-20.7275,97.2816,-30,4880,33,912,-5.42961,-15,1832.57
340232,-3.52584,25.2999,732.88,1770,1790,254770,57.4006,103.015,100,4832,12,915,-10.12,67,1866.95
340243,0.0816658,28.1973,724.566,3040,2370,255100,71.392,25.343,160,4803,16,917,-11.0255,71,1867.97
340253,2.91099,25.3363,719.595,3190,2290,255460,65.0789,-91.0238,30,4790,33,919,-11.0448,59,1855.33
340259,2.74325,21.0698,717.597,2790,1710,255790,-5.59125,-142.217,-150,4769,25,920,-8.42794,2,1865.74
340270,0.0586974,7.96749,714.193,1760,610,256080,-74.4059,-266.125,-60,4747,5,922,-3.18699,-71,1889.74
340281,-5.41918,-9.08148,710.005,470,-180,256420,-110.621,-298.834,-20,4747,16,924,3.63259,-114,1883.4
340292,-12.3495,-27.8949,707.33,70,-610,257260,-113.362,-333.91,-890,4738,47,925,11.158,-124,1856.76
340303,-15.0356,-37.8278,707.887,1250,390,258670,-29.1791,-139.394,-230,4733,79,927,15.1311,-44,1822.38
340309,-15.2385,-39.429,709.711,2480,1690,259650,-6.76547,-53.3715,60,4741,86,928,15.7716,-22,1812.86
340321,-14.1246,-41.2361,714.708,3260,2150,259900,9.5704,-38.2576,80,4748,74,930,16.4944,-6,1820.82
340333,-16.8615,-48.7108,718.132,2770,1710,260200,-62.9595,-159.402,-290,4760,77,932,19.4843,-82,1815.05
340344,-20.4319,-56.2284,720.323,2410,1300,260790,-48.4129,-136.098,-370,4762,73,934,22.4913,-70,1817.24
340355,-21.8332,-60.4434,721.696,2300,1160,260630,-31.3776,-73.0039,-20,4768,72,936,23.4473,-44,1816.1
340361,-23.1648,-63.2522,722.681,2200,1040,259950,-44.3882,-93.6292,10,4773,49,937,25.3009,-69,1835.3
340385,-37.8606,-81.0353,718.678,510,-630,258310,-173.403,-162.833,-30,4763,8,940,32.4141,-205,1882.91
340396,-48.2908,-90.0692,714.257,-360,-1420,257790,-196.526,-152.397,30,4741,10,942,34.1989,-215,1885.85
340402,-54.2728,-94.7248,712.35,-1230,-2130,257630,-199.398,-155.187,-40,4731,24,943,37.8899,-237,1873.54
340413,-65.5342,-98.6808,711.094,-1860,-2460,257530,-215.125,-71.468,0,4698,14,945,39.4723,-254,1884.82
340446,-86.4123,-75.701,719.925,-470,-1250,256730,-73.601,279.078,0,4668,59,949,30.2804,-103,1834.34
340457,-89.9436,-57.4377,726.677,240,-230,256360,-78.5744,347.663,120,4695,48,951,26.4517,-78,1840.15
