timestamp,x,y,z,pitch,roll,yaw,vx,vy,vz,battery,cpu_load,vicon_count,set_position,set_velocity,calc_thrust
0,0,0,0,0,0,0,0,0,0,0,0,0,0,0,0
0,0,0,0,410,-1040,260640,0,0,0,-70,-13,0,0,0,2100
3203674,-225.644,-171.087,75.5976,390,-1060,260540,0.63745,0.637824,273.738,-79,-15,2,273.738,-277,2100
3203685,-225.646,-171.083,75.5894,350,-1060,260440,-0.708087,1.00987,273.733,-77,-15,4,273.733,-279,2100
3203707,-225.656,-171.054,75.5795,240,-1100,260250,-0.954306,1.10973,273.686,-89,-18,7,273.686,-284,2100
3203713,-225.61,-171.082,75.5818,200,-1090,260140,1.50845,-0.946765,273.732,-91,-16,8,273.732,-289,2100
3203725,-225.704,-171.095,75.6078,140,-1050,260040,-1.47987,-0.522132,273.752,-90,-18,10,273.752,-292,2100
3203747,-225.602,-171.118,75.6241,90,-1050,259840,1.64135,-0.503993,273.79,-83,-12,13,273.79,-297,2100
3203759,-225.689,-171.115,75.5987,120,-1030,259730,-2.96344,0.311478,273.8,-88,-13,15,273.8,-300,2100
3203765,-225.651,-171.124,75.6465,60,-1010,259620,1.27425,-0.283039,273.798,-88,-11,16,273.798,-302,2100
3203776,-225.624,-171.195,75.7081,20,-980,259520,-0.243573,-0.791473,273.912,-85,-8,18,273.912,-306,2100
3203780,-225.626,-171.136,75.6127,40,-970,259410,-0.12653,2.92151,273.818,-88,-9,19,273.818,-305,2100
3203809,-225.654,-171.105,75.632,20,-970,259210,0.293984,1.59082,273.768,-89,-8,22,273.768,-312,2100
3203820,-225.62,-171.113,75.6154,-10,-1020,259100,0.260844,-0.259421,273.781,-88,-7,24,273.781,-316,2100
3203826,-225.61,-171.106,75.6459,20,-1040,259000,0.347644,0.227909,273.77,-74,2,25,273.77,-318,2094
3203837,-225.588,-170.87,75.6199,20,-1040,258890,1.1754,6.68847,273.392,-72,3,27,273.392,-314,2092
3203849,-225.589,-170.891,75.5817,20,-1080,258790,-0.459525,-0.388252,273.426,-77,0,29,273.426,-324,2095
3203860,-225.601,-170.84,75.5872,20,-1120,258690,-1.42438,2.25588,273.345,-71,2,31,273.345,-321,2093
3203871,-225.552,-170.849,75.5982,20,-1070,258590,0.885662,0.905705,273.395,-66,4,33,273.395,-325,2091
3203877,-225.574,-170.889,75.5869,20,-1050,258480,-0.743054,-1.3244,273.422,-57,9,34,273.422,-325,2086
3203888,-225.564,-170.958,75.6435,0,-1040,258370,0.885164,-2.38914,273.533,-58,10,36,273.533,-326,2085
3203899,-225.615,-170.883,75.6471,20,-1070,258280,-1.33603,1.40022,273.413,-60,11,38,273.413,-322,2084
3203910,-225.575,-170.923,75.6474,40,-1080,258180,-0.565683,-1.28616,273.476,-64,9,40,273.476,-325,2086
3203921,-225.613,-170.899,75.6347,30,-1060,258070,-1.79905,0.970718,273.439,-68,6,42,273.439,-323,2089
3203933,-225.564,-170.92,75.6138,10,-1030,257970,0.980348,-1.10319,273.419,-68,7,44,273.419,-323,2089
3203943,-225.566,-170.923,75.6153,10,-1010,257870,0.79314,-0.105098,273.473,-68,6,46,273.473,-324,2089
3203949,-225.576,-170.941,75.6458,30,-1030,257780,-0.348072,-0.580428,273.505,-60,9,47,273.505,-324,2086
3203960,-225.583,-170.898,75.595,0,-1010,257670,1.05333,0.531,273.437,-56,11,49,273.437,-323,2084
3203982,-225.561,-170.87,75.6426,0,-1020,257470,0.418747,-0.559109,273.392,-64,10,52,273.392,-324,2085
3203994,-225.613,-170.92,75.6468,40,-1030,257370,-0.775375,-0.78891,273.472,-57,13,54,273.472,-324,2082
3204000,-225.609,-170.877,75.5645,30,-1050,257260,0.145299,1.41375,273.404,-54,14,55,273.404,-322,2081
3204012,-225.599,-170.933,75.5998,80,-1050,257170,-0.0389307,-1.01092,273.493,-53,14,57,273.493,-325,2081
3204054,-225.11,-170.483,75.6781,10,-1070,252350,8.95436,14.3661,272.773,15,-43,63,272.773,-309,2100
3204060,-225.337,-171.178,75.3603,10,-1040,252680,-7.54731,-23.1847,273.886,46,-44,64,273.886,-348,2100
3204071,-225.103,-170.614,76.0642,80,-1050,252690,18.791,23.9217,272.982,20,-81,66,272.982,-300,2100
3204095,-225.312,-170.504,76.2294,180,-1120,252710,4.5219,15.6387,272.806,-98,-187,69,272.806,-308,2100
3204106,-225.207,-170.283,76.285,230,-1150,252750,6.42,30.1021,272.453,-126,-222,71,272.453,-293,2100
3204112,-225.445,-171.201,75.4786,350,-1150,252700,-7.9075,-30.5914,273.921,-126,-232,72,273.921,-355,2100
3204123,-225.083,-171.116,76.4269,180,-2490,252290,2.11666,-0.981239,273.786,-153,-109,74,273.786,-325,2100
3204145,-219.281,-161.346,133.246,1120,-430,250930,63.6046,62.3619,258.154,21,386,77,258.154,-245,1697.46
3204156,-214.063,-155.567,205.704,200,440,250260,81.497,85.5211,248.908,125,388,79,248.908,-213,1712.73
3204167,-215.363,-155.002,282.073,-230,-120,249990,-22.9547,-28.3671,246.641,200,490,81,246.641,-236,1610.66
3204197,-210.732,-141.348,519.687,910,-980,248170,42.2378,145.383,226.157,446,429,85,226.157,-127,1660.01
3204208,-207.794,-133.681,605.293,720,-300,248070,70.8007,136.616,213.89,531,440,87,213.89,-126,1600
3204213,-205.376,-131.52,644.91,650,440,247670,96.6912,86.4502,210.432,606,382,88,210.432,-174,1605.54
3204225,-198.915,-125.7,735.362,960,440,247080,111.814,80.7891,201.12,692,349,90,201.12,-172,1600
3204236,-192.213,-119.82,812.814,1520,460,246940,111.106,125.377,191.712,775,257,92,191.712,-119,1600
3204247,-183.663,-111.528,880.241,2430,1020,247030,163.838,168.359,178.445,854,144,94,178.445,-68,1647.18
3204257,-175.112,-104.65,929.953,3420,1290,247160,183.76,149.068,167.44,912,98,96,167.44,-79,1655.39
3204278,-155.23,-89.1167,1013.64,3900,2370,247400,184.673,129.978,142.587,1024,2,99,142.587,-74,1686.76
3204289,-144.983,-82.7912,1049.19,3750,2760,247570,176.596,105.327,132.466,1059,-40,101,132.466,-88,1699.34
3204300,-135.729,-78.0762,1078.61,3220,3050,247760,157.617,65.7743,124.922,1103,-73,103,124.922,-118,1710.95
3204306,-131.733,-76.3723,1092.57,2520,2940,247900,133.181,56.7976,122.196,1140,-66,104,122.196,-122,1703.22
3204317,-125.606,-76.2656,1117.48,2110,2440,248290,82.2819,-22.3937,122.025,1163,-86,106,122.025,-196,1719.48
3204340,-116.829,-83.1774,1159.95,980,1380,248640,49.6549,-63.2906,133.084,1209,-128,109,133.084,-245,1766.41
3204346,-115.723,-85.9144,1169.13,930,760,248230,36.8667,-91.2327,137.463,1260,-132,110,137.463,-277,1769.98
3204358,-114.206,-90.8327,1184.93,970,120,247830,31.3007,-73.0141,145.332,1281,-148,112,145.332,-266,1782.57
3204370,-114.129,-95.7013,1198.62,790,-90,247690,-9.98001,-76.1368,153.122,1289,-170,114,153.122,-273,1800.22
3204382,-114.938,-99.2122,1209.46,910,-260,247540,-11.887,-81.1108,154.846,1311,-189,116,154.846,-233,1823.04
3204388,-114.991,-101.431,1213.44,1090,-680,246980,-1.76148,-73.9615,162.29,1328,-188,117,162.29,-279,1819.84
3204400,-116.417,-107.34,1220.55,710,-1230,246340,-31.0593,-89.044,171.744,1335,-192,119,171.744,-299,1825.69
3204422,-117.105,-115.334,1228.36,300,-2280,245350,-0.952421,-64.6552,184.535,1384,-177,122,184.535,-289,1809.36
3204428,-116.981,-116.893,1230.25,250,-2270,244580,4.14996,-51.9454,187.029,1384,-187,123,187.029,-279,1821.19
3204440,-116.105,-116.392,1232.2,840,-1920,243510,32.2384,30.2325,186.227,1404,-175,125,186.227,-200,1806.98
3204451,-114.901,-112.312,1232.9,1400,-650,242640,54.8479,89.5812,179.7,1421,-193,127,179.7,-139,1824.8
3204473,-116.63,-100.643,1223.57,2050,1150,241500,-58.2185,98.7306,161.029,1445,-195,130,161.029,-87,1827.58
3204484,-120.683,-98.496,1216.76,1630,1060,241190,-82.978,21.3235,158.617,1437,-188,132,158.617,-120,1819.43
3204490,-124.423,-99.216,1213.13,540,720,241050,-124.689,-23.9994,158.746,1436,-213,133,158.746,-186,1844.34
3204501,-130.912,-103.353,1203.43,-590,-80,241060,-130.131,-84.721,165.365,1438,-213,135,165.365,-250,1845.31
3204524,-144.175,-116.308,1180.9,-1650,-1310,241440,-87.9079,-116.502,186.092,1416,-214,138,186.092,-311,1846.21
3204535,-147.257,-120.787,1168.33,-1200,-1710,241530,-58.8899,-70.3538,189.882,1424,-200,140,189.882,-300,1832.15
3204541,-146.504,-121.891,1161.17,-630,-1710,241570,25.0952,-36.7986,195.025,1424,-197,141,195.025,-266,1829.04
3204552,-144.869,-121.721,1146.47,370,-1260,241490,64.6942,18.591,194.754,1422,-208,143,194.754,-221,1838.94
3204575,-141.486,-116.608,1106.46,1540,-240,241440,32.2135,40.9358,186.573,1404,-208,146,186.573,-184,1839.87
3204586,-143.542,-113.745,1085.79,1350,160,241530,-44.5685,47.1527,184.256,1390,-211,148,184.256,-151,1841.81
3204592,-145.825,-113.198,1073.63,470,490,241640,-76.0985,18.252,181.117,1370,-210,149,181.117,-176,1842.88
3204603,-151.393,-114.111,1050.79,-450,250,241650,-96.7777,-36.7736,182.578,1359,-201,151,182.578,-225,1852.14
3204625,-161.88,-120.437,1003.82,-1150,-1010,241790,-72.2946,-71.4876,192.699,1337,-176,154,192.699,-273,1865.78
3204637,-164.711,-124.024,978.251,-840,-1410,241780,-39.9559,-52.185,195.933,1322,-159,156,195.933,-276,1859.07
3204643,-165.268,-125.271,965.214,-530,-1650,241720,-18.5491,-41.5813,200.434,1301,-145,157,200.434,-264,1864.78
3204654,-165.707,-125.621,943.315,-270,-1490,241650,-3.56419,-0.532121,200.993,1266,-136,159,200.993,-228,1874.4
3204687,-167.597,-115.162,888.351,460,370,241940,-39.5042,96.2337,184.26,1217,-83,163,184.26,-109,1865.6
3204698,-168.362,-111.667,872.736,200,630,242190,-31.5153,61.6601,178.668,1194,-81,165,178.668,-139,1875.17
3204703,-169.325,-110.635,865.928,-140,600,242500,-38.5427,41.3064,177.016,1172,-80,166,177.016,-156,1879.74
3204714,-171.267,-109.964,851.417,-440,150,242920,-25.7365,3.11773,175.943,1163,-60,168,175.943,-195,1871.5
3204725,-172.511,-110.994,838.357,-480,-340,243350,14.703,-22.2913,177.59,1172,-39,170,177.59,-232,1862.02
3204737,-172.606,-113.169,825.27,-170,-820,243670,19.0029,-36.2114,181.071,1170,-35,172,181.071,-250,1868.53
3204748,-170.862,-114.013,812.831,210,-990,243860,40.5596,-18.3628,182.42,1161,-28,174,182.42,-239,1870.56
3204754,-170.51,-114.333,807.083,610,-900,243990,11.7485,-10.6945,182.933,1149,-22,175,182.933,-227,1870.25
3204765,-169.221,-113.217,796.105,940,-490,244010,12.7583,31.2492,181.146,1142,-16,177,181.146,-184,1871.13
3204776,-170.406,-110.484,785.926,1140,0,243840,-35.8948,59.1313,176.775,1138,-17,179,176.775,-142,1882.4
3204787,-172.92,-108.647,775.361,670,90,243560,-43.1293,29.7121,173.835,1139,-1,181,173.835,-165,1874.97
3204798,-178.008,-106.771,766.362,260,10,243250,-101.674,22.565,170.833,1165,12,183,170.833,-156,1868.27
3204810,-185.035,-105.658,756.177,-500,190,242990,-95.933,1.84608,169.052,1157,7,185,169.052,-172,1881.52
3204816,-188.355,-105.208,750.905,-780,-30,242840,-110.668,14.9858,168.333,1160,18,186,168.333,-203,1874.85
3204840,-197.391,-104.865,731.52,-500,-10,242890,-49.8081,6.19475,167.783,1162,30,189,167.783,-176,1877.61
3204846,-198.512,-104.502,727.048,210,0,242920,-37.3661,12.0966,167.203,1157,31,190,167.203,-172,1881.31
3204858,-199.303,-104.078,718.186,660,-130,242960,-12.687,17.3275,166.524,1165,42,192,166.524,-172,1878.54
3204882,-202.106,-104.013,701.428,1200,-530,243300,-36.4209,-0.487255,166.398,1192,72,196,166.398,-195,1858.69
3204888,-204.277,-104.289,697.955,1040,-590,243600,-72.361,-9.17981,166.862,1170,75,197,166.862,-184,1860.89
3204899,-208.485,-103.906,692.657,220,-680,243840,-103.26,23.5295,166.25,1152,73,199,166.25,-145,1867.2
3204921,-217.768,-99.4828,684.625,-610,-90,244070,-47.7389,62.4777,159.173,1155,85,202,159.173,-114,1861.71
3204933,-220.491,-94.598,680.104,-500,430,244080,-12.8058,78.6322,155.131,1153,94,204,155.131,-82,1854.12
3204939,-220.82,-91.8654,678.149,-290,830,244000,-10.9701,91.0851,146.985,1158,120,205,146.985,-81,1833.87
3204949,-218.84,-88.2682,676.079,380,750,243820,47.0781,77.3656,141.229,1140,124,207,141.229,-102,1828.38
3204960,-215.493,-85.0113,675.243,1190,730,243580,94.852,34.7229,136.018,1132,131,209,136.018,-149,1824.94
3204972,-210.74,-83.3643,674.86,2100,90,243130,66.1775,17.2848,133.383,1136,147,211,133.383,-157,1808.03
3204983,-210.369,-82.9545,676.254,1900,-110,242490,-37.2324,12.1069,132.727,1120,126,213,132.727,-136,1826.72
3204989,-210.836,-83.7875,675.93,580,-350,242060,-15.5529,-27.7656,134.06,1116,126,214,134.06,-180,1827.85
3205000,-214.695,-85.5785,676.16,-480,-580,241900,-86.6158,-40.7141,136.926,1123,131,216,136.926,-175,1821.49
3205011,-219.994,-87.2813,677.475,-1390,-770,241880,-90.6883,-27.3314,139.65,1123,115,218,139.65,-162,1835.3
3205022,-223.103,-88.0059,675.844,-990,-900,241880,-44.5707,-10.4688,140.809,1120,111,220,140.809,-158,1841.55
3205044,-221.386,-79.8197,673.55,740,140,241930,51.1294,117.565,127.711,1101,111,223,127.711,-48,1842.26
3205050,-220.015,-76.1465,673.078,1410,1120,242040,45.705,122.44,121.834,1118,126,224,121.834,-36,1828.55
3205062,-217.639,-68.367,672.156,1770,1800,242210,37.5741,137.389,109.387,1116,125,226,109.387,-7,1829.17
3205074,-217.023,-63.9842,672.012,1350,1830,242420,-9.10785,61.8274,102.375,1126,122,228,102.375,-62,1833.18
3205086,-216.447,-64.7011,670.44,910,1130,242700,-1.56429,-27.573,102.198,1116,120,230,102.198,-126,1835.83
3205091,-216.511,-66.1581,670.096,820,100,242950,-2.56159,-58.2795,105.853,1110,115,231,105.853,-184,1840.55
3205102,-216.853,-70.6226,668.987,540,-710,243120,-7.92271,-86.924,112.996,1102,110,233,112.996,-218,1847.41
3205112,-217.519,-74.9035,667.53,550,-1090,243070,-15.9452,-81.8652,119.846,1120,123,235,119.846,-217,1835.52
3205124,-219.357,-78.1846,665.565,360,-1080,242800,-43.091,-44.4906,125.095,1148,120,237,125.095,-179,1840.03
3205135,-220.585,-78.7731,661.2,340,-510,242510,-33.5473,-1.14653,126.037,1161,119,239,126.037,-139,1845.46
3205146,-222.471,-77.3613,655.557,550,200,242330,-37.4813,31.8014,123.778,1154,124,241,123.778,-102,1844.94
3205157,-224.984,-74.6177,650.225,780,950,242190,-48.6413,47.2732,119.388,1134,139,243,119.388,-80,1833.13
3205162,-225.46,-74.142,647.964,870,1120,242060,-19.0216,19.0265,118.627,1096,135,244,118.627,-114,1838.86
3205173,-228.927,-73.8726,645.054,600,920,241840,-78.6213,10.8601,118.196,1071,149,246,118.196,-103,1827.1
3205185,-232.764,-77.6411,644.461,-170,430,241620,-77.1254,-70.0852,124.226,1073,158,248,124.226,-186,1818.43
3205195,-237.237,-81.479,643.985,-1140,-110,241480,-88.0067,-52.9848,130.366,1079,147,250,130.366,-171,1830.68
3205218,-241.684,-90.9865,642.212,-1110,-910,241590,-7.36414,-54.3762,145.578,1076,153,253,145.578,-209,1824.8
3205224,-241.527,-91.729,641.503,-430,-790,241760,5.22576,-24.7504,146.766,1059,154,254,146.766,-185,1824.23
3205248,-236.937,-87.9387,641.281,860,-250,241660,48.7307,51.38,140.702,1043,157,257,140.702,-120,1822.16
3205254,-236.577,-85.9131,641.5,1110,80,241230,12.0197,67.5206,137.461,1031,150,258,137.461,-90,1827.85
3205266,-238.673,-81.1244,642.585,570,700,240590,-61.2009,79.6825,129.799,1048,159,260,129.799,-48,1818.85
3205289,-249.12,-75.6768,645.056,-510,1560,240120,-113.315,17.4309,121.083,1068,162,263,121.083,-77,1812.53
3205300,-253.999,-76.2693,646.506,-980,1460,240400,-67.5414,-29.2851,120.625,1085,160,265,120.625,-81,1811.59
3205306,-255.51,-77.5999,646.644,-1270,660,240890,-50.3909,-44.3549,124.16,1106,148,266,124.16,-159,1823.89
3205317,-255.881,-81.0785,644.789,-700,-330,241520,9.85411,-66.2641,129.726,1109,124,268,129.726,-205,1848.3
3205340,-249.891,-85.0848,634.606,970,-750,242530,58.8761,-10.013,136.136,1077,116,271,136.136,-176,1866.58
3205346,-248.593,-84.872,632.415,1030,-330,242860,43.2956,7.09441,135.795,1052,118,272,135.795,-155,1866.41
3205357,-248.19,-83.3931,629.768,1070,350,243100,19.9051,17.9313,133.429,1044,126,274,133.429,-136,1861.6
3205368,-250.822,-81.8188,628.287,930,880,243140,-61.9692,26.0684,130.91,1054,139,276,130.91,-104,1850.81
3205378,-255.859,-81.8223,628.061,380,870,243120,-116.885,-15.29,130.916,1067,160,278,130.916,-128,1828.91
3205390,-264.361,-83.5946,629.959,-320,630,243100,-160.835,-46.9972,133.751,1056,136,280,133.751,-147,1849.34
3205402,-273.468,-86.9817,630.313,-1430,160,243200,-162.562,-66.5906,135.974,1057,127,282,135.974,-156,1857.17
3205408,-277.239,-89.8668,630.361,-2250,-330,243420,-125.704,-96.1682,143.787,1045,113,283,143.787,-215,1873.13
3205431,-283.514,-94.5928,626.796,-1390,-1170,244030,15.385,1.31282,151.349,1045,106,286,151.349,-166,1883.26
3205442,-279.838,-91.2833,624.995,-70,-810,244280,86.9174,72.171,146.053,1045,115,288,146.053,-113,1875.83
3205448,-277.679,-88.0268,624.29,1140,-280,244380,71.9601,108.549,140.843,1042,124,289,140.843,-69,1867.5
3205460,-272.917,-79.4379,623.111,1850,320,244410,76.2783,153.665,127.101,1033,130,291,127.101,-14,1863.51
3205482,-273.54,-61.5038,624.918,990,1860,244230,-60.6049,159.446,98.4061,1032,130,294,98.4061,56,1861.15
3205494,-277.131,-54.7884,626.37,30,2280,244020,-75.5555,102.972,92.6041,1045,135,296,92.6041,20,1857.74
3205500,-279.799,-52.7451,627.648,-390,2240,243940,-88.9354,68.1105,84.3921,1072,137,297,84.3921,-8,1851
3205512,-281.887,-52.5789,628.107,-770,1380,243920,-18.1759,-7.68145,84.1263,1082,127,299,84.1263,-100,1861.66
3205533,-281.676,-60.0777,623.723,290,-140,244130,26.1133,-90.5486,96.1243,1053,111,302,96.1243,-204,1880.4
3205544,-281.376,-65.2236,621.503,370,-250,244180,0.990598,-97.2702,104.358,1037,119,304,104.358,-212,1875.31
3205555,-283.331,-69.8718,622.12,80,-340,244280,-33.2516,-98.3284,111.795,1028,121,306,111.795,-211,1872.93
3205560,-284.46,-72.0891,622.561,-160,-630,244300,-45.1663,-88.6902,115.343,1026,130,307,115.343,-202,1864.67
3205571,-287.622,-76.1365,624.366,-870,-970,244240,-69.6647,-42.4908,121.818,1024,127,309,121.818,-157,1863.27
3205582,-292.309,-78.4318,627.618,-1130,-720,243940,-80.2849,-26.3016,125.491,1036,121,311,125.491,-141,1866.74
3205593,-295.936,-78.8063,630.093,-830,-180,243490,-60.9864,16.0291,126.09,1031,105,313,126.09,-103,1882.89
3205604,-299.419,-76.6154,632.023,-620,570,243170,-57.3949,40.0433,122.585,1052,120,315,122.585,-76,1866.45
3205616,-302.173,-71.703,635.417,-520,1220,242960,-44.8102,78.3843,114.725,1052,103,317,114.725,-34,1880.85
3205622,-302.426,-69.6788,636.051,-470,1570,242920,-8.4136,67.4755,111.486,1058,106,318,111.486,-51,1878.5
3205645,-299.47,-66.456,641.189,80,1000,243800,56.9755,13.9987,106.33,1043,107,321,106.33,-119,1873.65
3205657,-295.099,-67.8043,645.791,740,250,244390,82.1733,-17.6658,108.487,1053,101,323,108.487,-159,1875.08
3205662,-293.456,-68.9843,647.564,1450,-340,244790,65.7319,-47.2023,110.375,1061,95,324,110.375,-185,1880.79
3205674,-289.399,-71.7634,650.331,1450,-960,244940,76.671,-49.3977,114.821,1071,91,326,114.821,-196,1879.69
3205685,-289.151,-74.0617,652.281,990,-1220,244990,-11.3688,-44.9564,118.499,1060,71,328,118.499,-172,1898.32
3205708,-298.357,-72.2532,654.568,-450,410,244710,-111.719,44.2083,117.727,1055,91,332,117.727,-87,1881.13
3205713,-300.964,-71.0909,656.205,-1350,1170,244420,-104.301,46.4926,113.745,1045,103,333,113.745,-52,1865.7
3205724,-305.876,-68.6553,661.038,-1430,1060,244170,-88.2767,43.5422,109.848,1041,102,335,109.848,-55,1861.88
3205758,-301.44,-66.7512,675.836,260,-290,243370,79.1551,16.1282,106.802,1030,70,340,106.802,-122,1883.52
3205764,-298.564,-66.235,678,780,-370,243140,95.8548,17.2088,105.976,1029,76,341,105.976,-125,1874.91
3205776,-294.132,-64.5396,683.373,350,-320,242930,71.9076,22.5442,103.263,1034,62,343,103.263,-111,1884.73
3205799,-290.397,-59.5026,692.174,10,380,242820,51.3038,41.9092,95.2042,1035,51,346,95.2042,-78,1890.1
3205810,-288.738,-56.809,696.473,150,710,242820,26.7578,53.3483,93.455,1038,58,348,93.455,-69,1881.86
3205816,-287.813,-55.6554,699.197,-20,820,242780,30.8129,38.451,89.0487,1057,61,349,89.0487,-69,1874.74
3205827,-284.895,-55.112,703.911,-50,520,242680,57.4708,5.38323,88.1792,1068,60,351,88.1792,-108,1872.05
3205838,-280.856,-55.6561,707.64,250,170,242620,82.1862,-15.1349,89.0498,1086,66,353,89.0498,-137,1863.14
3205849,-275.404,-57.1484,710.442,570,-160,242620,107.579,-33.2462,91.4375,1108,67,355,91.4375,-165,1859.92
3205866,-266.732,-59.637,712.523,960,-760,242930,90.8406,-30.1092,95.4192,1120,53,358,95.4192,-161,1871.33
3205878,-262.59,-61.0477,712.115,470,-540,243350,60.0535,-20.9481,97.6763,1125,46,360,97.6763,-145,1877.76
3205889,-260.845,-61.3385,710.191,160,-140,243890,22.565,0.185765,98.1417,1119,42,362,98.1417,-116,1885.44
3205899,-260.229,-60.9399,707.715,300,110,244390,9.63976,11.6804,97.5039,1104,45,364,97.5039,-102,1884.57
3205922,-261.271,-60.5922,707.305,230,610,244830,-4.18125,-9.33665,96.9475,1113,64,367,96.9475,-119,1866.09
3205928,-262.432,-60.47,707.555,440,570,244860,-38.6799,4.07446,96.752,1129,82,368,96.752,-96,1847.89
3205962,-266.143,-70.9015,709.692,200,-640,244820,-18.8738,-97.4451,113.442,1171,74,373,113.442,-215,1854.13
3205973,-267.503,-75.0648,708.094,80,-1040,244880,-22.5087,-79.3034,120.104,1207,82,375,120.104,-203,1848.39
3205984,-269.247,-78.3097,705.21,-140,-910,244960,-6.15694,-66.7222,122.093,1241,91,377,122.093,-165,1840.17
3205990,-270.487,-79.1937,703.563,-150,-750,245150,-41.3171,-29.4663,126.71,1249,84,378,126.71,-157,1848.9
3206002,-272.748,-79.6893,698.815,-310,-450,245530,-37.913,0.934946,127.503,1265,76,380,127.503,-129,1860.7
3206013,-273.283,-79.0743,691.648,110,-210,246010,-14.1428,14.8305,126.519,1295,79,382,126.519,-124,1864.48
3206024,-272.702,-77.3551,682.75,600,90,246420,13.5873,37.2098,123.768,1312,84,384,123.768,-107,1865.63
3206030,-273.276,-77.2945,678.177,1170,460,246700,-19.1178,2.02113,123.671,1305,74,385,123.671,-133,1879.36
3206042,-272.186,-76.471,666.943,1000,500,246890,33.6567,-4.52498,122.354,1296,76,387,122.354,-153,1886.51
3206053,-273.393,-78.4997,657.558,1130,90,246900,-36.1166,-53.4745,125.599,1301,93,389,125.599,-186,1877.12
3206065,-275.072,-82.7554,648.995,260,-260,246760,-12.217,-102.004,132.409,1315,97,391,132.409,-245,1880.08
3206070,-276.824,-85.2045,645.444,40,-780,246600,-70.0757,-97.9638,136.327,1322,100,392,136.327,-230,1880.04
3206082,-278.81,-91.1649,637.198,-390,-1130,246450,-14.4365,-105.18,145.864,1317,96,394,145.864,-260,1891.79
3206093,-280.903,-96.1405,629.743,-770,-1280,246260,-6.2784,-82.8457,153.825,1318,108,396,153.825,-247,1886.92
3206105,-281.199,-100.303,622.517,-350,-1320,246080,-7.05909,-65.9641,160.484,1311,112,398,160.484,-235,1885.83
3206115,-279.873,-101.494,618.304,190,-1240,245930,35.7052,-14.1314,162.391,1312,115,400,162.391,-198,1887.36
3206126,-277.865,-101.429,613.718,680,-820,245720,50.1366,8.24889,162.286,1298,122,402,162.286,-180,1884.18
3206136,-276.105,-101.355,611.237,1070,-640,245390,21.8294,3.09127,162.167,1297,134,404,162.167,-176,1874.27
3206142,-275.528,-100.466,611.128,830,-410,245060,19.2245,29.6165,160.746,1300,141,405,160.746,-149,1868.43
3206154,-275.092,-99.9132,610.654,510,-50,244650,-7.54465,10.1471,159.861,1305,138,407,159.861,-157,1870.88
3206165,-275.736,-100.122,610.351,400,-60,244210,-30.8015,1.9361,160.196,1308,141,409,160.196,-157,1868.18
3206187,-278.081,-103.093,611.242,150,-300,243670,-35.0641,-51.5807,164.949,1319,126,412,164.949,-208,1881.63
3206198,-278.371,-106.205,610.37,120,-640,243660,3.69771,-66.5494,166.734,1313,126,414,166.734,-209,1884.24
3206204,-278.904,-108.449,610.214,180,-1070,243560,-17.7879,-74.7881,173.519,1311,127,415,173.519,-244,1880.71
3206228,-281.734,-115.158,612.292,-960,-1660,242740,-21.7117,-23.3978,184.253,1259,96,418,184.253,-199,1912.48
3206234,-282.338,-114.772,613.434,-690,-940,242190,-20.1554,12.8958,183.634,1230,98,419,183.634,-163,1910.84
3206257,-283.029,-105.849,626.599,-20,500,241870,15.032,85.8594,169.359,1209,119,422,169.359,-91,1878.64
3206269,-279.94,-102.544,636.845,600,420,241780,41.2536,51.4934,164.07,1217,106,424,164.07,-127,1881.54
3206275,-278.628,-101.436,641.669,640,250,241650,43.7528,36.9183,162.298,1199,88,425,162.298,-141,1897.85
3206286,-276.815,-100.543,650.725,60,-10,241630,36.7713,22.6114,160.869,1181,75,427,160.869,-150,1903.81
3206298,-275.896,-100.959,661.356,-240,-480,241870,4.90476,-9.35604,161.534,1171,75,429,161.534,-170,1894.51
3206309,-274.531,-100.526,672.067,-1090,-470,242480,33.0113,13.6632,160.842,1157,64,431,160.842,-158,1896.13
3206320,-270.993,-98.4813,683.249,-720,-380,243410,63.0344,44.0155,159.331,1136,55,433,159.331,-152,1901.51
3206325,-268.705,-97.0371,688.253,10,-420,244430,91.5245,57.7656,155.259,1123,38,434,155.259,-134,1911.62
3206337,-262.984,-92.918,700.765,460,-520,245330,107.936,75.4233,148.669,1123,27,436,148.669,-118,1911.87
3206348,-256.531,-87.8782,711.55,1240,-290,245940,115.741,94.0195,140.605,1149,29,438,140.605,-96,1902.47
3206370,-248.598,-76.4345,732.191,1390,370,246320,30.7644,116.486,122.295,1178,4,442,122.295,-34,1910.39
3206376,-248.326,-73.8129,736.349,700,440,246380,9.07361,87.3874,118.101,1188,-9,443,118.101,-52,1921.34
3206388,-250.109,-68.6986,743.472,190,760,246360,-40.3104,78.4998,109.918,1184,-15,445,109.918,-40,1923.96
3206400,-253.026,-65.5186,749.439,-20,1320,246360,-48.5582,38.1397,104.83,1202,21,447,104.83,-71,1884.38
3206412,-255.752,-64.0714,758.325,0,1040,246410,-42.764,-1.55024,102.44,1219,32,449,102.44,-57,1866.79
3206418,-257.38,-64.9984,763.211,0,280,246370,-54.2587,-30.8984,103.997,1236,44,450,103.997,-134,1849.4
3206442,-257.704,-72.1562,782.849,-1010,-1730,247050,38.8898,-9.79963,115.45,1264,49,453,115.45,-151,1828.48
3206453,-248.771,-64.1692,792.454,-630,-720,247140,184.999,202.203,110.759,1275,80,455,110.759,-71,1793.59
3206459,-241.117,-56.5183,799.218,970,-110,247020,255.159,255.032,90.4292,1301,136,456,90.4292,70,1728.6
3206470,-224.889,-33.7012,816.46,2990,2090,246850,325.238,465.662,53.922,1325,173,458,53.922,290,1674.97
3206482,-202.043,7.88155,839.96,5160,5480,246370,413.56,764.73,-12.6105,1345,193,460,-12.6105,620,1633.11
3206493,-177.268,56.1208,863.704,8330,10860,247220,455.999,885.898,-89.7932,1367,152,462,-89.7932,735,1645.98
3206499,-163.172,78.9583,874.756,12110,13900,247980,469.871,761.251,-126.333,1383,18,463,-126.333,714,1771.47
3206511,-145.672,102.007,882.533,12160,13080,247460,224.326,239.555,-163.211,1388,-23,465,-163.211,322,1812.96
3206534,-161.809,40.3761,880.719,250,500,245330,-332.255,-904.085,-64.6018,1380,-44,468,-64.6018,-696,1836.03
3206540,-173.803,9.61263,878.485,-5730,-5980,245150,-399.794,-1025.45,-15.3802,1386,-55,469,-15.3802,-693,1849.78
3206551,-195.717,-47.7398,874.402,-8660,-8330,245090,-394.534,-1008.51,76.3838,1396,-39,471,76.3838,-682,1835.97
3206562,-210.71,-91.0998,871.763,-8520,-8690,244740,-211.81,-701.327,145.76,1390,-41,473,145.76,-731,1838.99
3206584,-214.874,-110.342,869.182,-2520,-5770,244180,48.601,136.479,176.546,1409,-47,476,176.546,-72,1847.93
3206595,-207.946,-92.35,865.859,1300,-250,244370,108.682,407.635,147.76,1423,-57,478,147.76,190,1859.57
3206606,-202.676,-66.49,861.437,3940,4330,244740,79.2238,464.09,124.948,1447,-58,480,124.948,278,1865.62
3206612,-201.561,-54.1695,858.151,4470,6400,244820,37.1798,410.682,86.6713,1470,-57,481,86.6713,280,1868.83
3206636,-214.907,-46.7876,843.98,920,4090,244210,-147.64,-168.8,74.8601,1475,-54,484,74.8601,-191,1875.24
3206642,-220.776,-55.5931,840.033,-850,290,244130,-195.641,-293.518,88.949,1460,-56,485,88.949,-307,1880.51
3206653,-231.82,-77.8011,833.374,-3080,-2980,244270,-204.256,-427.909,124.482,1440,-64,487,124.482,-469,1893.99
3206663,-240.348,-98.7062,827.854,-3890,-4930,244560,-163.746,-401.146,157.93,1430,-70,489,157.93,-487,1904.64
3206675,-245.881,-115.507,821.968,-3140,-4760,244810,-41.1666,-238.097,184.812,1415,-64,491,184.812,-401,1903.6
3206686,-247.515,-119.151,818.392,-1600,-3350,244960,-1.70651,-13.5967,190.641,1410,-69,493,190.641,-207,1910.69
3206697,-247.34,-113.266,815.649,-400,-1100,245080,35.4272,158.756,181.226,1400,-81,495,181.226,-48,1924.19
3206708,-245.831,-101.361,812.172,930,930,245100,35.6479,237.48,171.677,1382,-78,497,171.677,3,1926.12
3206714,-245.757,-94.7695,810.606,1320,2300,245010,2.48712,219.72,151.631,1372,-64,498,151.631,48,1915.89
3206726,-245.279,-84.501,809.528,1090,2630,245010,2.07541,143.41,135.202,1380,-46,500,135.202,-8,1898.98
3206738,-244.301,-81.8471,810.469,920,1770,245000,19.894,3.56128,130.955,1399,-39,502,130.955,-142,1889.4
3206749,-243.482,-84.9868,810.74,510,-290,244940,13.553,-76.8345,132.906,1408,-51,504,132.906,-185,1901.33
3206755,-243.313,-87.9672,810.036,-50,-1490,244980,5.6037,-99.3439,140.747,1415,-42,505,140.747,-245,1893.14
3206766,-242.571,-93.343,807.482,-500,-2160,245070,0.461163,-89.1391,149.349,1408,-33,507,149.349,-242,1887.35
3206778,-243.203,-95.3618,806.215,-1040,-1700,245280,-5.33676,-12.6283,152.579,1388,-40,509,152.579,-171,1894.5
3206790,-243.005,-91.7416,805.447,-780,-520,245620,0.627874,81.9367,150.72,1388,-42,511,150.72,-124,1898.01
3206796,-241.772,-88.1862,804.693,90,500,245970,41.0979,118.513,141.098,1401,-24,512,141.098,-52,1883.06
3206807,-238.954,-81.7685,804.373,970,1190,246140,62.506,122.017,130.83,1407,-20,514,130.83,-46,1875.39
3206818,-235.395,-76.7367,803.679,1380,1260,246250,65.9672,81.9777,122.779,1421,-23,516,122.779,-78,1881.06
3206829,-232.157,-74.8683,801.797,1630,730,246340,56.4664,14.5516,119.789,1431,-18,518,119.789,-137,1875.65
3206840,-230.131,-76.3892,799.391,1760,-80,246400,25.3266,-43.2721,122.223,1429,-22,520,122.223,-186,1882.68
3206846,-230.102,-78.4557,797.673,1250,-810,246480,0.945834,-68.8827,125.529,1424,-26,521,125.529,-206,1888.18
3206858,-231.237,-82.4244,793.566,650,-1100,246590,-21.8494,-68.4689,131.879,1421,-22,523,131.879,-206,1887.61
3206881,-237.528,-88.1334,788.806,-560,-1270,247200,-54.9846,-15.6734,141.013,1417,-5,526,141.013,-155,1874.65
3206892,-239.686,-85.4093,787.005,-370,-400,247780,-31.5541,73.5901,140.187,1422,6,528,140.187,-122,1866.38
3206898,-240.931,-80.9799,786.978,-110,140,248010,-41.4898,147.648,129.568,1440,34,529,129.568,6,1840.13
3206909,-239.006,-72.8097,787.233,150,660,248360,26.6972,173.724,116.495,1459,57,531,116.495,24,1813.75
3206931,-221.956,-41.0701,792.728,2300,2150,250130,239.154,353.919,65.7121,1507,116,534,65.7121,199,1752.65
3206942,-205.666,-16.5747,798.556,5300,3800,250350,310.96,472.475,26.5196,1509,134,536,26.5196,342,1726.3
3206948,-195.742,0.267606,802.796,8340,7010,250180,330.799,561.412,-0.42817,1516,144,537,-0.42817,452,1713.2
3206960,-172.176,44.3207,812.012,10720,10350,250970,398.169,791.084,-70.9131,1529,137,539,-70.9131,729,1706.03
3206972,-152.867,85.7663,818.148,11250,14130,250090,286.636,602.972,-137.226,1525,19,541,-137.226,641,1820.73
3206984,-148.114,95.8172,811.895,8880,12660,247540,11.6613,8.83892,-152.883,1509,-11,543,-152.883,423,1855.49
3206990,-150.411,85.6902,807.816,3750,7520,244820,-76.5723,-337.565,-137.104,1483,-18,544,-137.104,-164,1867.97
3207008,-164.971,16.3107,793.036,-5050,-7330,242850,-175.044,-903.365,-26.0971,1500,-66,547,-26.0971,-743,1927.17
3207020,-171.313,-34.8765,778.104,-4880,-9070,242930,-86.6186,-793.573,55.8024,1490,-49,549,55.8024,-766,1926.49
3207031,-171.493,-63.0908,764.197,-2860,-8530,243190,22.3481,-421.664,100.945,1455,-43,551,100.945,-513,1929.96
3207042,-168.434,-70.1378,753.406,80,-4820,243620,89.1301,-13.3057,112.22,1407,-44,553,112.22,-169,1940.03
3207042,-168.434,-70.1378,753.406,1700,-1010,244220,89.1301,-13.3057,112.22,1384,-13,553,112.22,-170,1909.35
3207042,-168.434,-70.1378,753.406,1710,-470,244720,89.1301,-13.3057,112.22,1370,-19,553,112.22,-171,1915.61
3207042,-168.434,-70.1378,753.406,1630,-900,245070,89.1301,-13.3057,112.22,1369,-18,553,112.22,-172,1914.89
3207047,-166.892,-67.5003,749.18,1710,-1080,245300,61.6785,105.498,108.001,1372,9,554,108.001,-47,1892.5
3207047,-166.892,-67.5003,749.18,1700,80,245400,61.6785,105.498,108.001,1380,30,554,108.001,-47,1871.61
3207100,-187.763,16.9382,730.871,1300,3400,245380,-183.638,344.825,-27.1011,1388,52,556,-27.1011,388,1867.33
3207100,-187.763,16.9382,730.871,130,6230,245190,-183.638,344.825,-27.1011,1391,68,556,-27.1011,391,1847.3
3207107,-196.798,28.4291,731.265,-940,7030,244910,-258.138,328.312,-45.4866,1406,60,557,-45.4866,420,1854.94
3207121,-215.233,43.5717,735.65,-1730,7110,244710,-263.359,216.322,-69.7147,1410,57,558,-69.7147,345,1853.4
3207167,-213.459,-34.0946,742.161,-740,-1390,244790,273.248,-660.543,54.5513,1418,46,561,54.5513,-772,1860.25
3207172,-205.64,-51.6037,742.155,1190,-7660,244850,312.764,-700.365,82.5659,1421,49,562,82.5659,-800,1857.26
3207184,-188.084,-89.2968,742.412,2130,-10100,244850,281.682,-580.046,142.875,1416,41,564,142.875,-798,1865.07
3207196,-178.882,-110.498,743.847,2110,-9580,244720,100.355,-267.397,176.796,1420,45,566,176.796,-479,1860.93
3207208,-185.482,-111.209,747.045,720,-5320,244630,-157.626,65.5743,181.083,1430,59,568,181.083,-263,1846.17
3207214,-194.229,-104.826,749.823,-1090,-30,244180,-291.555,212.774,167.722,1443,46,569,167.722,112,1851.04
3207224,-211.95,-89.764,752.791,-3020,4160,243320,-370.433,326.422,143.622,1447,26,571,143.622,276,1870.68
3207248,-243.877,-60.9275,754.438,-2520,5970,241720,-129.296,140.641,97.484,1466,56,574,97.484,79,1840.38
3207258,-244.99,-61.6136,757.663,-440,3220,241230,-15.5484,-50.0217,98.5817,1491,72,576,98.5817,-138,1822.65
3207264,-243.463,-64.8398,759.46,840,230,240850,50.8882,-107.541,103.744,1516,56,577,103.744,-221,1834.05
3207276,-237.972,-76.986,760.24,1420,-1610,240650,70.1252,-223.966,123.178,1536,40,579,123.178,-356,1850.34
3207309,-248.863,-103.098,756.881,-2070,-2010,240730,-151.602,-60.1619,164.957,1497,33,584,164.957,-156,1860.02
3207320,-257.812,-101.889,758.045,-2800,-390,240720,-170.39,55.1046,165.227,1493,44,586,165.227,-105,1849.59
3207326,-261.4,-99.1638,759.443,-2300,1200,240670,-119.573,90.8397,158.662,1485,35,587,158.662,-20,1855.92
3207338,-266.461,-91.1791,762.193,-1300,2150,240650,-58.3948,138.243,145.887,1474,27,589,145.887,10,1861.72
3207349,-266.699,-84.413,764.146,-480,2340,240670,17.232,122.651,135.061,1475,23,591,135.061,-22,1865.2
3207360,-265.067,-81.5568,766.037,300,2030,240760,52.0806,24.4169,130.491,1487,23,593,130.491,-122,1863.71
3207366,-263.513,-81.8138,766.849,550,1110,240880,51.7957,-8.56572,130.902,1487,19,594,130.902,-155,1866.08
3207377,-260.716,-85.3514,768.111,800,170,240950,40.5081,-77.4035,136.562,1489,23,596,136.562,-218,1863.1
3207388,-258.84,-92.4109,768.657,460,-620,240990,42.0136,-139.376,147.858,1492,24,598,147.858,-287,1860.66
3207388,-258.84,-92.4109,768.657,0,-1240,240990,42.0136,-139.376,147.858,1491,25,598,147.858,-287,1858.67
3207388,-258.84,-92.4109,768.657,-470,-1660,241080,42.0136,-139.376,147.858,1499,27,598,147.858,-287,1859.67
3207388,-258.84,-92.4109,768.657,-770,-1630,241110,42.0136,-139.376,147.858,1517,68,598,147.858,-287,1816.53
3207388,-258.84,-92.4109,768.657,-1240,-1790,241340,42.0136,-139.376,147.858,1537,70,598,147.858,-287,1816.33
3207388,-258.84,-92.4109,768.657,-1810,-2320,241520,42.0136,-139.376,147.858,1537,89,598,147.858,-287,1797.06
3207388,-258.84,-92.4109,768.657,-2050,-2850,241540,42.0136,-139.376,147.858,1537,117,598,147.858,-287,1766.63
3207388,-258.84,-92.4109,768.657,-2610,-3610,240810,42.0136,-139.376,147.858,1569,165,598,147.858,-287,1720.05
3207388,-258.84,-92.4109,768.657,-2810,-3450,239460,42.0136,-139.376,147.858,1586,177,598,147.858,-287,1705.3
3207388,-258.84,-92.4109,768.657,-2260,-2650,238010,42.0136,-139.376,147.858,1606,160,598,147.858,-287,1721.59
3207391,-258.837,-94.5489,768.973,-570,-1800,237350,0.191931,-142.528,151.278,1646,123,599,151.278,-277,1753.71
3207391,-258.837,-94.5489,768.973,-290,-1880,237410,0.191931,-142.528,151.278,1675,44,599,151.278,-277,1833.44
3207391,-258.837,-94.5489,768.973,-740,-2150,237790,0.191931,-142.528,151.278,1700,15,599,151.278,-277,1864.43
3207391,-258.837,-94.5489,768.973,-980,-2120,238350,0.191931,-142.528,151.278,1737,1,599,151.278,-277,1878.52
3207391,-258.837,-94.5489,768.973,-840,-2240,239020,0.191931,-142.528,151.278,1752,-15,599,151.278,-277,1893.67
3207391,-258.837,-94.5489,768.973,-650,-2520,239630,0.191931,-142.528,151.278,1752,-28,599,151.278,-277,1907.91
3207391,-258.837,-94.5489,768.973,-500,-3220,239970,0.191931,-142.528,151.278,1735,-42,599,151.278,-277,1923.24
3207391,-258.837,-94.5489,768.973,-580,-5850,239790,0.191931,-142.528,151.278,1718,-107,599,151.278,-277,1988.69
3207391,-258.837,-94.5489,768.973,-1340,-11360,238520,0.191931,-142.528,151.278,1705,-293,599,151.278,-277,2100
3207391,-258.837,-94.5489,768.973,-2840,-12630,236860,0.191931,-142.528,151.278,1647,-277,599,151.278,-277,2100
3207391,-258.837,-94.5489,768.973,-3010,-11920,235540,0.191931,-142.528,151.278,1592,-131,599,151.278,-277,2019.59
3207391,-258.837,-94.5489,768.973,-3580,-11130,234580,0.191931,-142.528,151.278,1537,-103,599,151.278,-277,1989.28
3207391,-258.837,-94.5489,768.973,-3950,-10680,234100,0.191931,-142.528,151.278,1509,-78,599,151.278,-277,1966.85
3207391,-258.837,-94.5489,768.973,-3740,-9070,234130,0.191931,-142.528,151.278,1479,-58,599,151.278,-277,1942.27
3207391,-258.837,-94.5489,768.973,-3390,-8190,234560,0.191931,-142.528,151.278,1444,-65,599,151.278,-277,1955.74
3207391,-258.837,-94.5489,768.973,-3100,-7070,235450,0.191931,-142.528,151.278,1438,-45,599,151.278,-277,1931.11
3207654,145.706,1085.67,691.165,-2880,-6260,236550,307.638,897.501,-440,1421,-60,601,-440,593,2010.91
3207665,166.368,1079.79,698.303,5830,40,237200,372.953,-107.886,-440,1435,-6,603,-440,51,1951.8
3207676,181.92,1062.92,712.331,8230,-320,238260,248.918,-390.795,-440,1439,8,605,-440,-137,1926.93
3207687,185.011,1029.94,728.287,6160,-1570,239460,-30.7113,-659.078,-440,1445,22,607,-440,-250,1900.42
3207693,179.589,1007.18,737.481,980,-2240,240570,-180.715,-758.575,-440,1450,23,608,-440,-279,1892.23
3207705,158.943,958.506,756.44,-3280,-2620,241330,-397.131,-820.791,-440,1453,7,610,-440,-256,1893.19
3207728,115.421,877.103,789.029,-5650,-1610,241670,-301.816,-610.465,-440,1486,4,613,-440,-103,1871.36
3207734,109.427,861.277,796.613,-3430,-500,241480,-199.803,-527.506,-440,1512,5,614,-440,-66,1863.29
3207746,103.032,834.585,810.256,-950,480,241270,-77.2387,-417.954,-440,1508,-9,616,-440,-11,1864.34
3207757,102.328,813.21,820.46,1120,1350,241130,9.84946,-393.221,-440,1504,-28,618,-440,-22,1877.23
3207768,101.285,789.96,828.833,2020,1380,240980,-25.1471,-431.922,-440,1513,-19,620,-440,-43,1861.55
3207779,97.6526,762.061,836.279,1600,910,240860,-80.6554,-519.741,-440,1516,-33,622,-440,-101,1868.59
3207790,90.4788,729.429,840.969,710,560,240840,-147.032,-616.429,-440,1517,-60,624,-440,-136,1892.28
3207796,85.0939,710.204,842.224,-190,60,241050,-179.495,-640.849,-440,1510,-75,625,-440,-171,1907.1
3207807,74.785,673.4,841.51,-870,-380,241340,-197.791,-674.086,-440,1526,-62,627,-440,-195,1894.84
3207829,50.0177,600.537,837.187,-1350,-420,241490,-225.271,-650.011,-440,1551,-46,630,-440,-160,1883.6
3207840,37.5266,565.707,833.943,-1560,-10,241000,-225.632,-628.099,-440,1568,-31,632,-440,-136,1871.25
3207851,25.758,531.602,830.236,-1380,380,240430,-202.495,-630.629,-440,1572,-31,634,-440,-119,1870.39
3207861,16.0969,501.229,825.688,-1120,650,240000,-186.81,-606.772,-440,1588,-28,636,-440,-123,1873.9
3207867,10.5614,482.951,822.038,-1000,730,239640,-184.516,-609.269,-440,1581,-27,637,-440,-124,1875.87
3207878,1.03304,448.023,815.411,-1150,390,239380,-163.532,-645.626,-440,1595,0,639,-440,-163,1856.18
3207889,-7.98792,412.548,809.601,-1590,120,239320,-142.17,-651.961,-440,1601,8,641,-440,-175,1850.74
3207912,-23.3278,339.429,796.616,-1410,-210,239830,-116.527,-619.815,-440,1603,17,645,-440,-155,1851.98
3207918,-26.5469,321.334,792.698,-800,20,240270,-107.301,-603.141,-440,1628,31,646,-440,-145,1843.02
3207929,-32.286,289.051,785.036,-340,200,240770,-98.7403,-582.634,-440,1644,38,648,-440,-129,1840.01
3207952,-45.9786,223.403,764.067,-240,330,241360,-128.236,-575.944,-357.444,1640,43,651,-357.444,-189,1851.56
3207963,-54.6328,191.94,753.252,-750,40,241330,-163.515,-575.388,-307.104,1638,47,653,-307.104,-220,1856.15
3207969,-59.827,174.961,747.108,-1590,-320,241150,-173.137,-565.955,-279.938,1632,56,654,-279.938,-231,1851.99
3207979,-68.7502,146.736,736.956,-2300,-1040,240760,-175.221,-536.749,-234.778,1609,55,656,-234.778,-242,1861.08
3207990,-78.2503,117.646,726.4,-2480,-1420,240200,-171.868,-519.845,-188.234,1597,74,658,-188.234,-264,1852.5
3208002,-87.6421,91.6966,717.731,-2560,-1510,239670,-154.118,-400.87,-146.715,1594,89,660,-146.715,-196,1843.34
3208014,-95.2326,70.4521,712.146,-2210,-1140,239220,-122.306,-322.547,-112.723,1595,110,662,-112.723,-166,1826.65
3208020,-98.4708,62.4428,709.973,-1730,-710,238800,-107.942,-266.978,-99.9085,1605,119,663,-99.9085,-132,1819.18
3208044,-111.331,40.1996,704.046,-940,540,238800,-95.2846,-157.286,-64.3193,1617,145,666,-64.3193,-67,1796.32
3208050,-114.574,35.7393,703.011,-700,920,239080,-108.12,-148.677,-57.1828,1620,138,667,-57.1828,-61,1803.84
3208062,-118.759,28.7815,701.344,-250,1420,239300,-76.6917,-126.56,-46.0504,1625,138,669,-46.0504,-64,1804.83
3208095,-134.283,3.5323,690.683,-490,780,239720,-102.546,-165.426,-5.65168,1608,108,674,-5.65168,-124,1842.87
3208106,-139.615,-8.94034,687.957,-840,70,239770,-113.786,-234.02,14.3046,1602,117,676,14.3046,-199,1836.93
3208112,-142.438,-15.5421,687.453,-1530,-460,239750,-94.1111,-220.058,24.8674,1590,110,677,24.8674,-203,1842.21
3208123,-149.099,-26.5267,686.247,-1680,-590,239700,-132.821,-198.513,42.4427,1583,118,679,42.4427,-183,1837.06
3208152,-164.034,-41.4538,687.184,-630,910,238980,-119.53,-53.3907,66.326,1604,100,683,66.326,-74,1852.05
3208163,-169.66,-44.1771,686.256,-700,1340,238640,-123.443,-48.2352,70.6834,1592,88,685,70.6834,-72,1865.78
3208174,-174.959,-48.8192,684.87,-1130,1090,238420,-103.622,-99.534,78.1107,1592,117,687,78.1107,-127,1837.83
3208197,-184.136,-61.7748,691.571,-1410,-70,238210,-81.1292,-126.512,98.8396,1587,137,690,98.8396,-181,1812.12
3208208,-184.767,-65.4775,699.097,-990,-270,238200,1.10079,-77.1087,104.764,1614,133,692,104.764,-174,1809.83
3208214,-185.406,-68.0238,701.412,-300,-380,238360,-21.2889,-84.8744,108.838,1619,107,693,108.838,-174,1830.77
3208225,-187.291,-70.2408,704.526,60,-100,238730,-53.0855,-51.1738,112.385,1617,98,695,112.385,-134,1840.15
3208235,-189.05,-71.2413,705.987,70,460,239170,-67.3071,-32.4714,113.986,1647,110,697,113.986,-114,1828.86
3208246,-192.003,-72.5319,707.419,-220,940,239650,-67.4528,-38.2826,116.051,1659,91,699,116.051,-123,1842.57
3208279,-204.486,-84.3671,705.846,-760,-60,240660,-76.1358,-95.3292,134.987,1653,93,703,134.987,-191,1842.56
3208290,-207.96,-90.2926,707.048,-970,-690,240910,-67.4413,-93.8204,144.468,1627,90,705,144.468,-202,1845.53
3208296,-210.008,-93.2192,708.596,-870,-910,241120,-68.2509,-97.5522,149.151,1629,99,706,149.151,-210,1836.2
3208320,-219.722,-97.8303,717.633,-450,-660,241540,-94.4003,-4.40829,156.529,1622,75,709,156.529,-121,1851.81
3208331,-223.98,-96.2543,722.306,-770,40,241600,-73.1824,28.1901,155.36,1605,62,711,155.36,-95,1861.28
3208336,-226.948,-94.7181,724.259,-910,910,241610,-118.731,61.4486,151.549,1600,48,712,151.549,-45,1873.52
3208348,-231.7,-91.7382,729.41,-1030,1270,241850,-79.4537,52.9149,146.781,1598,47,714,146.781,-65,1869.45
3208359,-235.333,-89.885,733.886,-1200,1340,242260,-42.3542,23.982,143.816,1604,39,716,143.816,-105,1874.94
3208370,-237.017,-90.2474,737.17,-710,700,242620,-13.4785,-19.3076,144.396,1599,35,718,144.396,-157,1876.39
3208382,-236.015,-91.0719,741.921,150,-20,242950,-8.56261,-29.7488,145.715,1607,62,720,145.715,-172,1845.6
3208388,-234.717,-92.1351,745.383,120,-380,243290,43.2936,-35.4424,147.416,1616,71,721,147.416,-199,1833.72
3208399,-234.149,-93.842,753.149,20,-630,243520,20.9582,-22.682,150.147,1622,67,723,150.147,-182,1830.35
3208422,-238.017,-95.493,768.15,-380,-480,243410,-51.8799,-2.61842,152.789,1626,41,726,152.789,-139,1843.1
3208428,-240.482,-95.714,770.659,-760,-240,243290,-82.1583,-7.36684,153.142,1624,28,727,153.142,-132,1855.04
3208439,-245.103,-95.3387,774.535,-790,-170,243280,-115.676,10.7654,152.542,1652,31,729,152.542,-99,1848.9
3208450,-247.668,-95.0482,777.922,-440,40,243430,-49.2295,14.9021,152.077,1655,25,731,152.077,-121,1852.15
3208461,-249.732,-94.0057,780.23,120,490,243670,-31.1172,18.0342,150.409,1659,26,733,150.409,-123,1851.26
3208494,-258.342,-98.2234,787.173,-1570,-280,243970,-70.6412,-72.5663,157.157,1703,33,738,157.157,-200,1837.45
3208504,-259.112,-101.503,788.403,-2300,-1570,244510,-22.5108,-46.5089,162.405,1707,-1,740,162.405,-199,1869.44
3208510,-258.472,-102.22,787.379,-1820,-2060,245000,21.3458,-23.8942,163.552,1705,-19,741,163.552,-196,1889.37
3208534,-248.732,-88.743,778.947,1150,-630,245430,73.0305,184.255,141.989,1691,-25,744,141.989,1,1902.49
3208545,-244.425,-76.8167,775.567,1390,600,245490,68.3801,223.296,133.625,1673,-21,746,133.625,27,1899.06
3208550,-243.355,-71.5142,774.029,1410,1500,245400,42.7811,212.101,114.423,1668,-33,747,114.423,64,1914.86
3208561,-242.089,-60.0656,770.451,1170,2460,245030,2.16081,205.001,96.1049,1665,-22,749,96.1049,88,1910
3208572,-243.704,-52.7126,767.271,100,2510,244400,-31.5252,126.661,84.3401,1664,-10,751,84.3401,38,1897.76
3208582,-244.956,-50.2036,766.172,-520,1980,243770,-24.6251,18.2219,80.3258,1654,-12,753,80.3258,-61,1900.84
3208594,-245.605,-52.1898,764.898,-620,980,243290,3.07262,-41.6125,83.5037,1644,0,755,83.5037,-128,1890.02
3208606,-243.035,-58.9835,764.936,-760,-270,242970,63.0586,-131.431,94.3736,1638,-5,757,94.3736,-244,1894.13
3208612,-241.814,-62.6247,764.765,-860,-1790,242670,40.7105,-121.372,100.199,1643,-20,758,100.199,-232,1908.46
3208623,-237.969,-68.9599,763.382,-1000,-2330,242420,67.3881,-92.5993,110.336,1647,-27,760,110.336,-224,1918.83
3208635,-233.253,-71.172,760.715,-270,-1610,242250,84.318,-13.4682,113.875,1662,-3,762,113.875,-160,1900.2
3208646,-229.831,-68.3297,758.939,420,-390,242220,74.1295,48.0641,109.327,1669,16,764,109.327,-96,1880.75
3208652,-227.514,-65.4385,759.033,900,380,242320,77.2256,96.3736,104.702,1680,20,765,104.702,-49,1874.74
3208664,-223.104,-61.2045,758.706,920,530,242430,61.8647,73.5058,97.9272,1678,9,767,97.9272,-58,1887.1
3208676,-218.911,-60.3336,756.834,290,360,242500,60.5275,0.455003,96.5337,1671,20,769,96.5337,-124,1877.71
3208688,-214.894,-60.971,756.67,70,90,242630,88.2994,-19.5751,97.5535,1678,30,771,97.5535,-156,1867.88
3208698,-212.357,-63.0866,755.853,170,-230,242730,110.581,-35.7834,100.939,1668,21,773,100.939,-182,1877.58
3208703,-209.397,-65.1132,756.013,880,-950,242800,118.378,-81.0649,104.181,1653,11,774,104.181,-231,1887.55
3208714,-204.731,-67.7896,754.685,1340,-1320,242690,78.4494,-56.7318,108.463,1642,12,776,108.463,-198,1887.75
3208725,-202.218,-70.531,754.327,740,-1340,242350,12.1356,-38.0683,112.85,1659,35,778,112.85,-161,1866.11
3208736,-202.826,-72.9815,756.153,-650,-910,242140,-26.9071,-44.6811,116.77,1673,58,780,116.77,-155,1841.59
3208747,-204.924,-72.9631,760.795,-1960,-600,242000,-43.3374,8.69642,116.741,1680,55,782,116.741,-99,1838.74
3208758,-207.152,-71.0996,763.988,-2180,50,241910,-31.83,53.058,113.759,1670,32,784,113.759,-57,1858.13
3208770,-204.984,-66.0888,766.23,-1050,780,241880,39.0053,98.3686,110.464,1667,26,786,110.464,-65,1865.89
3208776,-202.164,-63.276,766.768,810,1330,241810,94.0037,93.76,101.242,1688,29,787,101.242,-58,1860.9
3208788,-194.181,-58.226,767.433,1870,1050,241630,140.349,88.0753,93.1616,1710,38,789,93.1616,-74,1851.34
3208810,-185.769,-60.356,765.63,1350,110,241680,19.8072,-98.2734,96.5695,1730,37,792,96.5695,-203,1853.66
3208816,-185.122,-62.9388,765.228,80,-700,241980,21.5448,-86.0934,100.702,1751,32,793,100.702,-197,1858.94
3208828,-187.961,-69.1467,762.852,-1020,-1050,242170,-40.0237,-112.263,110.635,1772,36,795,110.635,-207,1856.82
3208861,-198.098,-76.7845,734.289,-4780,2010,241240,-10.5394,-12.2926,122.855,1727,-286,799,122.855,-139,2100
3208872,-206.3,-80.1275,697.151,-13450,10240,221750,-197.145,-87.1411,124.021,1630,-610,801,124.021,-123,2100
3208878,-209.795,-82.5496,661.289,-23860,26040,198100,-116.482,-80.7344,132.079,1507,-853,802,132.079,-173,2100
3208889,-215.14,-89.6869,575.267,-29240,40410,194590,-139.224,-122.749,143.499,1354,-744,804,143.499,-244,2100
3208912,-275.823,-62.3578,452.127,-48660,85020,183390,-890.153,546.135,99.7725,1017,-393,807,99.7725,-124,2100
3208923,-338.043,-12.5191,438.81,-48890,110160,167150,-1143.87,970.853,58.8648,817,-289,809,58.8648,-79,2100
3208929,-368.382,15.941,438.176,-45220,122920,157930,-1011.31,948.673,-25.5057,613,-375,810,-25.5057,-334,2100
3208939,-403.817,55.9424,436.119,-42250,127470,153410,-590.621,685.6,-89.5078,421,-524,812,-89.5078,-390,2100
3208962,-383.595,66.9006,418.714,-46500,119350,158490,734.872,-399.469,-107.041,132,-531,815,-107.041,423,2100
3208974,-314.153,28.1423,416.792,-50270,98350,174210,1302.29,-724.781,-79.8172,81,-424,817,-79.8172,575,2100
3208979,-277.627,8.61182,419.354,-44610,68300,193990,1461.05,-781.219,-13.7789,105,-367,818,-13.7789,198,2100
3208990,-197.091,-26.9048,427.665,-31450,49550,203760,1419.22,-585.064,43.0477,167,-628,820,43.0477,-143,2100
3209014,-116.591,-24.5515,317.746,-29160,54130,201030,128.178,414.55,39.2824,213,-1374,823,39.2824,344,2100
3209024,-141.829,20.049,232.37,-37430,34930,196890,-733.18,1197.71,-32.0783,178,-716,825,-32.0783,724,2100
3209030,-149.106,46.0906,220.328,-32480,22900,202840,-242.58,868.056,-73.745,187,-960,826,-73.745,800,2100
3209041,-177.355,69.1974,190.365,-17950,24300,209280,-686.622,436.722,-110.716,178,-773,828,-110.716,556,2100
3209052,-203.723,82.1619,153.773,-15800,13700,207600,-360.079,171.564,-131.459,186,-826,830,-131.459,309,2100
3209064,-220.218,84.7322,111.56,-11620,7500,207680,-289.111,-53.4385,-135.572,203,-647,832,-135.572,113,2100
3209076,-228.118,87.5041,84.863,-4290,2620,208440,-98.606,14.2341,-139.323,235,-499,834,-139.323,241,2100
3209082,-230.491,90.8956,77.9775,2660,-7340,208350,-79.1008,113.048,-145.433,312,-315,835,-145.433,273,2100
3209105,-233.332,94.177,76.1607,-5070,-2640,208410,157.138,-11.0369,-150.683,453,-242,838,-150.683,125,2100
3209116,-231.18,95.0975,76.8585,360,-2930,208060,-25.0419,-12.6729,-152.156,502,-239,840,-152.156,155,2100
3209127,-236.573,94.6054,76.6627,420,-3580,208270,-85.3386,3.44426,-151.203,541,-203,842,-151.203,159,2100
