timestamp,x,y,z,pitch,roll,yaw,vx,vy,vz,battery,cpu_load,vicon_count,set_position,set_velocity,calc_thrust
0,0,0,0,0,0,0,0,0,0,0,0,0,0,0,0
3283416,-152.879,-25.3811,76.1995,560,-2730,253310,-2.4884,1.73728,40.6097,-537,-49,49,40.6097,-89,2100
3283422,-152.932,-25.4964,76.2066,550,-2720,253290,-1.76089,-3.84307,40.7942,-546,-53,50,40.7942,-96,2100
3283433,-152.878,-25.4464,76.2686,550,-2720,253320,1.34412,-1.61023,40.7142,-560,-59,52,40.7142,-96,2100
3283445,-152.951,-25.5325,76.2347,580,-2610,253370,0.116205,-2.74308,40.8519,-565,-59,54,40.8519,-99,2100
3283457,-153.038,-25.687,76.3264,640,-2540,253330,0.168398,-2.41424,41.0993,-580,-67,56,41.0993,-101,2100
3283468,-152.953,-25.6155,76.2876,590,-2660,253270,3.95129,3.92361,41.1418,-594,-73,58,41.1418,-101,2100
3283474,-152.986,-25.539,76.2983,610,-2650,253160,-1.07817,2.55147,40.8624,-594,-68,59,40.8624,-99,2100
3283485,-152.986,-25.6087,76.3153,650,-2620,253100,-0.438345,-0.700202,40.9739,-603,-69,61,40.9739,-104,2100
3283496,-153.012,-25.6289,76.3002,630,-2630,253130,0.965161,0.533873,41.0062,-594,-61,63,41.0062,-104,2100
3283508,-153.025,-25.6415,76.2857,630,-2630,253200,-0.445733,-0.574745,40.9988,-591,-57,65,40.9988,-106,2100
3283514,-153.047,-25.6021,76.3152,650,-2620,253270,-0.736141,1.3142,40.9633,-586,-52,66,40.9633,-106,2100
3283526,-152.984,-25.5778,76.3109,600,-2620,253260,-0.501291,0.710637,40.9245,-576,-45,68,40.9245,-109,2100
3283537,-152.956,-25.613,76.2424,540,-2570,253210,-0.97681,0.634938,40.9808,-566,-35,70,40.9808,-111,2100
3283548,-152.975,-25.5906,76.3105,550,-2570,253110,0.793668,0.801871,40.945,-555,-28,72,40.945,-112,2100
3283559,-152.934,-25.6338,76.2285,550,-2590,253000,0.903724,0.75848,41.014,-553,-25,74,41.014,-114,2100
3283570,-152.916,-25.5813,76.1854,560,-2590,252900,-2.08436,0.700012,40.958,-554,-26,76,40.958,-115,2100
3283575,-152.88,-25.6419,76.2448,530,-2610,252790,1.45996,-2.4245,41.027,-547,-21,77,41.027,-120,2100
3283587,-152.978,-25.6154,76.1856,490,-2620,252720,0.537845,-0.21759,40.9847,-547,-19,79,40.9847,-120,2100
3283610,-152.953,-25.5894,76.2086,530,-2680,252640,2.66685,1.0953,40.9431,-561,-25,82,40.9431,-122,2100
3283616,-153.016,-25.5696,76.2351,590,-2730,252660,-2.08551,0.658535,40.9114,-562,-23,83,40.9114,-124,2100
3283627,-153.011,-25.5646,76.2344,640,-2750,252670,-1.86119,0.985598,40.9034,-567,-24,85,40.9034,-125,2100
3283661,-152.933,-25.55,76.2709,780,-2760,252790,2.20461,0.0693905,40.88,-595,-38,89,40.88,-131,2100
3283667,-152.865,-25.5636,76.2692,830,-2790,252890,2.26876,-0.453968,40.9018,-603,-41,90,40.9018,-133,2100
3283679,-152.981,-25.5384,76.2286,890,-2800,252990,-0.63038,-0.098639,40.8615,-613,-44,92,40.8615,-134,2100
3283690,-153.011,-25.5465,76.2254,940,-2750,253090,-1.06783,0.21643,40.8744,-621,-46,94,40.8744,-136,2100
3283711,-153.006,-25.5691,76.1843,1040,-2730,253140,-0.614833,0.466778,40.9106,-652,-59,97,40.9106,-139,2100
3283723,-153.001,-25.6025,76.2204,990,-2930,255860,0.834055,-0.643935,40.9332,-59,-49,99,40.9332,-141,2100
3283729,-153.34,-26.7186,75.8183,970,-2900,252940,-11.3001,-37.2011,42.7497,-72,-78,100,42.7497,-182,2100
3283741,-153.149,-26.634,75.7723,970,-2870,254600,-4.00531,-7.67777,42.6144,-82,-106,102,42.6144,-154,2100
3283752,-152.992,-26.5594,76.0096,960,-2840,254650,10.6529,-3.41285,42.4951,-46,-107,104,42.4951,-152,2100
3283758,-153.16,-26.7787,75.5951,1000,-2880,254550,-5.60074,-7.31092,42.846,-44,-130,105,42.846,-157,2100
3283770,-153.099,-26.5913,75.8209,1040,-2900,254430,12.5549,-4.82687,42.546,-45,-152,107,42.546,-156,2100
3283782,-153.054,-26.5954,75.788,1110,-2850,254350,0.86482,0.0509846,42.5526,-64,-186,109,42.5526,-153,2100
3283793,-152.778,-26.0566,76.4131,1120,-2850,254240,14.1021,15.2094,41.6906,-93,-218,111,41.6906,-139,2100
3283804,-153.075,-26.0981,76.4554,1490,-2690,254040,8.22235,21.0307,42.5982,-108,-223,113,42.5982,-175,2100
3283815,-152.177,-24.9379,85.8992,2370,-2230,253740,37.8121,71.9359,42.778,-203,-112,115,42.778,-180,2100
3283821,-150.164,-22.638,97.8073,1690,480,254720,67.1224,76.6617,36.2208,-200,612,116,36.2208,-74,1614.81
3283831,-144.467,-11.1639,170.805,2420,3160,255660,151.021,266.349,17.8622,-70,641,118,17.8622,143,1600
3283842,-134.134,3.11611,287.984,3530,4060,255190,187.33,288.588,-4.98578,100,657,120,-4.98578,201,1600
3283854,-131.266,9.89319,406.732,3630,3260,254710,69.7318,99.6342,-15.8291,219,589,122,-15.8291,27,1600
3283866,-128.003,12.1331,517.297,3360,2050,253920,67.9743,15.6454,-18.6619,340,517,124,-18.6619,-7,1600
3283872,-125.418,13.4409,569.142,3670,1710,253790,86.1796,43.5945,-21.5054,458,501,125,-21.5054,-17,1600
3283882,-121.025,15.5689,653.354,3900,1700,254210,88.3379,36.8333,-24.9103,611,440,127,-24.9103,-18,1600
3283893,-114.837,17.6414,736.404,3810,1440,254280,121.804,34.6831,-28.2262,727,380,129,-28.2262,-13,1600
3283904,-108.338,18.5665,810.314,3870,1410,254130,147.67,5.78312,-29.7065,823,307,131,-29.7065,-37,1600
3283926,-97.7671,14.6775,919.326,3440,950,252920,82.8424,-60.2114,-23.484,971,115,134,-23.484,-112,1644.71
3283937,-93.5615,10.985,957.289,2560,480,252120,60.0063,-72.8621,-21.0734,1035,79,136,-21.0734,-116,1663.52
3283943,-92.1776,7.17889,975.318,1890,-40,251100,46.1305,-126.871,-11.4862,1089,-5,137,-11.4862,-195,1716.95
3283967,-85.2923,-8.99533,1017.63,1270,-810,248500,76.545,-145.017,14.3925,1170,-88,140,14.3925,-252,1766.99
3283978,-82.3528,-16.7768,1025.83,1350,-1290,246920,69.8171,-137.638,26.8429,1195,-136,142,26.8429,-263,1807.1
3283984,-80.7664,-20.325,1027.77,1630,-1510,245250,52.88,-118.272,32.52,1211,-151,143,32.52,-254,1821.36
3284008,-79.6423,-31.2769,1029.11,1610,-1580,242530,-36.2725,-90.4259,50.043,1227,-154,146,50.043,-238,1822.96
3284014,-80.4055,-32.206,1029.41,790,-1170,241810,-25.4407,-30.9696,51.5296,1241,-149,147,51.5296,-186,1821.58
3284026,-84.394,-34.9481,1028.5,140,-730,241500,-83.9459,-45.6654,55.917,1246,-141,149,55.917,-195,1811.12
3284037,-88.4305,-35.7322,1027.85,-540,-320,241460,-75.3888,-22.3643,57.1715,1266,-131,151,57.1715,-176,1802.41
3284058,-93.3432,-36.1628,1024.14,190,-150,241800,-21.7518,1.64104,57.8605,1283,-168,154,57.8605,-170,1839.96
3284069,-93.7436,-36.3418,1017.36,580,-290,242170,-1.40981,-6.17728,58.1469,1288,-165,156,58.1469,-186,1843.34
3284080,-93.9502,-36.4283,1009.42,930,-400,242580,-3.7203,-6.94604,58.2853,1297,-151,158,58.2853,-189,1835.62
3284085,-94.0667,-36.3273,1005.92,1230,-520,242940,-4.6596,4.04075,58.1237,1303,-155,159,58.1237,-180,1842.36
3284097,-95.2096,-36.0642,995.84,1120,-550,243310,-15.3127,18.1086,57.7028,1292,-156,161,57.7028,-166,1850.39
3284108,-98.6787,-35.1953,986.284,810,-200,243750,-81.4323,18.1405,56.3125,1270,-152,163,56.3125,-154,1857.05
3284130,-105.607,-32.8534,969.687,80,430,244370,-37.0047,7.43978,52.5655,1276,-132,166,52.5655,-173,1846.21
3284141,-108.911,-32.4398,961.31,570,150,244600,-59.4553,-2.61515,51.7572,1289,-123,168,51.7572,-151,1845.68
3284152,-110.839,-31.8052,952.232,990,80,244810,-45.176,4.97079,51.0872,1313,-111,170,51.0872,-168,1837.83
3284157,-112.36,-31.8967,947.017,1190,0,244990,-60.822,-3.65844,51.0347,1324,-129,171,51.0347,-184,1861.26
3284169,-116.789,-33.135,933.72,890,-310,245040,-93.874,-38.859,53.016,1308,-132,173,53.016,-217,1877.02
3284180,-121.01,-34.1806,919.887,270,-690,244970,-85.7235,-26.3592,54.6889,1290,-120,175,54.6889,-211,1876.2
3284202,-133.87,-34.4866,896.644,-280,-870,244870,-107.374,17.9802,55.1785,1258,-95,178,55.1785,-167,1870.02
3284213,-138.468,-31.8927,887.638,-360,-550,244980,-85.5151,55.2533,54.1225,1246,-87,180,54.1225,-158,1865.81
3284218,-140.401,-30.0635,883.883,-250,-70,244960,-77.3097,73.1667,48.1016,1232,-79,181,48.1016,-112,1865.39
3284230,-143.012,-24.6191,875.395,50,460,244870,-25.6974,91.5774,39.3905,1236,-65,183,39.3905,-93,1858.23
3284241,-144.578,-19.333,868.455,340,680,244770,-27.062,98.3284,30.9329,1253,-68,185,30.9329,-74,1864.81
3284252,-146.453,-15.0759,860.267,510,670,244690,-43.0809,78.1698,24.1215,1255,-51,187,24.1215,-81,1855.42
3284263,-146.166,-12.3093,852.912,700,520,244600,-13.1836,31.6019,19.6949,1248,-33,189,19.6949,-126,1843.28
3284274,-145.38,-10.3905,847.652,810,200,244690,43.9743,37.3865,16.6247,1264,-25,191,16.6247,-128,1838.41
3284280,-145.029,-9.52747,844.419,1360,-20,244760,11.6814,28.7663,15.244,1248,-52,192,15.244,-128,1868.02
3284290,-143.736,-9.07635,836.776,1380,-70,244650,20.6385,14.8126,14.5222,1236,-40,194,14.5222,-143,1865.22
3284302,-143.212,-8.42925,829.714,1020,210,244320,26.604,3.97433,13.4868,1217,-27,196,13.4868,-154,1857.91
3284324,-145.901,-8.93379,822.124,910,260,243770,2.89846,-30.5939,14.2941,1214,-31,200,14.2941,-183,1866.01
3284330,-147.263,-9.61053,819.65,860,-200,243680,-45.4216,-22.558,15.3768,1214,-28,201,15.3768,-167,1865.05
3284342,-150.996,-11.5905,814.443,260,-520,243680,-47.5365,-44.3033,18.5448,1227,-13,203,18.5448,-192,1856.26
3284353,-156.017,-13.4475,809.765,-80,-660,243630,-101.719,-35.2088,21.5159,1240,-14,205,21.5159,-176,1858.02
3284365,-162.025,-13.8496,803.827,-490,-540,243570,-111.882,0.841068,22.1594,1217,-15,207,22.1594,-140,1864.84
3284376,-167.015,-13.0493,799.041,-570,-360,243600,-91.6691,33.2073,20.8788,1208,4,209,20.8788,-112,1850.69
3284381,-168.884,-12.1144,797.526,-680,70,243600,-74.7696,37.3932,19.3831,1210,9,210,19.3831,-109,1846.88
3284393,-172.613,-8.65518,794.515,-360,380,243500,-64.2523,68.2642,13.8483,1221,11,212,13.8483,-74,1846.24
3284416,-171.08,-2.61581,786.983,850,680,242840,56.9519,29.6903,4.1853,1217,23,215,4.1853,-124,1841.21
3284427,-169.234,-1.42574,783.997,1220,370,242630,31.5991,19.2363,3.20453,1231,37,217,3.20453,-123,1828.42
3284432,-168.858,-1.10313,782.737,1050,180,242620,15.0579,12.9046,1.765,1234,17,218,1.765,-127,1846.45
3284443,-169.404,-1.19671,778.659,470,170,242670,-7.3591,-4.63408,1.91474,1245,18,220,1.91474,-138,1851.71
3284455,-170.747,-2.3236,772.186,70,-190,242710,-37.0651,-12.1417,3.71777,1250,23,222,3.71777,-141,1851.89
3284477,-170.636,-3.25535,759.741,-170,-350,242720,25.0516,9.40888,5.20856,1246,29,225,5.20856,-138,1855.84
3284483,-169.719,-2.55534,756.186,750,-30,242740,30.5529,23.3335,4.08855,1237,28,226,4.08855,-124,1859.71
3284495,-165.228,-0.0420567,748.61,1600,300,242800,81.5795,49.8901,0.0672908,1239,42,228,0.0672908,-106,1853.8
3284506,-160.597,2.63748,742.731,1910,830,242750,83.5171,47.3919,-4.21997,1267,70,230,-4.21997,-104,1828.43
3284529,-156.271,5.0136,731.579,1480,1210,242510,12.0794,-15.4767,-8.02176,1265,52,234,-8.02176,-139,1855.2
3284535,-156.409,3.75734,727.856,1000,360,242550,-4.5704,-41.8753,-6.01175,1279,66,235,-6.01175,-163,1845.17
3284546,-158.188,-0.287611,721.427,480,-510,242620,-38.0808,-74.2974,0.460178,1302,79,237,0.460178,-194,1837.26
3284557,-159.684,-5.26419,713.441,190,-1040,242590,-43.8448,-77.4938,8.4227,1304,80,239,8.4227,-208,1841.59
3284580,-163.603,-10.5419,698.43,-510,-580,242020,-31.6692,-10.3394,16.8671,1268,95,242,16.8671,-158,1838.45
3284586,-163.152,-10.4994,695.489,-290,-40,241670,15.0514,1.41703,16.799,1261,93,243,16.799,-160,1842.75
3284597,-161.946,-8.95847,689.227,230,370,241240,29.9763,40.9495,14.3336,1257,107,245,14.3336,-123,1834.69
3284620,-155.263,-6.04496,678.424,1830,890,240540,56.7638,0.749536,9.67193,1251,118,248,9.67193,-162,1832.15
3284631,-152.474,-7.87329,674.344,1990,450,240290,38.8122,-57.784,12.5973,1240,131,250,12.5973,-216,1821.28
3284642,-152.894,-11.3923,672.482,1390,-130,240170,-28.5536,-79.4647,15.0491,1227,128,252,15.0491,-205,1825.11
3284648,-153.495,-14.7965,671.746,40,-710,240280,-20.0193,-113.475,23.6745,1238,136,253,23.6745,-266,1819.07
3284660,-157.278,-20.9141,671.36,-800,-1340,240560,-75.8384,-100.636,33.4626,1254,120,255,33.4626,-250,1834.22
3284672,-159.26,-24.544,667.838,-1460,-1420,240910,-11.9661,-22.886,39.2703,1239,105,257,39.2703,-208,1852.01
3284683,-159.511,-24.6944,665.068,-590,-1100,241190,10.3962,17.3592,40.2053,1215,99,259,40.2053,-206,1859.24
3284689,-158.642,-23.2561,663.844,420,-730,241340,28.9777,47.943,37.2097,1220,118,260,37.2097,-155,1842.23
3284700,-156.661,-18.8802,662.883,1310,-220,241390,27.3136,89.8235,30.2083,1231,129,262,30.2083,-107,1831.91
3284711,-156.233,-13.687,663.477,1310,350,241390,-0.70984,105.307,21.8993,1211,113,264,21.8993,-73,1846.38
3284722,-158.68,-9.32948,663.909,900,960,241480,-67.4436,82.2301,14.9272,1199,112,266,14.9272,-66,1847.01
3284733,-160.872,-6.85603,664.974,410,1070,241780,-54.6082,34.6167,10.9697,1195,104,268,10.9697,-109,1856.17
3284743,-163.052,-6.29647,665.85,310,630,242350,-39.7281,6.56498,10.337,1204,113,270,10.337,-129,1845.83
3284749,-163.618,-6.69324,666.515,410,-140,242950,-18.8913,-13.2257,10.7092,1211,106,271,10.7092,-167,1851.91
3284761,-163.653,-8.26093,666.46,690,-480,243350,2.9195,-27.4985,13.2175,1213,105,273,13.2175,-192,1852.96
3284784,-161.741,-8.43565,666.063,680,-810,243570,12.9375,27.5628,13.497,1190,133,276,13.497,-145,1827.24
3284790,-161.49,-8.05267,668.279,930,-290,243610,8.36684,12.7659,12.8843,1187,142,277,12.8843,-157,1814.29
3284801,-160.836,-6.07311,672.925,1250,160,243660,3.75158,47.5255,9.71697,1181,129,279,9.71697,-119,1824.42
3284812,-160.828,-4.34588,677.771,1560,470,243730,-1.5296,28.6709,6.95341,1193,143,281,6.95341,-132,1806.36
3284834,-166.366,-3.85478,687.796,820,270,243370,-76.4043,-17.5049,6.16765,1223,118,284,6.16765,-153,1822.98
3284845,-172.098,-5.94757,690.288,130,30,243140,-108.002,-53.9265,9.51612,1219,107,286,9.51612,-181,1829.85
3284851,-175.978,-6.72779,691.176,-390,-190,243020,-129.306,-26.0073,10.7645,1220,100,287,10.7645,-150,1835.05
3284863,-182.774,-9.88525,691.833,-1050,-340,242960,-113.291,-51.7985,15.8164,1218,93,289,15.8164,-185,1843.49
3284874,-187.241,-12.6431,692.024,-1470,-560,242880,-70.5405,-47.8953,20.229,1229,102,291,20.229,-200,1834.27
3284907,-184.409,-12.5369,689.106,200,-1750,243080,68.6735,48.5345,23.3707,1237,82,295,23.3707,-184,1855.34
3284913,-182.725,-9.25536,688.217,1200,-1290,243300,56.1338,109.385,14.8086,1241,101,296,14.8086,-84,1839.24
3284924,-178.502,-1.17302,686.405,1450,-170,243600,64.2462,165.055,1.87683,1236,107,298,1.87683,-17,1833.61
3284947,-175.482,19.0085,684.541,1600,1780,244510,1.65533,167.62,-30.4136,1246,120,301,-30.4136,47,1823.96
3284953,-175.608,22.5023,685.09,1700,1850,244880,-4.21684,116.461,-36.0037,1265,127,302,-36.0037,11,1815.36
3284964,-177.794,26.6601,685.839,1230,1430,245200,-67.4168,52.2805,-42.6562,1267,106,304,-42.6562,-22,1834.62
3284987,-183.416,23.53,679.988,420,-110,245810,-51.03,-54.8302,-37.6481,1276,86,307,-37.6481,-134,1859.37
3284999,-185.809,19.9259,674.281,560,-950,245980,-33.4417,-51.0739,-31.8815,1279,76,309,-31.8815,-142,1875.02
3285005,-187.37,18.8615,670.874,890,-1150,245940,-52.0187,-35.4796,-30.1785,1282,89,310,-30.1785,-125,1863.84
3285015,-189.331,18.3996,665.507,1440,-690,245640,-61.0914,20.2013,-29.4393,1285,103,312,-29.4393,-68,1855.2
3285026,-193.1,20.464,660.154,1270,290,245180,-49.6133,27.5906,-32.7424,1270,119,314,-32.7424,-57,1842.47
3285059,-214.914,24.376,654.76,-100,1430,243700,-131.671,-28.1019,-39.0016,1256,116,318,-39.0016,-65,1848.62
3285070,-220.291,20.2992,653.219,-230,810,243220,-90.3249,-87.1872,-32.4787,1247,129,320,-32.4787,-138,1837.83
3285081,-223.269,13.9688,653.682,-120,-70,243030,-42.5823,-121.664,-28.1899,1230,129,322,-28.1899,-168,1837.78
3285087,-223.839,10.0295,654.011,260,-780,242850,-18.9782,-131.309,-16.0472,1238,147,323,-16.0472,-220,1819.03
3285098,-224.659,2.75804,656.474,670,-1260,242640,-11.2043,-132.611,-4.41287,1245,149,325,-4.41287,-238,1815.89
3285109,-225.645,-2.59148,658.956,970,-1250,242370,-45.2705,-97.5242,4.14638,1254,146,327,4.14638,-205,1814.73
3285121,-228.643,-6.82702,661.583,-90,-1280,242190,-63.6046,-66.2261,10.9232,1267,136,329,10.9232,-177,1823.49
3285127,-231.951,-8.36041,662.246,-1080,-1360,242220,-110.291,-51.1129,13.3767,1281,123,330,13.3767,-152,1833.85
3285139,-236.248,-8.67299,661.555,-1610,-820,242310,-58.1636,5.68578,13.8768,1286,108,332,13.8768,-116,1851.39
3285149,-238.656,-5.06576,659.219,-720,140,242190,-40.8421,87.4113,8.10521,1287,103,334,8.10521,-37,1859.3
3285161,-238.176,1.75185,655.748,430,790,241780,9.61158,125.643,-2.80296,1276,122,336,-2.80296,-3,1844.08
3285172,-236.949,7.75025,654.678,1210,1420,241320,15.5268,103.434,-12.4004,1255,124,338,-12.4004,-11,1840.9
3285178,-235.789,9.88918,655.151,1370,1610,240850,38.6543,71.2978,-15.8227,1255,144,339,-15.8227,-41,1821.44
3285190,-234.479,10.6636,657.544,1030,940,240510,29.8473,-9.07917,-17.0617,1268,154,341,-17.0617,-110,1808.34
3285200,-233.125,7.41716,660.265,300,-240,240310,31.8766,-77.1613,-11.8675,1279,148,343,-11.8675,-180,1811.98
3285211,-232.263,0.833416,662.433,-350,-1010,240180,8.75623,-131.331,-1.33347,1266,146,345,-1.33347,-236,1812.07
3285223,-230.158,-5.36938,665.981,-940,-1630,240160,34.328,-96.1289,8.591,1281,165,347,8.591,-225,1792
3285229,-229.299,-7.87863,668.702,-1050,-1500,240170,28.6581,-83.6418,12.6058,1284,145,348,12.6058,-219,1805.56
3285240,-224.551,-8.94421,672.249,-430,-680,240240,137.065,-1.99399,14.3107,1281,126,350,14.3107,-187,1822.56
3285252,-218.157,-6.16035,673.835,1010,70,240440,116.679,58.0226,9.85657,1281,121,352,9.85657,-120,1827.19
3285262,-211.824,-2.99337,676.317,2610,550,240620,124.329,73.1135,4.7894,1284,137,354,4.7894,-103,1812.07
3285273,-207.508,-0.522693,680.317,3090,720,240700,64.7546,35.276,0.836309,1280,143,356,0.836309,-111,1799.62
3285284,-207.984,-1.4156,685.107,2430,420,240740,-7.0752,-42.142,2.26496,1267,118,358,2.26496,-158,1820.6
3285295,-213.761,-6.39639,689.307,1150,-320,240850,-125.313,-108.615,5.02073,1257,112,360,5.02073,-160,1824.93
3285301,-218.629,-10.1504,692.099,-1090,-1090,241390,-162.254,-125.134,16.2406,1265,111,361,16.2406,-198,1821.78
3285311,-227.163,-16.6407,696.454,-2880,-1800,242280,-171.998,-121.214,26.6251,1263,106,363,26.6251,-209,1822.15
3285322,-234.641,-20.4722,701.812,-3110,-1980,243320,-117.945,-52.0149,32.7556,1248,81,365,32.7556,-176,1842.8
3285344,-235.686,-9.68698,706.623,-560,-370,245010,59.8746,175.68,15.4992,1243,41,368,15.4992,-5,1882.17
3285356,-230.775,3.52446,707.198,1140,1130,245310,80.6627,226.076,5.21252,1244,68,370,5.21252,41,1854.54
3285362,-226.677,9.46594,708.785,2060,2030,245430,136.619,198.049,-15.1455,1233,61,371,-15.1455,37,1858.58
3285373,-222.132,17.8756,711.414,1950,1800,245330,87.801,135.506,-28.601,1235,55,373,-28.601,11,1862.56
3285384,-218.159,20.1003,713.957,810,-50,244930,52.4474,19.5981,-32.1604,1259,51,375,-32.1604,-80,1863.63
3285384,-218.159,20.1003,713.957,730,-100,244780,52.4474,19.5981,-32.1604,1281,59,375,-32.1604,-78,1856.69
3285384,-218.159,20.1003,713.957,870,-110,244770,52.4474,19.5981,-32.1604,1289,47,375,-32.1604,-76,1867.77
3285384,-218.159,20.1003,713.957,690,-300,244800,52.4474,19.5981,-32.1604,1291,33,375,-32.1604,-74,1881.91
3285384,-218.159,20.1003,713.957,750,-430,244760,52.4474,19.5981,-32.1604,1310,25,375,-32.1604,-72,1891.12
3285384,-218.159,20.1003,713.957,920,-490,244590,52.4474,19.5981,-32.1604,1317,28,375,-32.1604,-70,1889.34
3285384,-218.159,20.1003,713.957,1190,-380,244230,52.4474,19.5981,-32.1604,1316,43,375,-32.1604,-68,1875.51
3285384,-218.159,20.1003,713.957,1110,-120,243790,52.4474,19.5981,-32.1604,1317,55,375,-32.1604,-66,1863.61
3285384,-218.159,20.1003,713.957,730,440,243230,52.4474,19.5981,-32.1604,1318,70,375,-32.1604,-64,1846.65
3285384,-218.159,20.1003,713.957,720,840,242650,52.4474,19.5981,-32.1604,1329,88,375,-32.1604,-62,1828.59
3285384,-218.159,20.1003,713.957,990,880,242240,52.4474,19.5981,-32.1604,1350,88,375,-32.1604,-60,1828.49
3285384,-218.159,20.1003,713.957,1170,690,242030,52.4474,19.5981,-32.1604,1358,78,375,-32.1604,-58,1838.42
3285384,-218.159,20.1003,713.957,1100,620,241940,52.4474,19.5981,-32.1604,1343,83,375,-32.1604,-56,1833.37
3285384,-218.159,20.1003,713.957,970,770,241980,52.4474,19.5981,-32.1604,1314,61,375,-32.1604,-54,1853.34
3285384,-218.159,20.1003,713.957,910,1110,242200,52.4474,19.5981,-32.1604,1289,60,375,-32.1604,-52,1857.4
3285384,-218.159,20.1003,713.957,720,1310,242570,52.4474,19.5981,-32.1604,1289,68,375,-32.1604,-50,1848.41
3285384,-218.159,20.1003,713.957,1240,1350,242920,52.4474,19.5981,-32.1604,1271,68,375,-32.1604,-48,1847.4
3285384,-218.159,20.1003,713.957,1210,1500,243050,52.4474,19.5981,-32.1604,1251,62,375,-32.1604,-46,1853.41
3285384,-218.159,20.1003,713.957,1260,1750,243060,52.4474,19.5981,-32.1604,1225,65,375,-32.1604,-44,1851.44
3285384,-218.159,20.1003,713.957,1250,1710,243030,52.4474,19.5981,-32.1604,1191,57,375,-32.1604,-42,1859.48
3285391,-216.771,19.3327,715.916,1190,1560,242940,27.3232,-16.5437,-30.9323,1167,59,376,-30.9323,-69,1855.97
3285391,-216.771,19.3327,715.916,680,1210,242820,27.3232,-16.5437,-30.9323,1149,53,376,-30.9323,-68,1861.01
3285391,-216.771,19.3327,715.916,710,1170,242700,27.3232,-16.5437,-30.9323,1129,58,376,-30.9323,-68,1858.08
3285391,-216.771,19.3327,715.916,580,1140,242500,27.3232,-16.5437,-30.9323,1133,66,376,-30.9323,-67,1849.1
3285391,-216.771,19.3327,715.916,620,1150,242210,27.3232,-16.5437,-30.9323,1140,69,376,-30.9323,-67,1846.1
3285391,-216.771,19.3327,715.916,1140,1720,242070,27.3232,-16.5437,-30.9323,1137,80,376,-30.9323,-66,1840.09
3285391,-216.771,19.3327,715.916,2090,2690,243550,27.3232,-16.5437,-30.9323,1142,125,376,-30.9323,-66,1788.86
3285391,-216.771,19.3327,715.916,2100,2900,244520,27.3232,-16.5437,-30.9323,1168,114,376,-30.9323,-65,1799.61
3285391,-216.771,19.3327,715.916,2080,2870,245350,27.3232,-16.5437,-30.9323,1185,116,376,-30.9323,-64,1798.36
3285391,-216.771,19.3327,715.916,1650,2430,246000,27.3232,-16.5437,-30.9323,1188,137,376,-30.9323,-64,1778.06
3285391,-216.771,19.3327,715.916,1560,2230,246300,27.3232,-16.5437,-30.9323,1204,146,376,-30.9323,-63,1767.69
3285391,-216.771,19.3327,715.916,1700,2420,246320,27.3232,-16.5437,-30.9323,1233,128,376,-30.9323,-63,1783.33
3285391,-216.771,19.3327,715.916,1930,2460,246190,27.3232,-16.5437,-30.9323,1246,121,376,-30.9323,-62,1792.05
3285391,-216.771,19.3327,715.916,1770,2460,245930,27.3232,-16.5437,-30.9323,1269,114,376,-30.9323,-62,1798.79
3285391,-216.771,19.3327,715.916,1570,2280,245580,27.3232,-16.5437,-30.9323,1271,97,377,-30.9323,-61,1814.59
3285745,-431.44,-881.56,722.748,-1440,-1990,245340,-121.282,-508.979,440,1271,92,378,440,-741,1811.99
3285750,-429.009,-883.67,726.568,-5170,-7340,245020,97.2282,-84.39,440,1265,55,379,440,-636,1847.88
3285750,-429.009,-883.67,726.568,-4040,-7960,243880,97.2282,-84.39,440,1256,59,379,440,-655,1845.89
3285765,-420.332,-887.072,737.785,-2410,-7540,242880,115.7,-45.3605,440,1260,59,380,440,-631,1835.87
3285779,-408.323,-873.655,747.355,-1350,-6650,242260,171.547,191.669,440,1267,54,381,440,-422,1833.17
3285794,-390.746,-828.889,759.919,-160,-4810,241980,234.37,596.878,440,1289,69,382,440,-69,1808
3285811,-372.842,-749.553,774.384,1990,-530,242010,210.636,933.369,440,1304,69,383,440,260,1795.21
3285813,-370.876,-738.806,776.197,4150,4210,242350,196.531,1074.73,440,1318,57,384,440,414,1805.55
3285813,-370.876,-738.806,776.197,5080,7180,242730,196.531,1074.73,440,1328,36,384,440,438,1827.42
3285826,-361.557,-667.841,787.216,4820,8400,243000,143.366,1091.76,440,1334,35,385,440,497,1818.47
3285840,-356.363,-604.695,795.565,4190,9080,243180,74.2022,902.085,440,1336,30,386,440,369,1818.67
3285855,-354.456,-570.576,803.057,2940,7970,243360,25.4341,454.931,440,1347,30,387,440,386,1816.53
3285872,-355.693,-579.98,808.57,760,3780,243560,-14.5552,-110.641,440,1346,34,388,440,-532,1804.97
3285874,-355.713,-584.457,808.798,-2870,-4240,243990,-2.02722,-447.687,440,1343,28,389,440,-771,1808.55
3285874,-355.713,-584.457,808.798,-4650,-8720,244540,-2.02722,-447.687,440,1332,12,389,440,-771,1824.42
3285888,-355.305,-626.106,811.708,-4570,-9910,244760,5.82755,-594.985,440,1324,9,390,440,-777,1825
3285902,-353.208,-665.401,813.388,-4190,-10390,244940,29.9671,-561.358,440,1320,12,391,440,-785,1820.56
3285916,-347.235,-674.621,816.791,-3810,-10590,245150,85.3188,-131.714,440,1327,-2,392,440,-785,1835.49
3285933,-337.015,-637.246,821.756,-2510,-9100,245090,120.236,439.705,440,1334,-4,393,440,-183,1829.72
3285935,-335.611,-628.956,822.284,250,-3000,245010,140.471,829.02,440,1329,-11,394,440,178,1836.25
3285935,-335.611,-628.956,822.284,2500,2510,244940,140.471,829.02,440,1332,-18,394,440,193,1840.21
3285949,-326.788,-554.944,823.855,3440,5840,244590,126.035,1057.32,440,1321,-41,395,440,432,1864.01
3285963,-315.499,-464.25,825.99,4040,8090,243900,161.265,1295.63,440,1306,-35,396,440,670,1858.4
3285978,-307.051,-377.341,824.534,5340,11390,243150,112.645,1158.77,440,1303,-14,397,440,588,1837.57
3285994,-300.27,-321.63,825.9,4680,10820,242000,84.7625,696.391,440,1296,3,398,440,180,1822.43
3285996,-299.49,-317.956,827.049,2240,6650,240820,77.9693,367.439,440,1295,8,399,440,-112,1813.35
3285996,-299.49,-317.956,827.049,160,1170,240110,77.9693,367.439,440,1313,6,399,440,-115,1813.2
3285996,-299.49,-317.956,827.049,-410,-430,239840,77.9693,367.439,440,1324,0,399,440,-118,1821.09
3286025,-290.925,-354.17,835.844,-520,-880,239770,79.8267,-465.526,440,1338,-6,400,440,-781,1819.95
3286042,-282.405,-400.666,837.724,-3020,-7580,240150,100.23,-547.007,440,1352,0,401,440,-787,1812.29
3286044,-281.14,-405.957,837.542,-3700,-10060,240690,126.502,-529.142,440,1345,-7,402,440,-797,1819.3
3286060,-270.089,-434.81,837.395,-3000,-11110,241450,138.146,-360.656,440,1325,-8,403,440,-800,1820.23
3286077,-259.218,-421.447,838.722,-2990,-11140,241760,126.166,193.088,440,1337,-18,404,440,-416,1829.09
3286100,-254.109,-312.304,843.018,-110,-3910,241640,3.06751,1280.66,440,1354,-10,406,440,638,1817.56
3286110,-256.325,-238.486,843.747,3490,8240,242090,-50.8693,1529.97,381.578,1358,-28,408,381.578,800,1834.89
3286116,-257.644,-193.451,844.949,5200,13760,242810,-43.9689,1501.15,309.522,1360,-21,409,309.522,800,1826.89
3286127,-258.697,-125.553,844.959,5630,16060,243180,-7.8776,1109.43,200.885,1371,-10,411,200.885,800,1814.76
3286138,-257.481,-89.1333,846.29,4880,15270,243200,39.3698,516.13,142.613,1341,-22,413,142.613,334,1825.6
3286149,-253.696,-87.4526,847.812,2550,8710,242890,108.524,-152.657,139.924,1331,-23,415,139.924,-304,1824.3
3286161,-246.081,-118.641,848.599,-10,-1800,242760,126.452,-629.546,189.825,1342,-33,417,189.825,-800,1833.6
3286172,-238.817,-159.263,846.889,-2240,-9170,243010,132.28,-718.783,226.069,1346,-54,419,226.069,-800,1856.08
3286178,-236.174,-178.471,845.829,-2770,-10860,243140,88.1264,-640.279,285.554,1331,-56,420,285.554,-800,1859.95
3286189,-233.297,-197.014,845.151,-3360,-11050,243260,39.3237,-220.952,315.222,1313,-66,422,315.222,-618,1871.63
3286200,-234.028,-190.812,844.992,-2830,-7230,243270,-32.1467,236.848,305.299,1309,-59,424,305.299,-168,1864.9
3286222,-233.772,-117.28,848.7,900,4830,243330,33.0666,828.965,187.648,1306,-24,427,187.648,482,1828.01
3286233,-228.707,-73.4866,853.355,3090,8250,243390,102.878,780.987,117.579,1327,-2,429,117.579,500,1801.14
3286243,-220.137,-45.0619,858.41,4660,9000,243570,170.476,513.865,72.0991,1334,-16,431,72.0991,288,1809.9
3286249,-214.73,-34.97,860.425,4970,6970,243760,180.231,336.398,55.952,1332,-38,432,55.952,148,1830.19
3286260,-204.704,-31.7176,862.308,3640,2630,243710,179.637,-14.124,50.7482,1346,-36,434,50.7482,-170,1828.62
3286271,-197.864,-43.5901,862.594,1100,-1300,243620,101.554,-262.849,69.7442,1362,-36,436,69.7442,-397,1827.33
3286281,-195.625,-60.8234,861.157,-940,-4090,243570,26.1018,-342.65,97.3175,1371,-48,438,97.3175,-482,1839.44
3286293,-197.205,-78.1569,858.17,-2570,-4770,243370,-29.6759,-262.831,125.051,1370,-50,440,125.051,-429,1844.85
3286314,-198.712,-82.0191,853.579,-2340,-1690,242740,4.80875,95.9483,131.231,1391,-6,444,131.231,-133,1804.35
3286326,-194.812,-69.0854,853.497,-590,380,242570,78.8445,252.323,122.648,1412,0,446,122.648,-67,1797.32
3286331,-192.104,-62.3685,852.951,1180,1880,242490,108.314,268.676,99.7896,1419,-3,447,99.7896,17,1802.44
3286342,-184.952,-48.1666,850.775,2600,2330,242390,122.267,257.092,77.0666,1435,3,449,77.0666,26,1796.97
3286353,-177.768,-38.3579,847.845,3160,1920,242280,108.392,163.103,61.3726,1437,4,451,61.3726,-35,1799.11
3286365,-172.404,-34.8377,843.919,2570,910,242240,83.3636,55.2546,55.7403,1445,0,453,55.7403,-117,1804.05
3286376,-171.321,-38.2088,839.935,1720,50,242320,-19.2882,-66.5035,61.134,1433,-13,455,61.134,-193,1819.09
3286382,-171.914,-41.176,837.07,420,-680,242540,-19.776,-98.9079,65.8816,1411,-20,456,65.8816,-232,1830.32
3286393,-175.818,-47.895,831.063,-680,-1200,242840,-75.772,-116.955,76.632,1402,-17,458,76.632,-244,1832.08
3286404,-180.852,-53.5727,825.979,-1810,-1250,243150,-89.3442,-87.7417,85.7164,1399,-3,460,85.7164,-230,1822.09
3286426,-187.374,-53.4915,818.476,-670,-190,243490,-22.3327,56.612,85.5864,1398,-9,463,85.5864,-133,1832.9
3286437,-188.862,-49.9571,811.376,-110,480,243110,-6.21959,77.0673,79.9314,1399,-27,465,79.9314,-115,1857.61
3286448,-188.706,-46.7198,802.542,320,900,242280,23.0835,76.317,77.8044,1398,-26,467,77.8044,-139,1861.4
3286454,-189.116,-45.9816,797.068,800,860,241220,-13.6497,24.6083,73.5705,1396,-3,468,73.5705,-152,1847.22
3286465,-190.376,-46.0941,788.597,270,230,240220,-24.5797,-8.87858,73.7506,1382,10,470,73.7506,-178,1840.02
3286476,-193.441,-49.4058,781.193,-210,-310,239440,-55.4669,-66.4044,79.0493,1363,17,472,79.0493,-218,1836.93
3286487,-196.659,-53.5446,776.888,-650,-830,238830,-44.4571,-80.9202,85.6713,1358,25,474,85.6713,-244,1835.36
3286499,-201.215,-57.5862,773.312,-970,-1490,238470,-81.9253,-62.4589,92.138,1349,36,476,92.138,-217,1825.14
3286505,-203.313,-58.1199,772.86,-1250,-1260,238290,-69.9393,-17.7883,92.9918,1360,48,477,92.9918,-187,1813.39
3286528,-210.059,-51.7821,769.888,-540,300,238050,-23.4782,107.971,82.8513,1336,3,480,82.8513,-91,1858.78
3286539,-212.622,-45.7438,766.911,-40,1250,238030,-53.7468,100.813,73.1901,1320,0,482,73.1901,-72,1867.29
3286545,-213.309,-42.6034,765.682,30,1640,238090,-22.885,104.681,68.1654,1330,13,483,68.1654,-79,1855.38
3286557,-214.655,-39.485,762.831,-40,1040,238220,-19.0201,43.301,63.1759,1351,31,485,63.1759,-129,1839.69
3286567,-214.062,-39.23,761.53,-580,40,238560,29.2434,0.563601,62.768,1355,69,487,62.768,-192,1806.64
3286589,-192.804,8.38578,775.126,910,1150,237010,362.35,800.617,-13.4173,1417,269,490,-13.4173,419,1600
3286601,-163.207,89.5609,800.319,4900,5430,235840,601.672,1602.87,-143.297,1467,457,492,-143.297,463,1600
3286607,-144.201,147.719,821.224,12220,10060,237180,633.556,1938.62,-236.351,1504,510,493,-236.351,441,1600
3286617,-113.503,250.961,859.955,17610,11820,238540,605.23,2048.27,-401.538,1527,323,495,-401.538,446,1600
3286628,-89.7083,340.272,888.022,19040,11420,238870,358.486,1458.82,-440,1529,129,497,-440,578,1620.99
3286651,-97.4488,405.11,885.956,14280,14190,237840,-360.404,2.35151,-440,1443,-55,500,-440,756,1816.93
3286657,-110.558,394.631,880.618,7140,14730,236290,-436.958,-349.32,-440,1398,-56,501,-440,505,1821.14
3286669,-143.172,334.379,871.516,-3020,9180,234930,-554.772,-1165.1,-440,1375,-31,503,-440,-132,1804.35
3286692,-172.868,146.944,858.344,-11120,-5890,237290,-18.323,-1649.2,-235.11,1390,-26,506,-235.11,-692,1807.59
3286703,-162.375,71.5209,851.935,-8800,-8490,238480,249.831,-1262.54,-114.433,1406,-22,508,-114.433,-800,1810.62
3286708,-153.275,46.0959,849.424,-3660,-9990,238800,364.021,-1017,-73.7534,1411,-18,509,-73.7534,-800,1807.52
3286720,-128.721,6.55003,842.545,1160,-9960,238760,415.457,-523.48,-10.48,1419,-19,511,-10.48,-660,1813.93
3286731,-111.405,-4.18956,837.718,4020,-6240,238880,281.89,-146.79,6.70329,1424,-20,513,6.70329,-294,1818.74
3286742,-106.918,-1.65053,832.769,4530,-1910,239320,20.7432,89.1871,2.64085,1430,-8,514,2.64085,39,1810.63
3286753,-115.688,6.57027,829.764,2880,2690,239700,-217.088,149.187,-10.5124,1448,16,516,-10.5124,226,1790.89
3286759,-124.161,10.0611,829.021,520,5240,240000,-282.433,116.362,-16.0978,1461,9,517,-16.0978,240,1795.29
3286771,-143.438,12.136,826.568,-1010,5560,240350,-308.728,-17.6149,-19.4176,1461,15,519,-19.4176,140,1793.07
3286781,-155.292,5.41938,824.809,-1780,3630,240710,-210.391,-163.904,-8.67101,1455,7,521,-8.67101,-49,1800.32
3286804,-160.218,-29.1631,818.464,-2180,-1200,241150,37.3403,-333.422,46.661,1449,-24,524,46.661,-383,1837.32
3286810,-157.522,-38.2072,815.466,-1560,-3070,241330,89.8433,-301.47,61.1316,1459,-12,525,61.1316,-406,1827.73
3286821,-148.582,-51.1652,810.784,-330,-3980,241350,170.609,-198.05,81.8643,1442,-18,527,81.8643,-384,1837.51
3286832,-138.71,-56.0683,806.056,900,-3270,241350,176.012,-46.4181,89.7092,1427,-7,529,89.7092,-267,1831.34
3286844,-128.629,-52.5025,803.283,2070,-2100,241390,140.615,83.9302,84.004,1420,9,531,84.004,-134,1817.53
3286855,-123.388,-42.4014,803.327,2470,-500,241540,49.1723,200.449,67.8422,1430,12,533,67.8422,26,1812.42
3286866,-121.154,-30.4762,803.368,2300,1350,241780,23.9728,219.918,48.7618,1438,3,535,48.7618,77,1821.33
3286877,-123.161,-19.8121,801.799,1820,2620,242170,-71.0237,182.82,39.0122,1435,4,537,39.0122,91,1822.75
3286882,-123.264,-16.6882,801.403,970,2810,242680,-4.10045,124.957,26.7012,1413,-14,538,26.7012,35,1837.88
3286893,-123.508,-11.2909,800.215,750,2140,243410,-3.79254,92.7408,18.0655,1396,-36,540,18.0655,16,1860.96
3286903,-122.185,-9.98664,797.094,740,900,244260,71.9548,27.7414,15.9786,1375,-50,542,15.9786,-73,1880.7
3286914,-119.089,-10.5044,792.394,1460,140,244870,71.9075,-9.74634,16.8071,1377,-51,544,16.8071,-109,1885.76
3286925,-115.307,-11.5739,787.224,1860,-60,244740,91.2613,-20.6338,18.5183,1375,-14,546,18.5183,-130,1857.13
3286946,-90.2888,47.4654,793.085,3050,2490,244770,379.096,1015.35,-75.9446,1401,254,549,-75.9446,671,1600
3286958,-52.7182,144.033,819.922,6660,6070,244740,706.613,1823.01,-230.453,1449,480,551,-230.453,519,1600
3286964,-27.1801,211.209,844.143,11280,7510,245800,851.271,2239.21,-337.935,1538,707,552,-337.935,464,1600
3286974,20.1102,347.636,898.535,17880,12370,247050,931.683,2810.41,-440,1621,584,554,-440,439,1600
3286998,85.176,599.647,989.54,19130,11430,244770,242.054,1536.4,-440,1676,199,557,-440,658,1600
3287008,82.8417,651.778,996.6,16860,13150,242700,-135.708,879.823,-440,1653,-1,559,-440,800,1668.72
3287020,61.6021,672.978,982.885,11790,15440,240620,-425.109,164.778,-440,1625,-113,561,-440,800,1784.29
3287025,48.5967,667.795,972.904,5470,16130,239060,-520.219,-207.323,-440,1578,-134,562,-440,626,1820.68
3287037,18.4865,620.859,947.443,-2230,11760,238220,-475.467,-972.829,-440,1511,-136,564,-440,-62,1844.11
3287047,1.67068,553.202,928.542,-7070,1300,239170,-270.042,-1453.21,-440,1488,-111,566,-440,-609,1834.3
3287079,24.2519,330.209,874.359,-730,-10910,242180,252.067,-1004.7,-440,1499,-87,570,-440,-596,1853.85
3287091,34.6912,290.259,857.17,1400,-9080,242590,131.164,-566.387,-440,1485,-75,571,-440,-616,1840.96
3287097,35.6151,278.94,849.47,2460,-4270,243050,30.7973,-377.306,-440,1479,-66,572,-440,39,1854.02
3287108,28.9112,270.026,837.311,2890,3400,243710,-175.525,-111.689,-432.041,1488,-54,574,-432.041,373,1849.88
3287120,13.8522,264.149,825.282,1930,7790,244180,-261.663,-125.172,-422.639,1505,-40,576,-422.639,403,1848.63
3287131,-1.55149,247.922,814.421,920,7820,244370,-273.849,-374.791,-396.676,1498,-43,578,-396.676,166,1856.43
3287137,-9.07515,232.235,808.302,-470,4650,244370,-250.789,-522.91,-371.576,1489,-45,579,-371.576,-5,1865.53
3287148,-18.9432,191.838,796.19,-1790,320,244320,-146.373,-809.694,-306.94,1490,-29,581,-306.94,-380,1859.4
3287159,-24.4014,143.506,786.136,-2700,-3220,244240,-19.9631,-886.387,-229.61,1492,-22,583,-229.61,-593,1860.6
3287181,-26.2552,59.0159,771.133,-1960,-6700,243780,8.74173,-596.379,-94.4254,1496,-7,586,-94.4254,-509,1853.84
3287192,-27.7602,36.4255,765.141,-1200,-4950,243440,-43.2202,-332.97,-58.2809,1489,-20,588,-58.2809,-295,1873.83
3287202,-30.1566,28.3976,759.756,-240,-1780,243020,-51.7539,-127.852,-45.4362,1483,-16,590,-45.4362,-124,1875.37
3287208,-32.3835,28.2119,756.464,470,780,242500,-74.2312,-6.19028,-45.139,1484,-15,591,-45.139,-6,1877.27
3287220,-36.1443,30.3816,751.088,1210,2490,242120,-71.9793,43.9618,-48.6106,1487,-14,593,-48.6106,46,1880.84
3287253,-38.6319,23.2935,737.304,1740,1560,241790,-6.0297,-168.309,-37.2696,1496,-12,598,-37.2696,-176,1890.64
3287264,-39.1387,10.8621,733.877,900,-50,241920,-14.2625,-243.477,-17.3793,1488,-14,600,-17.3793,-263,1895.69
3287270,-40.7097,2.47675,731.955,30,-1090,242150,-52.366,-279.511,-3.9628,1472,-11,601,-3.9628,-298,1895.56
3287282,-41.6871,-11.2828,730.948,-530,-1630,242370,-29.0413,-229.56,18.0524,1457,-14,603,18.0524,-293,1899.7
3287293,-44.3614,-20.8306,731.062,-700,-1610,242490,-58.1113,-158.222,33.3289,1455,-4,605,33.3289,-238,1888.93
3287314,-45.4804,-24.1312,737.19,140,-520,242220,-23.5799,11.6268,38.61,1448,8,608,38.61,-115,1872.52
3287325,-47.4773,-20.2242,741.902,720,650,241800,-41.3282,47.5071,32.3587,1454,5,610,32.3587,-67,1871.96
3287331,-47.4369,-17.4159,745.299,1130,1340,241250,1.34547,93.6089,27.8655,1468,11,611,27.8655,-40,1863.43
3287343,-50.0188,-14.3961,750.893,1200,1620,240820,-39.1311,41.5042,23.0337,1475,8,613,23.0337,-60,1861.1
3287355,-50.5751,-13.9386,758.164,870,1420,240690,-28.6826,-4.14689,22.3018,1471,16,615,22.3018,-104,1849.42
3287365,-51.361,-16.7913,765.531,820,880,240790,-20.1675,-63.2914,26.866,1464,-2,617,26.866,-166,1859.63
3287376,-52.5994,-22.0431,772.076,610,180,240990,-24.5842,-105.791,35.2689,1464,-25,619,35.2689,-213,1877.6
3287382,-53.5199,-25.4022,775.093,80,-700,241210,-30.6835,-111.969,40.6434,1464,-27,620,40.6434,-225,1877.42
3287394,-55.8448,-32.615,780.776,-880,-1670,241390,-23.8297,-101.569,52.1841,1471,-10,622,52.1841,-236,1859.05
3287405,-58.5787,-37.2454,786.943,-1240,-2120,241560,-50.0234,-78.2767,59.5926,1487,-7,624,59.5926,-215,1848.21
3287417,-60.8243,-35.4474,794.378,-1290,-1640,241750,-44.0693,43.817,56.7159,1493,-12,626,56.7159,-111,1848.36
3287428,-60.3963,-25.8408,800.755,-90,0,241940,-2.46994,194.627,41.3452,1495,-14,628,41.3452,18,1846.35
3287434,-60.0384,-19.5003,804.34,1140,1590,242260,11.9319,211.348,31.2005,1508,0,629,31.2005,41,1828.49
3287445,-58.3262,-5.3626,811.534,1990,2800,242540,4.71725,241.85,8.58015,1522,2,631,8.58015,100,1820.7
3287468,-55.754,11.1845,826.298,2400,3260,242750,23.6933,60.0113,-17.8953,1554,-5,634,-17.8953,-32,1814.72
3287474,-55.5627,10.5487,829.528,1720,1950,242730,6.37799,-21.1949,-16.8779,1544,-11,635,-16.8779,-97,1819.07
3287486,-56.6756,4.33917,835.339,90,410,242720,-9.45948,-138.605,-6.94267,1561,-12,637,-6.94267,-206,1815.36
3287498,-58.3584,-4.86738,840.511,-390,-1120,242610,-44.9621,-170.701,7.78781,1571,-39,639,7.78781,-236,1837.19
3287504,-60.0741,-8.34353,841.197,-900,-1540,242150,-57.1903,-115.872,13.3496,1577,-48,640,13.3496,-193,1845.69
3287516,-62.9402,-13.052,842.02,-760,-1040,241360,-56.8149,-51.2108,20.8833,1595,-44,642,20.8833,-143,1842.11
3287528,-66.5599,-12.5815,841.265,-770,-20,240650,-49.0501,28.7565,20.1304,1628,-31,644,20.1304,-73,1829.73
3287540,-67.726,-8.67356,839.495,-1000,450,240130,-13.1682,79.9083,13.8777,1648,13,646,13.8777,-37,1787.05
3287550,-60.179,21.3906,843.275,-1360,1190,240650,206.027,786.946,-34.2249,1672,143,648,-34.2249,525,1660.46
3287556,-50.9288,58.8804,850.133,940,3340,241760,308.34,1249.66,-94.2087,1702,341,649,-94.2087,633,1600
3287567,-22.2113,165.143,876.701,9810,8800,244900,587.727,2167.64,-264.229,1747,432,651,-264.229,525,1600
3287578,15.0324,315.783,914.95,17340,13880,247310,661.966,2717.28,-440,1792,234,653,-440,503,1600
3287590,44.5043,449.336,933.565,18590,13590,247290,409.413,2036.79,-440,1801,66,655,-440,604,1645.15
3287601,51.522,531.849,931.165,17660,13930,246100,44.0191,1328.06,-440,1770,-76,657,-440,679,1788.11
3287607,46.9716,559.121,923.592,14240,15300,243840,-151.681,909.074,-440,1705,-125,658,-440,800,1847.16
3287618,24.1708,575.028,907.819,8110,16900,240950,-489.395,69.7064,-440,1640,-124,660,-440,800,1863.99
3287629,-6.83712,545.985,894.618,90,15360,238180,-570.484,-736.823,-440,1589,-103,662,-440,197,1852.73
3287640,-30.6504,479.302,885.517,-6420,7300,237260,-362.277,-1365.25,-440,1568,-74,664,-440,-453,1831.08
3287662,-23.5943,308.557,873.76,-6450,-8880,239080,285.923,-1444.4,-440,1575,-58,667,-440,-800,1824.44
3287672,-5.6056,249.874,869.513,-2100,-10600,239490,368.3,-1086.43,-399.799,1567,-48,669,-399.799,-739,1818.84
3287683,11.6847,208.911,867.271,1890,-10260,239820,259.214,-634.281,-359.63,1570,-40,671,-359.63,-577,1812.18
3287689,18.5424,196.351,865.691,3480,-6340,240560,228.593,-418.671,-314.162,1585,-31,672,-314.162,-196,1804.75
3287700,18.7857,183.848,865.481,3590,-150,241490,-52.2306,-159.47,-294.157,1597,-43,674,-294.157,151,1814.83
3287733,-26.1345,150.559,853.211,-400,5840,243270,-263.858,-398.013,-240.895,1628,-58,678,-240.895,8,1840.79
3287744,-37.3308,120.624,845.947,-1410,2770,243690,-179.267,-592.707,-192.998,1616,-75,680,-192.998,-260,1863.74
3287750,-41.0866,100.391,841.32,-1920,-680,243960,-125.193,-674.416,-160.626,1617,-65,681,-160.626,-399,1858.63
3287760,-44.1717,65.9819,833.583,-2100,-3530,243850,-43.5074,-700.742,-105.571,1593,-66,683,-105.571,-528,1863.98
3287771,-45.9331,31.0748,826.735,-1840,-4970,243560,-40.3602,-623.755,-49.7197,1577,-63,685,-49.7197,-528,1867.67
3287783,-43.441,5.18025,820.325,-870,-5020,243110,24.3163,-378.385,-8.2884,1560,-56,687,-8.2884,-390,1868.02
3287795,-42.8731,-8.05794,815.4,-200,-3740,242680,12.2154,-165.169,4.96458,1550,-56,689,4.96458,-312,1868.49
3287800,-42.6517,-9.90237,813.847,90,-1640,242260,8.85684,-73.7769,15.8438,1547,-53,690,15.8438,-146,1870.62
3287812,-45.1795,-7.26576,809.927,660,1230,241980,-55.462,68.8051,11.6252,1544,-35,692,11.6252,14,1854.93
3287823,-45.2051,0.72943,808.889,1740,2980,241790,-23.2111,153.873,-1.16709,1544,-38,694,-1.16709,92,1857.95
3287834,-43.1815,5.80782,807.584,2410,3010,241680,21.8453,71.6015,-9.2925,1543,-22,696,-9.2925,9,1843.1
3287845,-40.2787,4.4453,807.169,2350,1980,241580,27.8263,-74.8912,-7.11248,1537,-24,698,-7.11248,-123,1845.52
3287856,-34.9913,-1.874,807.533,2030,230,241450,76.8545,-150.79,2.99839,1538,-18,700,2.99839,-226,1839.3
3287862,-33.4967,-7.47144,808.195,1250,-1410,241350,49.8203,-186.581,11.9543,1524,-23,701,11.9543,-260,1843.85
3287873,-29.1666,-17.595,809.499,840,-2430,241190,48.9294,-188.259,28.1519,1519,-2,703,28.1519,-282,1821.83
3287896,-26.0258,-26.1958,817.493,0,-1840,241030,19.0358,15.1517,41.9133,1522,-9,706,41.9133,-113,1821.36
3287907,-26.5459,-21.8246,819.906,470,-220,240970,-4.36201,118.081,39.6426,1533,-18,708,39.6426,-67,1829.12
3287913,-26.3681,-17.2869,820.46,1280,1660,240950,5.92627,151.257,27.659,1538,-19,709,27.659,27,1831.01
3287924,-24.7597,-7.93919,821.032,1920,2640,240900,21.4362,163.702,12.7027,1547,-4,711,12.7027,49,1814.52
3287936,-21.2258,-2.03956,822.026,2130,2380,240970,76.139,69.3504,3.26329,1551,-3,713,3.26329,-48,1812.64
3287947,-16.2661,-2.44996,822.339,2200,770,240990,94.7893,-37.4477,3.91993,1565,-15,715,3.91993,-151,1824.34
3287958,-11.8916,-7.20535,819.656,1690,-660,241020,66.2121,-98.5208,11.5286,1575,-34,717,11.5286,-200,1845.54
3287964,-9.01152,-10.8827,817.058,1030,-1620,241050,96.0023,-122.578,17.4123,1564,-32,718,17.4123,-245,1844.7
3287975,-6.61487,-15.8566,813.126,-100,-2610,241070,21.9579,-87.388,25.3706,1541,7,720,25.3706,-191,1814.9
3287987,-0.500037,-2.87778,813.713,-200,-1850,241470,127.809,381.227,4.60444,1540,89,722,4.60444,186,1736.19
3287999,15.8937,56.368,824.563,300,100,240950,334.903,1237.8,-90.1889,1564,287,724,-90.1889,560,1600
3288004,30.1029,108.19,836.057,8570,8230,243090,568.37,2072.88,-173.104,1601,390,725,-173.104,477,1600
3288015,68.9766,267.982,872.019,16680,12870,245590,698.862,2918.88,-428.771,1633,212,727,-428.771,439,1600
3288026,102.896,408.598,892.945,18510,11920,246100,557.67,2382.05,-440,1647,35,729,-440,500,1705.64
3288037,120.58,513.345,894.329,18380,11880,245430,224.846,1714.65,-440,1614,-61,731,-440,650,1808.54
3288049,116.111,581.574,884.295,15770,13460,243540,-185.729,913.3,-440,1586,-54,733,-440,800,1811.56
3288055,105.133,596.166,879.17,10750,15360,240990,-365.925,486.394,-440,1568,-57,734,-440,800,1818.66
3288066,75.3886,589.673,870.837,4030,15760,238430,-578.779,-328.475,-440,1549,-56,736,-440,550,1825.33
3288078,42.8128,537.823,862.134,-3610,10890,236660,-506.626,-1036.36,-440,1522,-39,738,-440,-86,1815.29
3288090,26.9815,451.703,854.493,-7990,1160,236900,-160.151,-1537.22,-440,1517,-24,740,-440,-654,1806.41
3288096,27.6845,404.818,851.523,-7550,-6910,237950,23.435,-1562.82,-440,1525,-9,741,-440,-752,1794.78
3288107,41.642,324.138,846.262,-3620,-9490,238500,328.012,-1404.54,-440,1528,-8,743,-440,-800,1794.99
3288119,61.9725,259.835,842.716,750,-9770,238750,344.007,-964.916,-415.736,1514,-43,745,-415.736,-628,1832.84
3288141,76.5499,197.822,832.346,4430,-3170,239220,-44.2911,-382.461,-316.515,1541,-45,748,-316.515,-38,1844.28
3288152,64.2926,177.905,826.054,2670,990,239300,-271.295,-361.915,-284.648,1562,-38,750,-284.648,70,1842.41
3288158,53.0286,166.646,823.17,-230,3180,239190,-375.467,-375.292,-266.634,1577,-26,751,-266.634,97,1832.78
3288169,30.6472,141.021,817.804,-2330,3530,239100,-412.633,-501.46,-225.634,1571,-24,753,-225.634,-32,1835.12
3288180,10.6285,109.01,812.388,-4210,1750,239060,-329.572,-594.778,-174.415,1569,-19,755,-174.415,-205,1834.5
3288190,0.203379,76.1043,808.45,-4040,-810,239060,-178.322,-672.619,-121.767,1572,-19,757,-121.767,-409,1837.7
3288212,-2.56125,11.8577,798.522,-2310,-4320,238960,49.7391,-479.743,-18.9723,1567,-29,760,-18.9723,-486,1856.9
3288218,-0.775537,-1.10449,796.284,-1050,-4400,238790,59.5237,-432.073,1.76719,1564,-22,761,1.76719,-482,1850.82
3288234,2.23624,-21.5495,791.062,-190,-3430,238690,33.3001,-156.909,34.4792,1565,-20,764,34.4792,-276,1853.16
3288240,1.72094,-24.7073,789.185,690,-1560,238690,-17.1769,-105.26,39.5317,1565,-20,765,39.5317,-214,1854.8
3288274,-12.6339,-29.0322,781.161,630,1350,238950,-116.943,-40.9823,46.4515,1610,-11,769,46.4515,-116,1852.58
3288285,-19.025,-35.4263,778.369,-110,960,238990,-118.74,-121.284,50.8605,1618,-4,771,50.8605,-184,1847.91
3288291,-22.391,-40.5217,776.653,-670,50,239010,-112.201,-169.846,64.8347,1613,-8,772,64.8347,-253,1853.42
3288303,-27.8452,-52.5082,773.629,-1100,-1060,239060,-94.0115,-205.765,84.0131,1608,-9,774,84.0131,-318,1855.98
3288325,-35.1508,-71.8211,768.9,-1780,-2460,239190,-54.0449,-130.245,114.914,1605,14,777,114.914,-320,1839.03
3288331,-36.6685,-74.9186,768.259,-1100,-2320,239400,-50.5926,-103.25,119.87,1627,24,778,119.87,-313,1828.56
3288343,-40.8764,-74.9233,767.861,-320,-1280,239740,-84.7055,1.28992,119.877,1627,12,780,119.877,-213,1839.92
3288354,-43.26,-69.5484,766.79,240,30,240500,-58.3356,102.602,111.277,1630,0,782,111.277,-132,1853.89
3288364,-44.6613,-64.1746,764.445,130,1410,242380,19.0922,108.382,102.679,1621,72,784,102.679,-161,1788.78
3288386,119.469,-102.713,798.018,5530,-5820,239490,2402.47,-709.406,164.34,1627,417,787,164.34,-800,1600
3288397,248.836,-142.341,837.387,11350,-11780,237160,2322.38,-697.287,227.745,1667,278,789,227.745,-800,1600
3288402,299.839,-158.822,851.516,9700,-12820,237240,2040.13,-659.245,254.115,1710,117,790,254.115,-800,1652.79
3288414,395.035,-191.163,869.639,8060,-12930,237780,1429.14,-491.001,305.861,1717,13,792,305.861,-800,1751.29
3288425,448.999,-209.531,871.955,6930,-12490,238340,819.779,-267.23,335.25,1701,-28,794,335.25,-800,1793.44
3288448,468.489,-204.099,862.734,4130,-10510,239320,-206.83,231.863,326.558,1665,-59,797,326.558,-243,1833.83
3288454,455.328,-193.284,859.329,510,-4300,239710,-438.724,360.507,309.254,1653,-58,798,309.254,3,1835.61
3288478,364.554,-125.563,848.948,-4680,8210,239410,-779.201,582.118,200.901,1653,-31,801,200.901,502,1817.96
3288484,344.363,-109.802,847.877,-4330,9890,239470,-673.035,525.385,175.683,1667,-23,802,175.683,437,1811.76
3288496,320.219,-88.1363,844.789,-2230,8530,239890,-317.488,308.745,141.018,1678,-15,804,141.018,108,1802.17
3288506,315.381,-82.3166,842.25,660,3860,240450,-40.1982,62.5798,131.707,1672,-29,806,131.707,-234,1819.2
3288517,321.115,-86.2658,837.192,2240,-1380,240780,123.047,-140.16,138.025,1656,-33,808,138.025,-504,1828.25
3288528,330.092,-95.3276,832.438,3000,-4760,240910,144.638,-176.688,152.524,1658,-41,810,152.524,-571,1838.09
3288540,331.713,-104.169,826.276,2350,-5590,241040,-19.9665,-127.094,166.671,1664,-35,812,166.671,-472,1839.08
3288546,327.952,-106.342,823.625,810,-4500,241200,-125.351,-72.4201,170.147,1651,-35,813,170.147,-385,1841.29
3288558,310.989,-103.311,817.863,-580,-1850,241320,-319.302,76.0492,165.297,1650,-26,815,165.297,-157,1836.97
3288580,265.696,-82.1844,808.596,-2490,2140,241140,-419.658,224.347,131.495,1667,-19,818,131.495,60,1837.57
3288591,246.097,-70.2634,802.933,-2230,3020,240990,-326.066,216.715,112.421,1671,-18,820,112.421,32,1841.15
3288601,233.732,-61.0338,797.6,-1310,2670,240770,-213.317,185.345,97.6541,1667,-17,822,97.6541,-30,1845.5
3288612,224.892,-54.9086,791.75,-130,1660,240670,-135.245,101.187,92.7106,1667,-13,824,92.7106,-88,1844.06
3288617,221.233,-53.8259,788.251,80,290,240630,-146.381,43.3074,86.1214,1664,-6,825,86.1214,-172,1839.15
3288629,215.266,-51.8416,782.878,290,-590,240630,-106.434,12.5488,82.9465,1666,0,827,82.9465,-216,1840.54
3288651,199.667,-51.993,772.884,-240,-1000,241220,-173.582,5.51163,83.1887,1655,-4,830,83.1887,-194,1851.73
3288663,187.273,-50.5469,767.86,-1040,-800,241680,-223.527,24.3749,82.045,1652,3,832,82.045,-171,1846.97
3288669,181.794,-47.984,766.558,-1320,-400,242110,-182.635,85.4288,76.7745,1650,2,833,76.7745,-115,1851.02
3288680,169.949,-42.4478,762.449,-1250,300,242750,-211.771,132.334,67.9165,1649,0,835,67.9165,-53,1856.45
3288691,160.499,-34.7661,758.141,-610,1290,243640,-166.971,139.97,55.6257,1647,1,837,55.6257,-52,1859.06
3288702,153.532,-26.587,753.113,180,1780,244330,-114.574,135.278,42.5393,1647,9,839,42.5393,-66,1855.23
3288714,148.085,-19.5126,748.565,560,1650,244480,-72.2582,108.961,36.4503,1630,10,841,36.4503,-66,1856.6
3288720,145.302,-18.1345,745.664,890,1030,244390,-92.7533,45.9363,29.0153,1623,18,842,29.0153,-137,1853.49
3288731,140.262,-18.5749,742.396,290,-110,244280,-85.4674,-27.7329,29.7198,1632,25,844,29.7198,-207,1848.21
3288754,129.855,-24.3289,736.313,-970,-1760,244890,-110.959,-35.4334,38.9262,1597,1,847,38.9262,-217,1876.39
3288765,124.92,-22.7655,732.488,-1670,-1820,245110,-111.636,51.9853,38.5042,1579,-14,849,38.5042,-195,1894.2
3288771,122.404,-19.4045,730.023,-1280,-920,244930,-83.8593,112.032,31.0473,1589,-7,850,31.0473,-87,1892.06
3288783,119.942,-8.43722,726.256,-260,120,244150,-20.6184,212.29,13.4995,1598,21,852,13.4995,-2,1866.32
3288794,118.776,4.51543,723.437,1490,1350,242970,-10.3255,222.671,-7.22469,1596,17,854,-7.22469,29,1873.79
3288805,118.215,18.4933,722.259,2390,2530,241770,-11.3528,223.826,-29.5892,1606,41,856,-29.5892,58,1852.9
3288816,116.534,27.8163,722.38,2560,2920,240750,-48.4037,141.856,-37.697,1612,59,858,-37.697,54,1830.87
3288821,115.513,29.2666,723.279,1860,2220,239860,-40.8594,58.011,-46.8265,1603,43,859,-46.8265,-43,1846.19
3288833,111.115,26.2241,724.473,750,430,239250,-96.2774,-82.5188,-41.9585,1581,21,861,-41.9585,-141,1866.37
3288843,107.755,18.7524,725.244,-260,-1430,239000,-115.292,-185.627,-30.0038,1577,22,863,-30.0038,-230,1866.97
3288854,105.46,9.75601,726.124,-1050,-2690,239000,-60.4277,-146.73,-15.6096,1576,33,865,-15.6096,-242,1857.44
3288876,99.3921,5.59979,732.569,-1510,-1540,239450,-50.7476,52.3305,-8.95967,1612,56,868,-8.95967,-86,1827.38
3288882,98.7286,8.75339,734.71,-710,-180,239670,-22.1161,105.12,-14.0054,1639,37,869,-14.0054,-47,1843.71
3288893,99.2856,19.2247,736.711,860,1510,239980,37.1191,213.73,-30.7595,1655,18,871,-30.7595,38,1860.22
3288904,100.211,30.2806,734.891,2530,2650,240310,3.69972,187.314,-48.4489,1663,17,873,-48.4489,57,1863.85
3288916,103.819,39.3219,732.925,3620,2650,240560,44.0698,103.545,-62.915,1666,12,875,-62.915,-16,1872.62
3288927,105.772,38.2793,730.777,2950,1230,240730,15.8727,-66.3948,-61.2469,1701,45,877,-61.2469,-147,1844.48
3288938,104.471,28.4285,729.294,1060,-700,241030,-27.4564,-212.751,-53.9956,1703,49,879,-53.9956,-212,1837.24
3288949,101.091,15.5968,729.691,-1020,-2320,241530,-68.5884,-230.289,-36.0088,1711,44,881,-36.0088,-296,1842.88
3288959,96.3292,5.5673,728.148,-2260,-3090,242280,-111.916,-177.408,-16.004,1726,31,883,-16.004,-297,1856.05
3288965,95.0813,2.6149,726.857,-2260,-2460,243060,-41.5996,-98.4136,-4.18383,1740,18,884,-4.18383,-220,1871.99
3288976,92.8242,2.88393,723.271,-1820,-610,243990,-8.70781,37.4886,-4.61429,1751,53,886,-4.61429,-114,1838.99
3289009,340.374,-61.2844,787.449,9760,-9930,240210,2428.82,-796.694,98.0551,1748,302,890,98.0551,-800,1600
3289020,460.677,-101.701,816.778,10350,-12530,240230,2057.43,-707.698,134.413,1775,159,892,134.413,-800,1648.48
3289025,505.35,-116.942,825.317,9810,-12750,241040,1786.94,-609.648,187.107,1777,54,893,187.107,-800,1746.05
3289037,584.656,-145.02,834.557,9440,-12050,241790,1150.06,-399.9,232.031,1769,6,895,232.031,-800,1789.38
3289047,620.45,-157.5,836.952,9980,-11300,242260,573.623,-198.958,252.001,1751,-23,897,252.001,-800,1818.44
3289058,628.571,-160.366,836.436,8450,-9730,243030,-10.728,3.65462,256.586,1738,-41,899,256.586,-512,1836.88
3289070,602.203,-152.784,833.777,2490,-5150,244060,-580.505,171.086,244.454,1753,-34,901,244.454,-103,1832.05
3289081,555.68,-138.583,830.125,-3780,630,244530,-905.08,268.077,221.733,1778,-31,903,221.733,146,1832
3289090,513.935,-123.16,826.492,-7650,4630,244550,-878.426,356.887,208.477,1795,-22,905,208.477,250,1824.61
3289097,484.176,-112.22,822.773,-7910,6040,244550,-850.274,312.575,179.552,1770,-34,906,179.552,207,1838.93
3289108,453.226,-96.3761,817.253,-5990,5040,244710,-512.145,266.09,154.202,1740,-51,908,154.202,67,1862.49
3289120,437.07,-85.7766,810.416,-2590,2770,245080,-195.427,155.16,137.243,1729,-51,910,137.243,-141,1868.16
3289142,439.626,-78.5242,797.167,3130,-1280,246040,34.2874,16.3374,129.406,1696,-51,913,129.406,-299,1875.55
3289153,438.689,-79.3412,792.313,3420,-2130,246460,-66.4888,-41.0998,126.946,1677,-39,915,126.946,-372,1872.41
3289159,433.914,-78.9597,790.969,2000,-2540,246770,-159.191,12.7166,126.336,1690,-12,916,126.336,-292,1845.66
3289170,418.102,-78.2282,789.87,80,-1850,247090,-329.766,32.2429,125.165,1703,3,918,125.165,-213,1831.58
3289192,368.031,-68.4769,789.694,-3420,0,247680,-481.887,120.827,109.563,1705,2,921,109.563,-58,1832.78
3289203,344.337,-59.228,789.744,-3750,750,247970,-405.678,161.356,94.7649,1690,-2,923,94.7649,-30,1837.79
3289214,326.111,-47.0825,791.488,-2400,1450,248140,-314.866,199.724,83.3209,1688,4,925,83.3209,36,1828.93
3289220,319.449,-40.0533,792.854,-590,1720,248170,-222.05,234.307,64.0853,1691,-1,926,64.0853,14,1833.36
3289243,299.182,-24.0775,794.301,810,660,247540,-172.681,81.993,38.524,1729,24,929,38.524,-109,1808.24
3289254,288.398,-22.5825,795.475,340,-180,247230,-196.484,17.1291,36.132,1750,24,931,36.132,-157,1806.19
3289260,282.121,-22.6879,795.774,-280,-390,246970,-209.231,-3.51412,36.3007,1768,1,932,36.3007,-172,1828.9
3289271,268.855,-22.5667,792.577,-870,30,246800,-231.081,26.4862,36.1067,1767,-16,934,36.1067,-134,1848.54
3289282,257.779,-22.5309,787.505,-840,-180,246670,-209.949,25.1442,36.0494,1752,-11,936,36.0494,-144,1847.71
3289293,247.405,-23.6984,781.821,-980,-640,246540,-173.627,-33.7248,37.9175,1729,0,938,37.9175,-213,1841.35
3289303,239.728,-24.8253,778.599,-870,-1330,246220,-148.379,-25.15,39.7205,1716,21,940,39.7205,-215,1822.94
3289326,226.278,-25.0964,778.984,-740,-2280,245080,-98.9073,22.6709,41.2425,1740,43,944,41.2425,-182,1798.94
3289331,223.833,-22.8607,778.978,-80,-1520,244850,-97.8065,89.4303,36.5771,1740,37,945,36.5771,-124,1806.28
3289342,219.271,-15.402,777.859,670,-80,244890,-81.7788,167.256,24.6432,1744,20,947,24.6432,-42,1820.1
3289353,214.692,-5.94153,774.724,1070,710,245160,-84.5239,186.762,9.50645,1734,-14,949,9.50645,-2,1860.7
3289376,201.481,6.63338,757.906,1800,1850,245160,-137.106,28.5034,-10.6134,1712,-25,952,-10.6134,-98,1885.67
3289388,191.163,3.52388,748.268,700,1120,244860,-192.987,-105.656,-10.7097,1723,-6,954,-10.7097,-115,1870.67
3289394,185.367,-0.385585,744.386,-630,150,244450,-193.175,-130.316,0.616937,1739,15,955,0.616937,-233,1855.92
3289406,172.589,-13.1806,736.427,-1610,-1080,244080,-226.291,-233.19,21.0889,1723,6,957,21.0889,-339,1872.48
3289418,161.633,-26.2365,728.774,-2140,-2390,243740,-189.961,-222.853,41.9784,1702,-2,959,41.9784,-362,1887.86
3289423,157.207,-31.0412,725.331,-2240,-2920,243410,-177.047,-192.188,49.6659,1697,1,960,49.6659,-358,1886.9
3289434,148.478,-37.6845,719.496,-1780,-2550,242970,-144.213,-99.6122,60.2952,1698,2,962,60.2952,-293,1891.88
3289446,138.843,-39.2792,712.79,-1190,-1600,242560,-173.32,-5.84832,62.8467,1699,8,964,62.8467,-194,1891.57
3289457,130.435,-35.9192,709.186,-830,-130,242340,-156.174,77.7741,57.4708,1713,32,966,57.4708,-117,1869.73
3289469,121.137,-31.5988,705.954,-460,1050,242370,-140.539,56.2336,50.5581,1707,31,968,50.5581,-134,1873.53
3289474,117.82,-29.7164,704.543,-270,1410,242630,-132.661,75.2989,47.5462,1712,35,969,47.5462,-117,1870.87
3289486,110.092,-27.6872,702.415,20,1430,242950,-133.745,1.13547,44.2996,1719,44,971,44.2996,-180,1863.76
3289497,104.189,-29.683,701.242,-130,720,243050,-102.942,-54.064,47.4927,1720,50,973,47.4927,-248,1858.85
3289508,98.9718,-36.325,701.378,-410,-550,242890,-97.0529,-116.158,58.1201,1719,52,975,58.1201,-314,1857.88
3289520,91.9074,-46.288,701.743,-820,-1590,242630,-122.511,-160.447,74.0608,1721,49,977,74.0608,-357,1858.73
3289526,88.8652,-50.8449,702.72,-1220,-2280,242460,-101.407,-151.896,81.3519,1719,47,978,81.3519,-363,1862.09
3289537,81.648,-57.8323,704.261,-1350,-2220,242360,-129.012,-115.62,92.5316,1741,60,980,92.5316,-326,1846.97
3289548,73.088,-60.9379,707.404,-1560,-1410,242370,-134.732,-36.6855,97.5007,1766,57,982,97.5007,-257,1846.54
3289560,64.6124,-60.1629,710.573,-990,-630,242370,-151.828,9.557,96.2607,1780,63,984,96.2607,-204,1839.07
3289566,60.38,-58.8099,712.545,-710,-120,242350,-141.08,45.1016,94.0958,1792,58,985,94.0958,-174,1842.54
3289577,53.5876,-56.6387,715.892,-430,-10,242240,-119.55,38.072,90.6218,1813,61,987,90.6218,-185,1836.9
3289588,47.2717,-56.3546,718.359,-860,-370,242070,-103.31,18.6522,90.1674,1826,61,989,90.1674,-209,1834.95
3289599,44.1079,-58.4823,721.355,-530,-1060,242130,-57.3604,-46.3673,93.5717,1844,67,991,93.5717,-288,1826.54
3289611,41.9286,-60.5191,724.531,-310,-1700,242500,-13.7347,-30.4713,96.8305,1861,67,993,96.8305,-297,1823.98
3289622,40.5546,-61.5663,726.807,200,-1990,243100,-41.6908,-16.7585,98.5061,1876,72,995,98.5061,-275,1817.1
3289627,39.9331,-61.3467,727.928,530,-1680,243980,-24.8603,8.78613,98.1547,1871,55,996,98.1547,-259,1833.18
3289639,36.3972,-59.2768,729.059,1060,-910,244790,-95.5491,33.5972,94.843,1851,38,998,94.843,-207,1849.33
3289650,33.5488,-55.1178,730.485,850,-250,245210,-86.6901,66.2569,88.1884,1845,45,1000,88.1884,-177,1841.27
3289662,26.1976,-52.4238,732.299,460,30,245260,-116.294,36.7196,83.8781,1840,31,1002,83.8781,-189,1853.9
3289668,21.4871,-51.3799,732.992,50,-10,244990,-157.016,34.7958,82.2079,1836,16,1003,82.2079,-173,1868.51
3289679,13.5239,-52.4896,732.908,-530,-400,244520,-180.496,-33.2203,83.9834,1827,22,1005,83.9834,-226,1862.75
3289690,5.44755,-55.9409,733.355,-1130,-1000,244050,-143.215,-64.1299,89.5055,1813,13,1007,89.5055,-270,1870.56
3289702,-2.55188,-59.698,734.03,-1520,-1600,243640,-151.699,-56.9365,95.5169,1808,14,1009,95.5169,-262,1869.23
3289713,-7.38537,-63.1971,735.568,-2080,-1930,243330,-109.304,-49.5229,101.115,1805,24,1011,101.115,-272,1862.17
3289719,-9.7507,-63.0735,737.072,-1960,-1730,243290,-78.8441,4.12154,100.918,1810,30,1012,100.918,-236,1853.08
3289731,-10.8786,-60.7407,741.896,-800,-1320,243320,-19.1375,66.3332,97.1851,1815,24,1014,97.1851,-201,1853.31
3289741,-11.2428,-55.7167,745.329,400,-630,243360,-13.8633,101.45,89.1467,1808,4,1016,89.1467,-163,1869.71
3289753,-10.2739,-49.2469,748.595,860,-390,243350,15.5569,100.334,78.795,1807,16,1018,78.795,-166,1860.28
3289765,-10.5373,-44.6912,753.68,840,-630,243580,-21.8755,82.0505,71.5059,1810,20,1020,71.5059,-160,1849.31
3289771,-11.149,-42.9503,756.599,750,-470,244300,-20.3907,58.0297,68.7205,1811,5,1021,68.7205,-181,1862.09
3289782,-13.706,-41.1744,761.408,610,-670,245250,-59.709,32.7193,65.8791,1811,-9,1023,65.8791,-188,1872.43
