timestamp,x,y,z,pitch,roll,yaw,vx,vy,vz,battery,cpu_load,vicon_count,set_position,set_velocity,calc_thrust
0,0,0,0,0,0,0,0,0,0,0,0,0,0,0,0
0,0,0,0,0,0,0,0,0,0,0,0,0,-500,400,2083.31
632018,6.69313,9.5783,74.4356,0,0,0,-2.27569,2.98991,0,0,0,2,-500,400,2084.41
632040,6.64019,10.1285,75.5305,0,0,0,3.21037,-5.32049,0,0,0,5,-500,400,2086.61
632052,6.53682,10.036,75.4822,0,0,0,-2.90716,0.83273,0,0,0,7,-500,400,2087.71
632058,6.57391,10.1956,75.4816,0,0,0,1.23636,5.31974,0,0,0,8,-500,400,2088.81
632069,6.58623,10.229,75.4584,0,0,0,0.0751808,0.544173,0,0,0,10,-500,400,2089.91
632092,6.5624,10.3225,75.4505,0,0,0,-2.00666,5.54837,0,0,0,13,-500,400,2092.11
632103,6.50334,10.4017,75.469,0,0,0,-3.79394,-2.87333,0,0,0,15,-500,400,2093.21
632109,6.59253,10.5165,75.4724,0,0,0,2.97323,3.82714,0,0,0,16,-500,400,2094.42
632120,6.55857,10.4981,75.4991,0,0,0,2.70252,1.29419,0,0,0,18,-500,400,2095
632132,6.52943,10.5516,75.5,0,0,0,0.884251,2.40202,0,0,0,20,-500,400,2095
632144,6.51386,10.5053,75.4963,0,0,0,0.480498,-1.2532,0,0,0,22,-500,400,2095
632154,6.55355,10.5704,75.5479,0,0,0,-0.395047,-0.0678866,0,0,0,24,-500,400,2095
632160,6.59986,10.6304,75.5711,0,0,0,1.54357,2.0005,0,0,0,25,-500,400,2095
632170,6.59171,10.5899,75.5638,0,0,0,0.860032,0.547556,0,0,0,27,-500,400,2095
632181,6.54758,10.616,75.5851,1220,-540,250840,-0.192858,0.550995,110,-49,49,29,-500,400,2046
632203,6.55416,10.6483,75.6027,1180,-480,252920,0.372408,0.159052,130,-5,30,32,-500,400,2065
632214,6.51399,10.6415,75.5715,1160,-440,253980,-1.10512,-0.574829,80,10,20,34,-500,400,2075
632220,6.52322,10.6686,75.5957,1150,-400,254990,0.307605,0.902056,70,27,14,35,-500,400,2081
632232,6.536,10.6968,75.5887,1100,-360,255900,-0.736051,1.34121,90,42,12,37,-500,400,2083
632243,6.52522,10.6661,75.6019,1040,-330,256680,-0.0812405,0.188009,70,62,13,39,-500,400,2082
632254,6.54159,10.7058,75.5934,1020,-310,257380,-0.40043,0.127282,140,82,15,41,-500,400,2080
632265,6.53992,10.6891,75.6302,1040,-340,257990,-0.846901,0.509357,170,102,20,43,-500,400,2075
632271,6.55496,10.7287,75.6248,1120,-430,250260,0.501284,1.31895,110,11,-2,44,-500,400,2096
632282,6.53445,10.6897,75.6181,1090,-450,250180,1.05038,-0.137528,140,18,-18,46,-500,400,2100
632298,6.49334,10.6463,75.4895,1010,-370,252450,-1.26346,-0.861736,60,22,-45,49,-500,400,2100
632314,6.55664,10.7092,75.6591,940,-350,251260,1.19342,0.099386,60,23,-61,52,-500,400,2100
632330,6.51356,10.6851,75.6735,840,-260,250480,-0.798344,-1.80007,80,34,-82,55,-500,400,2100
632341,6.52783,10.6866,75.6107,840,-250,252740,0.683146,-0.853114,120,28,-98,57,-500,400,2100
632353,6.52711,10.6877,75.6152,830,-250,249850,-0.608804,0.506455,80,30,-109,59,-500,400,2100
632359,6.54811,10.7145,75.6536,850,-220,251170,0.699956,0.89374,80,34,-117,60,-500,400,2100
632370,6.59453,10.6749,75.6242,860,-180,248570,1.5805,-0.0685356,40,35,-123,62,-500,400,2100
632382,6.57592,10.6947,75.6302,830,-20,252050,0.998858,0.971746,140,37,-131,64,-500,400,2100
632393,6.60988,10.4752,75.6669,840,80,252990,1.46718,-6.66702,50,36,-136,66,-500,400,2100
632404,6.54097,10.557,75.4493,840,80,253470,-1.25479,3.97668,170,40,-139,68,-500,400,2100
632410,6.55037,10.5033,75.4577,840,70,253990,0.313267,-1.79031,80,46,-141,69,-500,400,2100
632421,6.64124,10.5754,75.4967,860,100,254530,3.70285,1.23319,10,48,-145,71,-500,400,2100
632432,6.5467,9.74348,74.4314,840,100,255020,-8.94972,-0.667606,70,53,-146,73,-500,400,2100
632443,6.53561,9.71012,74.443,820,110,255430,0.440644,-1.28496,60,49,-148,75,-500,400,2100
632455,6.53877,9.72417,74.4446,780,120,255850,0.123761,-0.584762,30,48,-151,77,-500,400,2100
632460,6.35002,10.2306,75.2488,800,140,249090,-7.55023,20.257,100,55,-147,78,-500,400,2100
632471,6.25532,10.4607,75.5663,780,140,248680,-0.654646,5.10297,60,45,-155,80,-500,400,2100
632495,6.35615,10.5499,75.5919,760,150,250570,-2.94043,5.22097,80,57,-146,83,-500,400,2100
632506,6.36301,10.5801,75.6548,730,150,253570,1.52894,-0.0164485,80,57,-142,85,-500,400,2100
632512,6.34206,10.5669,75.6576,700,150,253990,-0.698305,-0.439221,10,65,-134,86,-500,400,2100
632523,6.3392,10.6931,75.6945,720,170,254310,-4.6559,-0.73655,40,67,-129,88,-500,400,2100
632545,6.35403,9.92293,74.9431,760,300,254830,-6.35346,-11.4301,0,66,-117,91,-500,400,2100
632557,6.14727,9.81247,74.8787,770,260,255040,-7.79059,-3.07492,50,61,-111,93,-500,400,2100
632563,6.11607,9.84493,74.8874,740,230,255170,-1.04019,1.08213,120,50,-109,94,-500,400,2100
632574,6.37042,10.4754,74.8809,860,630,255310,3.77711,13.5769,0,44,-104,96,-500,400,2100
632597,6.04564,9.33947,74.573,790,630,255490,1.88718,-5.09588,-70,35,-91,99,-500,400,2100
632603,6.07331,9.52638,74.5757,800,560,255570,0.922335,6.23045,-200,39,-81,100,-500,400,2100
