timestamp,x,y,z,pitch,roll,yaw,vx,vy,vz,battery,cpu_load,vicon_count,set_position,set_velocity,calc_thrust
0,0,0,0,0,0,0,0,0,0,0,0,0,0,0,0
0,0,0,0,-220,-2190,247630,0,0,0,-625,65,0,0,0,2030
3254279,-124.178,-48.2208,76.5741,-160,-2170,247610,1.23759,-1.44202,77.1532,-628,60,2,77.1532,-73,2035
3254290,-124.132,-48.2379,76.6091,-110,-2180,247620,0.022592,2.55373,77.2828,-636,55,4,77.2828,-76,2039
3254296,-124.094,-48.2622,76.5752,-50,-2160,247720,1.27632,-0.807935,77.2195,-645,50,5,77.2195,-76,2044
3254307,-124.102,-48.2284,76.5956,0,-2160,247820,-1.39456,0.876358,77.1654,-655,43,7,77.1654,-75,2051
3254319,-124.082,-48.2562,76.5947,50,-2170,247920,-2.62372,0.723959,77.21,-668,36,9,77.21,-77,2059
3254330,-124.039,-48.2924,76.4834,100,-2200,248020,1.9738,-1.21594,77.2679,-668,32,11,77.2679,-81,2063
3254336,-124.133,-48.2692,76.5914,150,-2180,248120,-3.14382,0.772456,77.2308,-651,38,12,77.2308,-80,2057
3254348,-124.029,-48.3315,76.4943,210,-2200,248220,0.227189,-0.88137,77.3304,-644,40,14,77.3304,-84,2055
3254381,-124.12,-48.2583,76.5566,370,-2260,248410,-0.449948,-0.133841,77.2133,-641,41,18,77.2133,-87,2054
3254391,-124.07,-48.2405,76.5665,420,-2270,248500,0.262826,0.712334,77.2076,-638,44,20,77.2076,-89,2052
3254398,-124.036,-48.2563,76.571,470,-2330,248570,0.969957,-0.451999,77.2101,-634,46,21,77.2101,-91,2049
3254410,-124.015,-48.3026,76.4549,510,-2340,248670,-0.351174,0.551358,77.2842,-634,45,23,77.2842,-91,2050
3254421,-124.058,-48.2954,76.445,530,-2380,248760,-0.370089,-1.2413,77.2727,-639,45,25,77.2727,-95,2050
3254432,-124.194,-48.1912,76.667,500,-2360,248760,-3.99743,3.04763,77.106,-636,46,27,77.106,-91,2049
3254443,-124.258,-47.9753,76.8703,450,-2370,248770,0.86413,-0.705044,76.7605,-637,43,29,76.7605,-97,2052
3254453,-124.292,-47.9481,76.8222,500,-2330,248820,-2.18028,1.75529,76.717,-635,41,31,76.717,-95,2054
3254459,-124.302,-48.0175,76.7004,470,-2350,248820,-0.329312,-2.31359,76.828,-638,37,32,76.828,-101,2058
3254471,-124.031,-48.2985,76.4641,520,-2340,248820,2.76528,-6.99043,77.2775,-641,36,34,77.2775,-108,2059
3254483,-124.159,-47.9811,76.8447,480,-2330,248820,-2.08314,8.49794,76.7697,-639,37,36,76.7697,-93,2058
3254489,-124.272,-48.001,76.8267,420,-2360,248890,-3.78415,-0.666052,76.8017,-636,41,37,76.8017,-104,2054
3254500,-124.28,-47.9976,76.8508,440,-2300,248910,0.556691,-0.349438,76.7962,-631,42,39,76.7962,-105,2053
3254511,-124.291,-47.9543,76.7968,430,-2250,248940,-1.30193,1.99959,76.7268,-623,46,41,76.7268,-104,2050
3254523,-124.163,-48.158,76.6717,410,-2240,248940,-1.69758,0.373985,77.0527,-619,47,43,77.0527,-108,2048
3254535,-124.055,-48.222,76.5742,400,-2200,248940,3.83847,-2.01432,77.1552,-598,57,45,77.1552,-113,2038
3254541,-124.035,-48.3134,76.4897,400,-2160,248870,0.671719,-3.04645,77.3015,-596,59,46,77.3015,-115,2036
3254552,-124.035,-48.3232,76.4525,440,-2140,248920,1.9909,-0.0145011,77.3171,-603,52,48,77.3171,-114,2043
3254575,-124.097,-48.2545,76.5752,490,-2130,248920,-2.06389,1.37653,77.2072,-606,48,51,77.2072,-115,2047
3254586,-124.015,-48.3008,76.4713,540,-2120,248890,1.60636,-1.02669,77.232,-609,45,53,77.232,-119,2049
3254591,-124.035,-48.3085,76.5001,550,-2150,248960,-0.784796,-0.30971,77.2937,-611,42,54,77.2937,-120,2053
3254603,-124.166,-47.9996,76.4377,520,-2190,249050,-3.01881,7.86952,76.7993,-601,47,56,76.7993,-112,2049
3254613,-124.107,-48.3194,76.3596,510,-2190,249120,-0.72888,-9.08984,77.311,-591,50,58,77.311,-132,2044
3254625,-124.341,-48.4125,76.5826,480,-2200,249220,-3.62385,-2.8287,77.4601,-595,44,60,77.4601,-127,2051
3254637,-124.273,-48.4064,76.4661,490,-2180,249320,-1.03045,0.985443,77.4503,-605,39,62,77.4503,-125,2056
3254643,-124.223,-48.4927,76.3381,510,-2250,249420,1.65448,-2.87641,77.5884,-605,37,63,77.5884,-131,2059
3254654,-124.418,-48.3768,76.3444,1210,-3080,249770,-4.59692,0.479503,77.4028,-598,42,65,77.4028,-128,2053
3254677,-124.902,-48.0417,76.6066,710,-2370,250450,14.4641,-10.4131,76.8667,-605,24,68,76.8667,-144,2071
3254683,-124.626,-48.4095,76.4263,770,-2340,250380,9.21627,-12.2618,77.4553,-608,21,69,77.4553,-148,2074
3254695,-124.681,-48.5535,76.4066,750,-2460,250640,-2.08814,-5.97059,77.6856,-610,20,71,77.6856,-142,2075
3254706,-124.73,-48.4785,76.3661,780,-2400,250530,-5.9834,0.376749,77.5656,-611,20,73,77.5656,-137,2075
3254717,-124.86,-48.7446,76.1517,680,-2370,250630,-1.12635,-9.94299,77.9914,-611,18,75,77.9914,-149,2077
3254728,-124.724,-48.7449,76.1438,650,-2230,250620,4.22975,0.467801,77.9918,-617,15,77,77.9918,-141,2080
3254739,-124.666,-48.6019,76.1678,550,-2160,250520,2.18074,-0.558857,77.7631,-629,9,79,77.7631,-144,2086
3254745,-124.561,-48.6046,76.402,310,-2030,250410,3.50415,-0.0889759,77.7673,-642,2,80,77.7673,-145,2093
3254769,-124.104,-48.814,76.6722,20,-1820,250230,1.28316,-2.54716,78.1024,-654,-4,83,78.1024,-151,2098
3254775,-124.073,-48.8204,76.7077,-30,-1750,250170,1.0521,-0.21474,78.1127,-661,-9,84,78.1127,-150,2100
3254799,-123.966,-48.8572,76.7836,-110,-1800,249840,1.28676,-1.20019,78.1716,-691,-23,87,78.1716,-154,2100
3254810,-124.048,-48.9018,76.7285,-150,-1890,249720,-0.730086,0.0203614,78.2429,-690,-24,89,78.2429,-154,2100
3254815,-123.956,-48.883,76.7369,-210,-1880,249700,3.64498,0.753879,78.2127,-695,-25,90,78.2127,-156,2100
3254851,-123.998,-48.9249,76.7027,-180,-1790,250230,-3.85302,0.643621,78.2799,-711,-27,94,78.2799,-160,2100
3254857,-123.911,-48.9795,76.7248,-200,-1730,250090,2.92357,-1.81955,78.3672,-717,-28,95,78.3672,-165,2100
3254868,-123.926,-49.0367,76.7176,-210,-1710,250070,1.7007,0.48974,78.4587,-716,-27,97,78.4587,-164,2100
3254880,-123.951,-49.0559,76.7124,-220,-1690,250040,-2.21824,-0.0868846,78.4894,-711,-22,99,78.4894,-166,2100
3254891,-123.959,-48.9685,76.6918,-200,-1700,250090,-1.18502,1.81828,78.3496,-703,-15,101,78.3496,-166,2100
3254897,-123.994,-49.0351,76.6937,-290,-1730,250110,-1.17318,-2.22091,78.4562,-691,-5,102,78.4562,-171,2100
3254909,-123.883,-48.9133,76.6633,-330,-1770,250020,2.07934,1.20561,78.2613,-680,0,104,78.2613,-169,2095
3254919,-123.928,-48.9241,76.6473,-320,-1750,249910,-2.75487,-0.467863,78.2786,-658,13,106,78.2786,-172,2083
3254953,-123.989,-48.909,76.6709,-430,-1730,249620,-0.0467293,1.63302,78.2544,-631,27,110,78.2544,-171,2068
3254964,-123.979,-48.9357,76.6869,-490,-1740,249510,0.734395,1.24247,78.3469,-632,27,112,78.3469,-174,2068
3254969,-123.945,-48.8859,76.7002,-480,-1730,249410,1.36492,1.99222,78.2175,-626,30,113,78.2175,-170,2066
3254980,-123.964,-48.9097,76.7094,-390,-1700,249300,0.486433,-0.14217,78.2556,-622,31,115,78.2556,-172,2064
3254992,-124.06,-48.9573,76.6763,-420,-1730,249290,0.416,0.905269,78.3316,-624,29,117,78.3316,-171,2066
3255014,-124.112,-49.2323,75.9606,-810,-1640,246150,0.846377,10.1265,78.7717,-47,-57,120,78.7717,-162,2100
3255025,-124.391,-49.4918,76.3694,-810,-1620,247100,-8.94944,2.23637,79.2763,-40,-67,122,79.2763,-183,2100
3255030,-124.214,-49.5388,76.3119,-730,-1600,249940,7.10309,-1.88267,79.2621,-29,-80,123,79.2621,-175,2100
3255041,-124.226,-49.4786,76.3829,-730,-1640,249860,-0.581079,6.1456,79.1658,-57,-114,125,79.1658,-166,2100
3255053,-124.135,-49.7846,76.3336,-710,-1690,249740,1.5949,-5.1591,79.6553,-89,-149,127,79.6553,-179,2100
3255063,-124.006,-49.2566,76.3865,-650,-1770,249640,5.35418,11.6306,78.8105,-124,-185,129,78.8105,-161,2100
3255074,-124.059,-49.1738,76.4753,-620,-1810,249540,8.65799,13.6069,78.6781,-149,-217,131,78.6781,-159,2100
3255085,-124.25,-49.7735,76.3075,-570,-2080,249290,-5.59756,-11.3377,79.6377,-168,-147,133,79.6377,-183,2100
3255096,-124.206,-48.6274,91.1517,640,-1810,248850,-0.431487,24.3798,77.8039,-117,-132,135,77.8039,-146,2100
3255101,-122.499,-45.0656,97.8865,1350,-970,248750,68.2924,142.473,72.1049,-33,180,136,72.1049,-30,1981
3255113,-122.157,-43.3327,126.665,1060,-700,248820,-53.1856,-13.1985,69.3324,-4,223,138,69.3324,-169,1870.75
3255124,-125.684,-40.4108,184.137,-210,-980,249060,-74.7594,44.8431,64.6573,82,518,140,64.6573,-105,1600
3255136,-132.796,-41.0031,273.255,-1200,-270,249030,-111.523,17.5603,65.605,174,505,142,65.605,-129,1600
3255147,-133.772,-41.2691,360.793,-1470,940,248510,-8.30559,-21.1434,66.0305,272,566,144,66.0305,-179,1600
3255153,-133.328,-41.9237,411.519,-1490,2140,248030,14.8101,-21.8195,67.0778,379,524,145,67.0778,-183,1600
3255177,-120.793,-50.6495,596.522,-100,880,245810,131.811,-161.163,81.0392,564,432,148,81.0392,-351,1600
3255183,-114.72,-54.0448,639.333,350,-740,245070,202.451,-113.176,86.4716,658,352,149,86.4716,-321,1635.86
3255195,-102.428,-63.5334,716.202,1020,-1720,244830,204.928,-160.453,101.653,749,279,151,101.653,-385,1648.25
3255207,-91.2417,-71.3826,779.655,1430,-2260,245060,188.514,-111.464,114.212,813,243,153,114.212,-347,1634.42
3255219,-81.8304,-77.2789,836.384,1560,-2300,245580,116.418,-82.9589,119.664,872,165,155,119.664,-357,1680.82
3255225,-77.8094,-79.4909,861.016,1210,-2130,245690,134.031,-73.7322,127.185,935,79,156,127.185,-313,1732.57
3255249,-65.6639,-86.1738,934.534,1600,-2340,243940,136.61,-50.2016,137.878,1029,12,159,137.878,-303,1738.38
3255255,-63.1201,-86.8107,949.133,1940,-2120,242690,84.7929,-21.23,138.897,1065,-34,160,138.897,-266,1771.18
3255279,-54.1214,-87.2516,986.416,1710,-1390,239900,58.9074,-15.9557,139.603,1155,-96,163,139.603,-256,1804.7
3255290,-53.1331,-87.4362,994.687,1340,-1320,238420,-5.10066,-27.155,139.898,1178,-123,165,139.898,-248,1824.87
3255296,-54.1195,-86.939,997.753,710,-1020,237180,-32.8787,16.5762,139.102,1187,-144,166,139.102,-195,1843.3
3255307,-58.2808,-87.7518,999.955,-90,-820,236260,-80.9436,-4.59031,140.403,1197,-147,168,140.403,-197,1846.49
3255319,-64.336,-87.7617,1001.26,-770,-490,235770,-107.744,2.80049,140.419,1223,-138,170,140.419,-177,1834.35
3255331,-69.8775,-87.9471,1002.04,-1270,-240,235600,-80.7745,-20.4459,139.734,1242,-140,172,139.734,-165,1835.77
3255336,-71.8231,-87.5454,1001.09,-1220,-280,235550,-77.8263,16.0668,140.073,1264,-140,173,140.073,-172,1837.25
3255348,-73.8551,-87.706,998.472,-760,-430,235600,-20.5812,-3.28672,140.33,1274,-139,175,140.33,-209,1838.25
3255371,-72.4629,-86.5094,988.088,260,-910,235880,25.4241,25.9968,138.415,1274,-140,178,138.415,-197,1845.39
3255382,-72.4051,-84.4584,982.736,820,-820,236090,-10.2547,39.9755,135.133,1270,-146,180,135.133,-169,1857.65
3255392,-72.7848,-83.1962,977.18,850,-660,236290,-28.3363,30.3027,133.114,1271,-149,182,133.114,-169,1865.11
3255397,-74.3808,-82.425,974.432,480,-400,236430,-63.8416,30.8488,131.88,1255,-153,183,131.88,-156,1870.36
3255409,-79.8085,-80.6283,967.817,100,-140,236550,-108.741,32.3356,129.005,1241,-152,185,129.005,-136,1875.74
3255421,-86.9829,-80.6495,961.816,-550,-100,236700,-127.645,0.623789,129.039,1241,-147,187,129.039,-158,1875.62
3255432,-93.8888,-80.3075,956.22,-1220,-130,236770,-101.956,4.20701,128.492,1228,-149,189,128.492,-162,1882.2
3255443,-99.7676,-81.1552,950.797,-1360,-410,236810,-90.0396,-2.68559,129.848,1214,-132,191,129.848,-172,1869.64
3255449,-102.219,-81.9757,948.39,-1250,-640,236820,-81.7128,-27.3497,131.161,1210,-123,192,131.161,-199,1862.59
3255473,-106.142,-80.4569,938.866,-310,-960,236770,-22.4277,44.5884,128.731,1198,-135,195,128.731,-149,1882.36
3255479,-106.721,-80.2352,935.749,-90,-760,236730,-19.2896,7.39044,128.376,1190,-126,196,128.376,-184,1876.97
3255490,-107.624,-77.5548,930.656,310,-540,236760,-31.9739,41.84,124.088,1180,-125,198,124.088,-143,1879.15
3255525,-119.576,-67.2476,915.537,-450,570,237160,-111.585,56.4971,110.308,1185,-113,203,110.308,-110,1879.36
3255530,-120.512,-66.5817,912.691,-920,540,237240,-37.4264,26.6353,106.531,1189,-112,204,106.531,-138,1880.96
3255542,-123.202,-65.2335,906.484,-710,110,237270,-36.4357,31.8405,104.374,1194,-108,206,104.374,-132,1882.05
3255553,-123.152,-65.2134,899.733,-310,-110,237280,14.009,6.43213,104.342,1203,-101,208,104.342,-172,1880.57
3255575,-117.548,-64.7274,883.664,820,-470,237070,69.1042,-6.7424,103.564,1208,-91,211,103.564,-204,1883.66
3255581,-115.803,-65.2251,878.395,1100,-690,236800,58.1501,-16.5918,104.36,1226,-63,212,104.36,-210,1860.95
3255593,-113.077,-66.054,868.981,950,-720,236400,41.588,-26.9954,105.686,1221,-51,214,105.686,-215,1855.48
3255615,-114.399,-68.9229,852.75,160,-700,236010,-34.2461,-14.8511,110.277,1199,-52,217,110.277,-177,1868.51
3255626,-117.132,-69.5044,843.773,-410,-610,236040,-51.8548,4.26842,111.207,1200,-59,219,111.207,-153,1882.76
3255637,-119.721,-70.5419,833.641,-530,-340,236220,-38.6744,-15.8153,112.234,1192,-69,221,112.234,-177,1897.58
3255643,-120.139,-69.7394,827.911,-560,-260,236480,-13.9353,26.7493,111.583,1177,-60,222,111.583,-147,1897.84
3255667,-115.153,-66.2738,804.851,480,-180,237020,81.1832,26.2377,106.038,1135,-38,225,106.038,-180,1892.58
3255673,-113.346,-63.9469,800.383,1110,-270,237340,60.2169,77.5629,102.315,1124,-31,226,102.315,-121,1892.33
3255685,-107.556,-60.7436,791.25,1770,-200,237700,96.0998,51.5949,97.1898,1102,-21,228,97.1898,-154,1888.78
3255707,-99.2284,-55.7643,781.336,2530,40,237940,48.65,28.3779,89.2229,1117,32,231,89.2229,-153,1843.79
3255719,-98.6045,-55.8428,779.646,1690,10,237780,27.1216,-3.914,89.1606,1118,31,233,89.1606,-159,1845.05
3255725,-99.0603,-57.2872,778.693,1100,-310,237460,-15.1937,-48.1475,91.6595,1111,27,234,91.6595,-204,1850.75
3255736,-102.241,-60.289,776.534,380,-630,237170,-72.2001,-59.4766,96.4625,1131,39,236,96.4625,-195,1842.41
3255758,-106.559,-67.3574,769.677,-360,-1170,236860,-30.3362,-45.5909,107.772,1146,43,239,107.772,-207,1841.67
3255769,-107.354,-69.5874,764.465,80,-980,236700,-14.4484,-58.0558,111.34,1150,55,241,111.34,-226,1833.72
3255775,-106.865,-69.132,762.166,450,-1030,236600,16.3012,15.1795,110.611,1160,64,242,110.611,-170,1827.41
3255786,-106.135,-69.1733,757.663,900,-810,236570,18.1832,4.6193,110.677,1172,78,244,110.677,-180,1816.83
3255810,-108.885,-65.783,745.709,930,-540,236180,-25.1306,40.0227,105.253,1197,89,247,105.253,-124,1814.99
3255816,-110.202,-64.7702,742.076,800,-50,235930,-43.9059,33.7576,103.632,1202,88,248,103.632,-120,1817.67
3255827,-114.216,-63.2005,734.695,630,300,235860,-104.235,26.0234,101.121,1169,70,250,101.121,-99,1840.44
3255838,-118.235,-62.7559,726.797,80,470,235850,-74.6325,-9.04074,100.409,1155,83,252,100.409,-141,1834.66
3255871,-127.678,-69.7614,704.105,-180,-850,235920,-14.6998,-54.3992,111.618,1163,105,256,111.618,-217,1830.39
3255882,-129.704,-72.9178,696.767,30,-1340,236020,-29.1846,-36.8307,116.669,1160,111,258,116.669,-197,1829.11
3255888,-130.878,-74.5751,693.219,40,-1400,236140,-39.1203,-55.241,119.32,1158,113,259,119.32,-212,1831.8
3255899,-134.469,-74.7415,685.965,-360,-1010,236220,-66.1973,29.9864,119.586,1151,108,261,119.586,-124,1841.5
3255910,-138.495,-72.4851,678.584,-420,-240,236280,-70.8539,65.7903,115.976,1147,119,263,115.976,-85,1836.32
3255921,-141.947,-69.0805,671.346,-50,330,236310,-52.6701,55.5441,110.529,1135,122,265,110.529,-96,1840.02
3255931,-144.125,-64.3188,665.588,320,800,236330,-22.7259,96.4887,102.91,1135,123,267,102.91,-64,1841.52
3255943,-145.861,-60.341,658.882,780,1150,236360,-14.6796,60.7561,96.5456,1141,138,269,96.5456,-93,1833.79
3255954,-146.971,-59.8133,653.848,1070,820,236340,-23.5449,-9.92894,95.7012,1139,148,271,95.7012,-153,1826.66
3255960,-147.401,-60.0106,651.117,720,250,236200,-14.3638,-6.5789,96.017,1138,157,272,96.017,-154,1819.66
3255970,-150.04,-63.4185,647.793,120,-160,236020,-50.8324,-60.4528,101.47,1130,152,274,101.47,-191,1827.17
3255981,-153.34,-67.5394,643.871,-160,-510,235860,-83.271,-73.4561,108.063,1109,164,276,108.063,-194,1819.14
3256003,-162.052,-76.5285,640.943,-1480,-990,235590,-93.0474,-73.8467,122.446,1089,154,279,122.446,-199,1830.16
3256015,-164.5,-78.5491,640.684,-980,-930,235490,-45.4488,-10.3455,125.182,1094,169,281,125.182,-209,1816.17
3256021,-164.942,-78.4558,640.778,-280,-650,235440,-14.737,3.10938,125.529,1100,161,282,125.529,-164,1821.94
3256032,-166.08,-76.244,639.872,430,-320,235340,8.42251,60.0019,121.99,1097,154,284,121.99,-120,1831.51
3256044,-168.856,-72.2215,639.037,1330,180,235070,-63.5098,75.1468,115.554,1093,150,286,115.554,-67,1833.06
3256055,-172.46,-69.8747,637.466,1170,620,234700,-73.1673,24.6192,111.799,1106,150,288,111.799,-102,1836.21
3256061,-176.104,-68.9154,636.97,310,750,234380,-121.465,31.9766,110.265,1114,151,289,110.265,-70,1835.51
3256073,-186.201,-69.6299,636.087,-1060,950,234160,-174.575,-26.6807,111.408,1120,143,291,111.408,-94,1844.13
3256085,-193.2,-74.0633,635.655,-1880,340,234210,-123.313,-76.0644,118.501,1120,143,293,118.501,-167,1844.42
3256096,-197.432,-78.5818,635.066,-1830,-210,234470,-49.4325,-82.8636,125.731,1124,137,295,125.731,-213,1850.85
3256107,-198.104,-81.9686,634.816,-940,-810,234860,1.53986,-49.4898,129.17,1120,138,297,129.17,-218,1850.18
3256113,-196.911,-83.5999,634.973,110,-980,235300,39.7951,-54.379,133.76,1116,140,298,133.76,-237,1847.86
3256125,-194.178,-85.2826,636.415,600,-1240,235750,65.2549,1.51612,136.452,1126,147,300,136.452,-204,1840.64
3256135,-192.358,-85.0827,638.53,1050,-910,236110,39.4006,5.6076,136.132,1122,141,302,136.132,-189,1844.88
3256146,-193.003,-85.5095,641.629,1080,-670,236370,4.51442,4.18734,136.815,1116,149,304,136.815,-177,1831.3
3256158,-196.433,-85.313,646.933,650,-250,236390,-48.5023,-9.64586,136.501,1104,136,306,136.501,-165,1841.96
3256163,-198.294,-85.5028,648.501,0,90,236190,-74.4489,-7.59014,136.804,1101,136,307,136.804,-152,1841.64
3256175,-205.296,-86.4951,655.203,-650,250,235840,-107.442,-27.5071,138.392,1112,135,309,138.392,-153,1835.18
3256185,-211.242,-88.1196,660.563,-1540,90,235380,-138.975,-41.4991,140.991,1121,122,311,140.991,-152,1843.8
3256195,-214.552,-90.1506,665.245,-1760,-350,235020,-83.8097,-27.3192,144.241,1113,108,313,144.241,-163,1855.03
3256207,-216.849,-91.4316,670.341,-1630,-320,234820,-15.1506,-16.9215,146.291,1126,101,315,146.291,-184,1856.96
3256218,-215.246,-90.7877,674.202,-830,-320,234840,41.4968,17.4191,145.26,1126,94,317,145.26,-179,1861.9
3256229,-210.605,-88.8987,678.295,320,-250,234940,100.232,28.5108,142.238,1120,101,319,142.238,-196,1852.63
3256235,-208.434,-87.6458,680.514,1190,-420,235060,72.3434,41.7633,140.233,1119,101,320,140.233,-171,1848.83
3256246,-203.636,-86.1836,685.665,1270,-480,235190,62.0076,24.9971,137.894,1123,97,322,137.894,-178,1849.68
3256257,-202.514,-86.4979,690.447,530,-210,235460,39.2946,-7.40708,138.397,1113,93,324,138.397,-197,1849.83
3256280,-203.592,-91.2149,701.951,80,-460,235960,-7.93298,-62.1754,145.944,1116,96,327,145.944,-232,1837.47
3256286,-204.978,-92.0987,705.175,-380,-520,236170,-46.2173,-29.4608,147.358,1123,89,328,147.358,-189,1842.82
3256297,-207.51,-95.068,710.481,-790,-570,236430,-59.6471,-35.6095,152.109,1139,73,330,152.109,-191,1852.53
3256320,-209.265,-97.526,715.148,-600,-540,236790,16.9377,-0.49176,156.042,1148,57,334,156.042,-200,1864.89
3256331,-208.47,-97.2162,715.681,-160,-610,236900,26.3578,3.79031,155.698,1145,54,336,155.698,-186,1866.7
3256337,-207.063,-96.2435,715.385,110,-510,236970,46.8978,32.4223,153.99,1144,43,337,153.99,-183,1877.85
3256361,-202.397,-91.5109,712.811,940,-210,237190,27.7866,47.4847,146.417,1164,53,340,146.417,-155,1872.12
3256372,-200.812,-90.2524,711.108,980,-230,237490,14.9244,27.6517,144.404,1161,41,342,144.404,-166,1885.6
3256378,-200.792,-89.9454,709.334,630,-420,238130,0.668937,10.2323,143.913,1160,41,343,143.913,-175,1887.18
3256389,-200.958,-89.8783,705.637,360,-480,238920,-4.88649,0.176171,143.805,1160,51,345,143.805,-184,1880.29
3256401,-203.028,-89.7109,701.839,140,-530,239570,-43.6344,4.63023,143.537,1171,54,347,143.537,-166,1880.43
3256413,-204.294,-89.3642,697.067,-410,-510,239960,-51.6771,0.135394,142.989,1171,44,349,142.989,-183,1893.21
3256423,-205.472,-88.2886,692.962,-800,-670,240160,-35.6215,37.4748,142.761,1168,36,351,142.761,-180,1903
3256429,-205.731,-87.6653,689.566,-740,-660,240270,-8.64718,20.7792,140.264,1167,47,352,140.264,-165,1899.87
3256440,-205.212,-84.2073,684.304,180,-360,240290,7.6368,69.7102,134.732,1161,47,354,134.732,-122,1903.3
3256451,-203.577,-78.8384,678.377,1220,70,240280,35.8364,96.4765,126.141,1152,61,356,126.141,-101,1894.25
3256462,-202.657,-73.9548,674.673,1410,310,240160,8.35269,76.9778,118.328,1143,74,358,118.328,-100,1883.38
3256473,-204.163,-69.3387,673.229,1390,490,240030,-41.6337,59.3151,110.942,1155,85,360,110.942,-90,1873.63
3256484,-207.177,-66.651,672.454,1040,660,239830,-58.068,35.4531,106.642,1160,90,362,106.642,-99,1869.33
3256495,-211.983,-66.4088,672.216,520,570,239520,-87.0952,-8.60005,105.841,1150,97,364,105.841,-100,1862.41
3256505,-216.687,-68.1494,672.763,150,390,239230,-119.422,-61.4826,106.58,1137,86,366,106.58,-131,1872.73
3256511,-218.67,-69.8564,672.48,-510,-20,238910,-66.0996,-56.8983,111.77,1142,70,367,111.77,-181,1887.5
3256521,-222.709,-73.9635,671.662,-650,-590,238620,-86.6605,-83.8928,118.342,1129,64,369,118.342,-199,1896.34
3256533,-226.257,-78.6884,669.892,-940,-1120,238480,-48.1487,-88.2831,125.901,1142,81,371,125.901,-225,1882.93
3256544,-228.539,-81.0632,670.47,-860,-1160,238410,-31.5764,-36.1727,129.701,1149,82,373,129.701,-185,1880.56
3256555,-228.9,-81.8062,669.81,-550,-970,238380,1.42048,-11.6748,130.89,1157,79,375,130.89,-179,1882.2
3256566,-228.812,-78.7595,669.443,-120,-470,238380,15.3908,61.8485,126.015,1162,90,377,126.015,-115,1872.61
3256571,-228.375,-77.6294,669.584,590,-90,238370,17.4838,45.2048,124.207,1158,92,378,124.207,-129,1870.57
3256583,-228.151,-74.5297,669.812,780,0,238230,21.7302,35.8428,119.248,1154,118,380,119.248,-134,1844.38
3256595,-229.215,-71.4593,673.38,610,200,237990,-12.2793,22.8515,114.335,1149,116,382,114.335,-126,1842.44
3256607,-231.769,-70.0368,677.71,-80,30,237750,-49.1632,18.448,112.944,1136,100,384,112.944,-107,1856.57
3256612,-233.059,-69.225,679.163,-430,0,237490,-51.5902,32.4726,110.76,1138,93,385,110.76,-94,1861.79
3256622,-234.447,-68.6276,681.016,-520,-180,237280,-26.6664,16.0052,109.804,1140,95,387,109.804,-118,1857.31
3256633,-234.687,-66.9851,683.408,-270,-260,237200,5.45335,38.3925,107.176,1136,82,389,107.176,-108,1869.42
3256645,-233.962,-64.4013,684.813,210,-40,237140,24.9148,58.4719,103.042,1122,75,391,103.042,-96,1874.36
3256667,-230.956,-57.7769,687.331,860,750,237180,4.83147,43.2235,92.4431,1094,79,394,92.4431,-90,1869.53
3256678,-229.248,-55.9826,690.683,720,680,237250,21.9591,27.4586,89.5721,1075,81,396,89.5721,-110,1865.9
3256684,-228.876,-56.1665,693.139,360,370,237380,12.3853,-6.13052,89.8664,1070,76,397,89.8664,-136,1867.97
3256695,-227.968,-58.3909,698.314,-410,-130,237630,21.2393,-52.9701,93.4255,1074,71,399,93.4255,-185,1868.87
3256707,-225.465,-60.7759,703.918,-660,-620,237970,64.9939,-47.1892,97.2414,1090,72,401,97.2414,-205,1862.42
3256719,-221.431,-63.1413,709.236,-200,-1150,238290,69.4934,-29.3923,99.6153,1100,72,403,99.6153,-210,1861.59
3256725,-217.991,-63.3135,711.224,180,-1260,238580,114.683,-5.73839,101.302,1110,63,404,101.302,-197,1866.62
3256736,-212.094,-61.3112,713.966,1020,-910,238770,111.373,28.9592,98.0979,1104,57,406,98.0979,-163,1869.47
3256758,-201.376,-52.7595,718.338,1910,-440,238790,90.1331,98.5946,84.4152,1106,67,409,84.4152,-81,1858.04
3256769,-198.353,-49.0616,720.594,1470,100,238720,54.7475,57.3616,78.4985,1103,55,411,78.4985,-97,1867.25
3256780,-196.493,-47.0144,722.45,770,430,238650,21.2218,28.7053,75.223,1101,60,413,75.223,-105,1860.78
3256786,-195.161,-46.3777,723.519,400,430,238630,44.3882,21.2249,74.2043,1094,62,414,74.2043,-121,1857.94
3256796,-192.596,-46.7045,725.455,490,140,238660,62.001,-13.702,74.7273,1113,62,416,74.7273,-161,1856.38
3256807,-188.131,-48.6728,726.689,790,-360,238700,82.4927,-41.0043,77.8765,1125,46,418,77.8765,-198,1871.42
3256818,-183.041,-52.2884,725.913,790,-960,238680,84.0075,-65.1328,83.6615,1140,42,420,83.6615,-226,1876.11
3256829,-178.345,-55.4835,722.765,690,-1330,238640,74.7092,-48.8151,88.7736,1151,36,422,88.7736,-213,1884.75
3256851,-172.461,-60.2207,715.56,450,-1000,238430,40.0646,-18.7266,93.8015,1131,44,425,93.8015,-209,1880.81
3256862,-170.587,-60.8774,712.268,530,-710,238150,35.0702,-1.39872,97.3478,1141,48,427,97.3478,-179,1879.29
3256868,-170.232,-60.4881,710.258,550,-390,237670,11.848,12.9759,96.7809,1132,44,428,96.7809,-136,1887.25
3256891,-167.009,-60.7168,701.122,640,-20,236400,28.4315,5.63485,97.1469,1107,42,431,97.1469,-148,1895.85
3256903,-166.097,-62.8502,696.78,570,-60,235750,22.7939,-50.4123,98.1405,1083,34,433,98.1405,-161,1906.77
3256909,-165.222,-63.5664,695.06,250,-190,235120,29.1748,-23.8728,101.706,1082,47,434,101.706,-175,1897.12
3256920,-163.981,-67.3385,692.963,220,-430,234640,22.381,-73.3195,107.742,1111,59,436,107.742,-217,1888.97
3256931,-162.621,-72.0189,690.322,60,-1160,234230,14.0765,-92.9552,115.23,1113,63,438,115.23,-234,1885.21
3256963,-155.297,-79.512,685.749,-400,-1260,233680,48.1884,-7.80349,127.219,1061,50,442,127.219,-189,1905.44
3256973,-152.445,-78.037,685.907,90,-1010,233640,59.8761,26.1551,124.859,1076,72,444,124.859,-166,1881.47
3256979,-151.899,-76.0846,686.474,460,-730,233630,18.2165,65.0792,121.735,1095,85,445,121.735,-109,1867.06
3256990,-148.317,-70.8094,688.852,870,-440,233520,64.2006,75.5943,113.295,1096,83,447,113.295,-117,1867.19
3257002,-146.093,-64.4832,690.945,1160,-230,233410,24.6865,100.51,103.173,1119,78,449,103.173,-67,1870.54
3257013,-145.205,-58.109,691.456,1120,450,233370,38.9724,116.371,92.9744,1128,72,451,92.9744,-53,1876.2
3257023,-145.012,-52.8855,691.345,1040,940,233440,38.8787,122.572,84.6169,1126,70,453,84.6169,-40,1878.36
3257035,-144.572,-49.2193,691.472,1020,900,233480,1.47023,55.7716,81.428,1119,71,455,81.428,-70,1877.53
3257040,-144.311,-48.1167,692.232,660,530,233440,10.4522,44.1048,76.9867,1115,66,456,76.9867,-84,1880.81
3257051,-143.244,-47.2104,693.244,310,0,233320,33.1765,5.48325,75.5367,1117,57,458,75.5367,-127,1890.13
3257062,-141.174,-47.7949,693.388,150,-570,233210,9.02243,-21.923,76.4719,1128,58,460,76.4719,-140,1890.16
3257095,-128.124,-40.4329,691.503,1200,-180,232650,71.1561,89.1255,64.6927,1162,82,464,64.6927,-73,1866.88
3257106,-124.867,-36.0509,691.64,1630,830,232590,58.5143,86.3298,57.6814,1161,94,466,57.6814,-62,1854.75
3257112,-123.425,-34.4687,692.716,1230,930,232600,48.0609,52.7406,55.1499,1147,84,467,55.1499,-82,1863.89
3257123,-120.973,-33.6965,694.502,560,350,232460,59.361,-5.38458,53.9143,1146,87,469,53.9143,-136,1859.46
3257147,-114.669,-37.9127,700.44,-500,-1220,232070,50.7024,-39.6989,60.6603,1168,98,472,60.6603,-166,1844.62
3257158,-111.452,-37.8838,702.561,-360,-1040,232010,42.4081,4.96238,60.8523,1189,95,474,60.8523,-153,1844.49
3257164,-108.072,-35.6041,703.872,-30,-500,231970,112.675,75.9894,56.9666,1199,92,475,56.9666,-106,1846.7
3257174,-103.769,-30.6323,704.786,1140,280,232020,93.8505,107.33,49.0117,1201,87,477,49.0117,-63,1850.9
3257186,-98.2744,-23.6446,705.285,1990,690,232120,85.6197,123.533,37.8313,1194,85,479,37.8313,-36,1852.45
3257207,-91.2338,-19.6737,707.184,2140,270,232330,24.845,-38.868,31.478,1221,107,482,31.478,-126,1827.72
3257218,-88.9605,-23.06,709.309,720,-680,232440,37.5259,-76.6667,36.896,1246,100,484,36.896,-171,1833.87
3257224,-88.6859,-26.0932,709.619,-640,-1500,232660,9.1524,-101.108,41.7491,1258,83,485,41.7491,-179,1848.52
3257235,-88.8248,-31.4673,707.872,-1470,-1730,232990,10.4546,-94.6922,50.3477,1266,85,487,50.3477,-183,1848.86
3257246,-89.0825,-33.0867,705.264,-1550,-1370,233600,11.9845,9.44131,52.9387,1270,79,489,52.9387,-102,1857.92
3257258,-89.1341,-29.0498,701.458,-360,-480,234410,-12.3236,87.9224,46.4797,1266,73,491,46.4797,-20,1866.96
3257289,-83.0802,-4.06087,692.221,1620,2370,237420,32.7452,116.989,6.49739,1223,45,495,6.49739,16,1902.71
3257300,-81.2571,-0.852888,689.572,1540,1910,238390,54.2299,27.9347,1.36462,1231,55,497,1.36462,-65,1895.01
3257311,-80.2742,-2.56632,687.062,1150,1040,238970,19.4502,-44.5334,4.10612,1240,58,499,4.10612,-113,1895.18
3257321,-79.8955,-7.72297,685.345,990,200,239270,-6.63157,-114.531,7.77552,1242,69,501,7.77552,-160,1883.97
3257327,-79.8918,-11.8807,685.471,420,-750,239330,0.121746,-138.591,19.0091,1259,90,502,19.0091,-203,1863.66
3257339,-82.0565,-23.0567,686.34,-580,-1950,239290,-61.4194,-190.669,36.8907,1284,77,504,36.8907,-236,1873.99
3257350,-85.7078,-32.6424,685.479,-1800,-2420,239360,-78.0236,-172.079,52.2279,1283,51,506,52.2279,-227,1901.82
3257361,-89.3421,-38.0482,683.52,-2240,-2220,239410,-60.8247,-55.5126,60.8772,1272,62,508,60.8772,-140,1894.58
3257372,-91.1352,-36.7786,684.077,-1250,-520,239430,-4.53723,45.8482,60.6797,1262,72,510,60.6797,-90,1885.9
3257378,-91.6417,-34.2404,685.143,50,430,239460,-16.8825,84.6055,54.7847,1244,67,511,54.7847,-34,1887.52
3257388,-91.7052,-29.177,687.402,720,1230,239480,-4.97466,92.8141,46.6833,1241,70,513,46.6833,-25,1882.85
3257399,-90.4549,-25.0859,690.722,1150,1120,239480,-2.82375,63.2313,40.1375,1261,83,515,40.1375,-46,1867.23
3257410,-89.1694,-25.3791,695.629,670,190,239460,40.0189,-5.19149,40.6066,1270,84,517,40.6066,-128,1862.31
3257421,-87.9815,-29.2249,700.267,240,-1050,239350,23.5618,-83.2172,46.7599,1271,70,519,46.7599,-195,1872.63
3257433,-88.4206,-34.3356,703.851,-610,-2120,239170,-22.0717,-77.1621,54.9369,1275,55,521,54.9369,-172,1882.84
3257439,-87.9968,-36.0893,705.336,-850,-2100,238980,14.1276,-58.4587,57.743,1288,42,522,57.743,-176,1894.79
3257450,-88.7735,-35.6152,706.086,-330,-1250,238840,-19.4861,22.017,56.9842,1266,31,524,56.9842,-89,1907.39
3257460,-90.0515,-31.987,706.823,30,210,238690,-25.3808,96.9937,51.1792,1273,56,526,51.1792,-15,1883.97
3257471,-90.825,-26.0484,710.156,220,1620,238550,-7.58136,101.556,41.6774,1292,79,528,41.6774,-10,1858.32
3257482,-91.9487,-22.3301,715.536,380,1840,238360,-10.1778,49.2562,35.7281,1298,72,530,35.7281,-47,1857.97
3257504,-88.7111,-28.1988,724.509,510,-270,237810,41.1837,-114.028,45.1181,1319,80,533,45.1181,-223,1843.68
3257510,-87.351,-32.1558,726.985,420,-1280,237400,45.336,-131.898,51.4492,1313,62,534,51.4492,-246,1858.63
3257522,-86.416,-41.5377,731.592,170,-2010,236870,-9.64534,-158.531,66.4603,1322,48,536,66.4603,-251,1869.97
3257545,-87.4647,-55.5419,734.786,-660,-1590,235300,-38.0736,-82.1909,88.867,1360,35,539,88.867,-183,1879.51
3257551,-89.3604,-57.2935,734.436,-900,-690,234590,-63.1919,-58.3869,91.6695,1371,36,540,91.6695,-150,1880.88
3257562,-91.0983,-59.1454,733.922,-750,-310,233990,-42.7915,-25.8695,94.6327,1379,39,542,94.6327,-133,1876.36
3257573,-92.3347,-58.5637,734.075,-430,90,233470,-14.3367,11.8862,93.7019,1396,38,544,93.7019,-116,1878.31
3257596,-89.195,-55.8514,731.181,850,110,232950,53.3957,23.2202,89.3623,1412,37,547,89.3623,-143,1881.8
3257607,-86.2589,-55.4147,730.31,680,-280,232950,54.7899,4.34167,88.6635,1417,39,549,88.6635,-159,1879.57
3257613,-85.0432,-55.8603,729.713,490,-600,233100,40.5239,-14.8544,89.3765,1401,28,550,89.3765,-167,1891.17
3257624,-82.9719,-57.0015,727.896,10,-910,233390,32.0166,-20.0877,91.2024,1381,18,552,91.2024,-167,1903.79
3257647,-80.8013,-54.9998,727.178,-170,-380,234030,5.56746,44.5843,87.9997,1362,32,555,87.9997,-99,1891.71
3257657,-79.9274,-51.9031,728.623,0,380,234080,36.0533,57.4015,84.8819,1360,52,557,84.8819,-80,1871.25
3257663,-78.9299,-49.8609,730.77,230,650,233960,33.2497,68.075,79.7774,1344,54,558,79.7774,-91,1865.93
3257675,-76.062,-46.5169,735.777,390,440,233670,61.9307,53.5256,74.427,1339,54,560,74.427,-116,1859.9
3257687,-70.6415,-44.3755,741.761,890,10,233390,95.2387,29.8242,71.0008,1320,56,562,71.0008,-153,1855.1
3257698,-64.8093,-43.2791,748.287,1250,-470,233090,107.102,16.8539,69.2466,1311,59,564,69.2466,-170,1846.81
3257704,-62.715,-43.2012,753.644,1040,-880,232820,69.8108,2.59612,69.122,1317,69,565,69.122,-159,1833.4
3257716,-57.321,-43.2403,762.892,580,-1430,232520,68.077,3.09457,69.1845,1312,54,567,69.1845,-158,1839.85
3257739,-54.5418,-39.5837,780.244,30,-720,232170,-8.36466,68.1558,63.3339,1316,38,570,63.3339,-55,1841.79
3257749,-55.208,-35.1837,787.434,40,40,232110,-26.2871,100.502,56.2938,1336,33,572,56.2938,-12,1837.91
3257760,-56.3496,-29.4382,794.051,100,640,232210,6.61747,135.575,52.5241,1341,9,574,52.5241,-15,1860.74
3257766,-57.1742,-26.0393,795.738,360,860,232520,-27.4857,113.296,41.6629,1366,10,575,41.6629,11,1857.19
3257777,-58.105,-20.0806,798.524,510,1050,232950,-14.1601,108.107,32.129,1374,5,577,32.129,7,1860.95
3257787,-59.0438,-15.9644,799.29,710,1380,233270,-31.7244,65.0322,25.543,1392,11,579,25.543,-9,1853.29
3257799,-57.4446,-11.4201,800.391,800,1360,233440,25.5628,49.9024,18.2722,1405,12,581,18.2722,-50,1851.35
3257831,-49.5262,-14.4321,794.128,190,-420,233030,62.4128,-35.7945,23.0914,1453,6,585,23.0914,-146,1862.24
3257841,-46.2917,-15.4934,788.962,120,-760,232980,49.9032,-31.9243,24.7894,1464,3,587,24.7894,-138,1869.39
3257847,-44.7426,-16.0659,785.451,110,-500,233200,51.6337,-19.0845,25.7054,1454,8,588,25.7054,-131,1868.22
3257859,-42.6467,-16.4686,778.692,490,-300,233680,23.7949,-1.88066,26.3497,1444,30,590,26.3497,-102,1852.62
3257871,-40.393,-16.6005,774.876,600,-240,234220,49.6481,7.54776,26.5608,1452,35,592,26.5608,-112,1848.59
3257883,-40.5149,-18.057,771.701,1160,-10,234460,-14.6655,-47.8714,26.5933,1452,33,594,26.5933,-96,1851.75
3257889,-38.523,-13.5037,769.761,1240,520,234810,66.3963,151.776,21.6059,1467,98,595,21.6059,-4,1792.42
3257900,-35.5876,12.1338,771.84,2140,2270,234870,59.0814,556.371,-19.414,1487,196,597,-19.414,366,1689.14
3257910,-29.5642,55.8741,782.564,4980,6150,235490,147.294,971.094,-89.3986,1525,314,599,-89.3986,622,1600
3257933,-9.013,204.313,820.353,14260,13400,236400,197.085,1143.23,-326.901,1552,96,602,-326.901,588,1740.79
3257939,-4.76435,226.772,820.788,14240,12900,235560,141.622,748.637,-362.835,1544,52,603,-362.835,615,1788.01
3257951,-2.06603,235.717,817.514,12420,12050,234430,11.8961,-63.8637,-377.148,1524,37,605,-377.148,260,1807.35
3257963,-6.09234,197.189,812.589,7150,8020,233170,-89.9151,-824.317,-315.503,1538,57,606,-315.503,-311,1791.98
3257969,-9.30325,162.958,809.942,-1590,-730,232800,-107.03,-1141.03,-260.733,1580,66,607,-260.733,-595,1780.73
3257981,-15.4426,78.4466,804.412,-7860,-6720,233940,-100.938,-1449.52,-125.515,1613,50,609,-125.515,-614,1804.85
3258004,-16.8973,-53.9624,789.002,-8210,-8630,235250,45.8523,-785.799,86.3399,1627,26,613,86.3399,-720,1839.75
3258015,-11.4689,-80.4914,779.988,-6390,-8880,235480,109.062,-370.119,128.786,1614,15,615,128.786,-518,1857.93
3258021,-8.3031,-82.955,775.612,-2620,-6210,235550,105.526,-82.1209,132.728,1618,39,616,132.728,-296,1837.38
3258032,-2.35694,-71.7066,769.314,1810,-1060,236000,97.8171,288.922,114.731,1618,41,618,114.731,19,1840.33
3258043,1.33691,-48.1756,764.456,4550,2400,236910,39.2638,459.509,77.0809,1612,39,620,77.0809,225,1845.14
3258054,1.90082,-26.2697,760.276,5370,4540,237880,-1.42777,367.781,42.0316,1593,28,622,42.0316,211,1859.48
3258065,-1.64593,-16.249,756.584,4310,4140,238400,-92.6807,115.014,25.9984,1590,31,624,25.9984,76,1860.46
3258071,-3.32198,-16.0453,755.406,1540,2190,238450,-55.8682,6.79082,25.6724,1582,34,625,25.6724,-34,1857.4
3258083,-9.28472,-27.367,753.004,-160,-100,238330,-107.063,-235.354,43.7871,1584,35,627,43.7871,-222,1859.33
3258094,-13.687,-45.3799,752.155,-1900,-2350,237980,-87.7555,-328.879,72.6079,1583,33,629,72.6079,-339,1862.05
3258116,-17.2601,-74.7719,751.554,-2880,-3710,236410,-0.477532,-172.032,119.635,1559,40,632,119.635,-303,1857.61
3258128,-15.8418,-76.9352,754.883,-1630,-2610,235350,25.4127,1.62062,123.174,1568,52,634,123.174,-245,1841.53
3258134,-14.7037,-75.0564,757.213,-180,-1160,234390,37.9358,62.6247,120.09,1580,48,635,120.09,-140,1843.95
3258144,-10.2049,-67.756,760.995,1540,180,233680,90.04,145.568,108.41,1598,49,637,108.41,-98,1838.84
3258154,-5.63549,-59.5781,764.334,2420,950,233380,101.892,153.803,95.325,1600,31,639,95.325,-90,1851.1
3258178,6.74061,-54.4006,767.949,2190,90,232970,92.9093,-23.5972,86.2956,1608,6,642,86.2956,-156,1875.14
3258188,10.8808,-59.3131,767.166,1430,-1040,232860,91.53,-88.3573,94.901,1617,4,644,94.901,-275,1880.05
3258199,14.2885,-68.8384,766.243,510,-2390,232900,22.6459,-197.911,110.141,1613,10,646,110.141,-329,1873.89
3258205,15.0224,-73.0673,766.701,-700,-3120,233020,24.4648,-140.964,116.908,1613,16,647,116.908,-293,1868.6
3258216,14.3855,-80.726,768.115,-1570,-2740,233100,-12.2223,-118.505,129.162,1618,19,649,129.162,-261,1863.5
3258250,10.5858,-73.1667,775.938,-70,420,232200,31.5666,138.193,123.7,1625,36,654,123.7,-114,1842.2
3258256,12.1113,-69.5278,777.979,980,540,231840,50.8519,121.295,111.245,1629,32,655,111.245,-104,1841.57
3258268,17.663,-64.3188,782.237,1410,-180,231490,92.742,88.7147,102.91,1618,24,657,102.91,-151,1846.11
3258278,22.6502,-62.7048,785.262,1490,-960,231420,99.765,13.9412,100.328,1602,10,659,100.328,-211,1856.66
3258310,29.6546,-59.7509,788.021,140,-1400,232520,-11.7324,47.354,95.6015,1592,-54,663,95.6015,-111,1920.93
3258316,28.9283,-57.0805,785.828,-560,-240,232960,-24.211,89.0163,91.3287,1581,-3,664,91.3287,-68,1871.92
3258328,27.9822,-30.5921,785.841,-350,1220,233640,-25.2063,537.449,48.9473,1581,88,666,48.9473,310,1780.77
3258340,30.6478,20.415,797.402,2180,4820,234910,69.2014,993.195,-32.6639,1594,198,668,-32.6639,624,1665.81
3258351,38.6442,103.301,819.615,6620,8770,236220,181.862,1715.93,-165.282,1598,309,670,-165.282,571,1600
3258362,53.1657,221.456,851.079,12760,13380,238160,284.234,2237.76,-354.33,1629,275,672,-354.33,515,1600
3258368,61.8829,284.394,866.399,16270,13840,239770,290.574,2097.92,-440,1682,106,673,-440,512,1678.46
3258379,73.4463,372.5,876.53,16910,13180,240460,169.788,1387.2,-440,1695,-3,675,-440,588,1787.82
3258402,64.1211,420.736,863.441,13210,14160,240050,-253.458,-202.919,-440,1615,-72,678,-440,406,1873.26
3258412,46.1143,381.419,855.667,5380,9980,238470,-394.559,-1002.64,-440,1587,-65,680,-440,-156,1872.57
3258424,23.0925,297.508,847.01,-5110,1480,237650,-373.11,-1539.51,-440,1580,-69,682,-440,-408,1880.79
3258430,13.7939,248.019,841.527,-10590,-5350,238220,-309.955,-1649.64,-396.83,1612,-48,683,-396.83,-526,1868.13
3258442,5.58766,158.538,833.773,-11120,-7570,238800,-80.2548,-1427.92,-253.661,1643,-36,685,-253.661,-658,1861.38
3258454,9.92391,96.4907,826.284,-9210,-8590,239060,124.625,-906.401,-154.385,1639,-59,687,-154.385,-669,1889.48
3258460,15.7712,77.7121,821.909,-4980,-8520,238980,194.911,-625.953,-124.339,1623,-77,688,-124.339,-522,1912.23
3258471,28.3359,61.8291,812.842,770,-5210,238800,236.881,-175.383,-98.9266,1615,-69,690,-98.9266,-208,1912.79
3258494,39.946,75.5914,800.03,5910,2670,238970,-10.8849,153.378,-120.946,1612,-32,693,-120.946,223,1886.47
3258505,33.8628,76.6891,797.179,4150,4150,238680,-112.51,-7.27623,-122.703,1621,-29,695,-122.703,158,1884.92
3258511,28.4386,72.2374,795.605,1380,3470,238170,-180.805,-148.391,-115.58,1623,-27,696,-115.58,80,1884.33
3258522,16.4305,54.2159,792.405,-1510,1570,237780,-205.714,-377.949,-86.7455,1624,-35,698,-86.7455,-117,1895.08
3258532,7.8243,32.1293,788.828,-3200,-260,237600,-154.433,-456.598,-51.4069,1620,-26,700,-51.4069,-236,1889.13
3258543,2.55327,7.60702,785.581,-3640,-1830,237600,-69.9251,-407.902,-12.1712,1620,-18,702,-12.1712,-283,1883.88
3258555,2.04743,-14.0971,783.273,-2840,-2680,237740,16.5715,-327.66,22.5554,1624,-11,704,22.5554,-306,1878.86
3258565,4.56893,-24.6018,781.497,-1300,-2760,237960,61.0057,-173.781,39.3629,1616,-4,706,39.3629,-228,1873.39
3258576,7.27348,-29.1852,781.279,310,-1840,238110,50.659,-46.5255,46.6963,1610,-8,708,46.6963,-129,1877.66
3258581,7.59455,-28.9258,780.892,1420,-220,238090,12.8428,10.3753,46.2813,1600,-14,709,46.2813,-62,1884.11
3258593,8.47241,-27.1479,780.611,1580,740,237940,1.25383,29.5001,43.4366,1599,-1,711,43.4366,-38,1871.45
3258604,7.11412,-25.6521,781.39,1490,1110,237720,-36.9589,13.0062,41.0434,1629,1,713,41.0434,-26,1867.91
3258627,-0.976567,-35.4544,779.633,-200,-70,236930,-82.7893,-133.796,56.7271,1611,-23,716,56.7271,-128,1894.6
3258633,-3.57422,-39.6524,778.833,-1300,-720,236640,-86.5883,-139.934,63.4439,1597,-27,717,63.4439,-138,1899.45
3258644,-6.88295,-46.6692,776.76,-1810,-970,236480,-57.9776,-112.558,74.6707,1605,-18,719,74.6707,-144,1892.31
3258668,-9.04421,-49.877,774.908,-420,-200,236270,-12.452,23.5273,79.8032,1611,0,722,79.8032,-71,1875.07
3258679,-7.5282,-47.7249,774.945,200,-80,236170,24.3692,47.3039,78.252,1616,-8,724,78.252,-90,1883.03
3258689,-6.09575,-44.5853,774.151,1000,70,236140,39.9619,53.4744,73.4754,1608,-8,726,73.4754,-48,1884.97
3258695,-5.44352,-43.2774,773.999,1460,260,236150,21.7407,43.5968,69.2438,1600,-10,727,69.2438,-70,1886.2
3258706,-5.53244,-41.5108,774.309,1170,260,236170,-17.6025,31.1042,66.4172,1599,-27,729,66.4172,-54,1903.16
3258716,-6.79609,-40.8132,773.538,1390,1020,235330,-25.6583,17.6088,65.3011,1618,-25,731,65.3011,-59,1903.03
3258739,-6.49669,5.25889,778.762,3350,4100,234900,27.7706,747.544,-8.41422,1639,145,734,-8.41422,527,1732.49
3258750,-3.17953,69.3377,793.957,6140,8270,235460,85.0522,1316.82,-110.94,1681,264,736,-110.94,623,1606.44
3258756,0.0573631,120.612,807.238,10180,11970,235200,107.897,1709.13,-192.978,1730,409,737,-192.978,611,1600
3258767,13.7713,247.459,840.932,13660,13770,235670,304.433,2508.45,-395.934,1775,513,739,-395.934,470,1600
3258777,27.2862,384.659,880.042,18290,14410,236380,268.291,2699.92,-440,1825,370,741,-440,481,1600
3258789,40.1794,513.374,912.515,18880,12950,235690,189.831,1922.78,-440,1851,174,743,-440,520,1600
3258800,43.7045,585.52,918.349,17740,12470,234630,22.5478,1104.3,-440,1828,-9,745,-440,620,1747.53
3258811,37.9002,613.377,906.785,15270,13190,233550,-127.196,302.119,-440,1791,-73,747,-440,687,1833.55
3258821,27.5029,601.276,892.732,11570,13290,232390,-220.339,-428.777,-440,1751,-74,749,-440,225,1845.78
3258827,20.756,576.795,884.491,3630,8340,231130,-224.895,-816.021,-440,1732,-58,750,-440,-51,1836.34
3258839,11.8743,497.137,869.777,-5060,-440,231250,-107.566,-1454.71,-440,1739,-54,752,-440,-558,1844.08
3258850,12.2977,410.028,855.776,-8360,-6530,232430,56.3621,-1582.34,-440,1752,-47,754,-440,-674,1849.29
3258861,20.12,333.803,843.406,-7110,-8720,233180,170.412,-1288.59,-440,1751,-37,756,-440,-714,1848.2
3258872,30.6344,280.409,832.811,-4200,-9200,233480,193.487,-855.915,-440,1740,-37,758,-440,-430,1859.72
3258878,35.505,261.248,828.283,420,-5960,233510,162.355,-638.686,-417.997,1734,-20,759,-417.997,-270,1842.34
3258889,39.9603,239.903,822.183,2640,-1150,234000,59.5696,-306.835,-383.845,1720,-35,761,-383.845,17,1863.27
3258900,37.6557,227.384,815.943,3320,2020,234560,-76.1951,-217.205,-363.814,1730,-20,763,-363.814,163,1856.34
3258912,29.114,209.958,810.898,2450,3400,234800,-162.837,-337.207,-335.932,1753,3,765,-335.932,113,1834.35
3258923,20.0933,185.612,807.791,920,2800,234680,-158.943,-484.538,-296.98,1750,0,767,-296.98,-28,1839.78
3258929,15.8915,168.618,806.032,-430,940,234360,-140.062,-566.477,-269.789,1770,13,768,-269.789,-125,1828.14
3258940,10.6833,132.916,803.297,-2000,-1100,233790,-83.9614,-669.459,-212.666,1791,16,770,-212.666,-285,1826.22
3258951,8.54083,95.7504,800.281,-3260,-3070,233240,-29.3976,-671.849,-153.201,1787,8,772,-153.201,-370,1838.59
3258973,12.6811,39.9779,796.678,-2790,-3830,232510,56.8601,-375.499,-63.9646,1798,13,775,-63.9646,-285,1833.29
3258985,16.2872,25.7729,795.531,-1350,-2860,232460,58.3773,-178.721,-49.8152,1785,12,777,-49.8152,-245,1836.72
3258991,18.272,22.1841,795.348,290,-1430,232550,66.1618,-119.625,-35.4945,1779,3,778,-35.4945,-134,1843.28
3259003,20.7508,19.6961,795.061,1690,-210,232810,34.079,-26.6465,-31.5138,1765,0,780,-31.5138,-48,1849.52
3259015,21.948,16.9628,795.692,2310,540,233140,14.8017,-52.9216,-27.1405,1740,-13,782,-27.1405,-58,1862.07
3259020,21.752,14.5204,795.915,1880,520,233480,-7.84111,-97.6975,-23.2326,1734,-5,783,-23.2326,-79,1853.95
3259031,20.6024,5.25938,797.14,910,-130,233690,-32.0396,-197.326,-8.415,1737,-20,785,-8.415,-149,1868.04
3259043,18.4625,-9.96924,798.207,-390,-1020,233660,-34.4498,-273.944,15.9508,1729,-21,787,15.9508,-226,1867.29
3259054,15.9751,-26.0436,798.693,-1590,-2120,233470,-44.7086,-295.717,41.6697,1718,-32,789,41.6697,-257,1879.04
3259076,12.3026,-47.3404,799.028,-2600,-2440,233030,-22.2737,-99.5231,75.7446,1696,-33,792,75.7446,-159,1879.12
3259087,11.6807,-47.9811,800.757,-1620,-1500,233020,-7.42087,18.4724,77.6564,1682,-46,794,77.6564,-129,1893.18
3259093,11.8995,-45.5301,801.204,-280,-410,233340,7.29107,81.699,72.8482,1680,-57,795,72.8482,-47,1902.85
3259104,13.4133,-38.2696,801.068,1000,460,234040,32.5091,143.6,61.2314,1692,-47,797,61.2314,-10,1893.22
3259126,18.5988,-25.4976,800.769,2230,620,235770,44.2305,76.0549,40.7962,1684,-56,800,40.7962,-51,1902.97
3259138,21.1311,-24.2669,800.353,1870,450,236510,35.8514,-7.78085,38.4536,1684,-51,802,38.4536,-73,1897.52
3259144,22.1854,-25.2123,800.178,1190,-30,237210,35.1436,-31.5123,40.3397,1698,-49,803,40.3397,-129,1897.96
3259155,22.6371,-29.5429,798.486,60,-570,237760,-7.42837,-78.7904,47.2687,1702,-62,805,47.2687,-147,1909.58
3259178,23.9959,-40.331,792.488,-620,-830,238150,15.9165,-86.5736,55.9417,1701,-56,808,55.9417,-184,1909.35
3259189,25.7388,-43.9179,789.596,-150,-1090,237900,38.1826,-59.4879,67.4132,1703,-58,810,67.4132,-186,1914.4
3259195,27.1403,-45.3761,787.545,380,-1170,237420,46.7138,-48.6076,72.6018,1703,-59,811,72.6018,-188,1918.64
3259207,28.6647,-46.7606,782.928,690,-980,236860,14.2365,-8.28202,74.817,1692,-55,813,74.817,-139,1918.67
3259218,28.1953,-47.6452,779.789,790,-650,236400,-34.6243,-11.5262,76.2323,1672,-45,815,76.2323,-112,1911.54
3259230,26.5241,-48.8603,778.374,510,-170,236100,-45.5421,-17.5075,77.3361,1658,-31,817,77.3361,-138,1899.56
3259236,24.5259,-49.6235,778.795,80,-170,235910,-66.6074,-25.4404,79.3976,1652,-31,818,79.3976,-104,1897.84
3259247,21.5003,-50.826,780.17,-550,110,235760,-33.1671,-15.1187,81.3216,1643,-34,820,81.3216,-120,1901
3259257,19.482,-51.7344,781.301,-370,310,235590,-22.3389,-21.9508,82.775,1643,-20,822,82.775,-134,1887.29
3259267,17.9862,-52.3812,783.295,-510,150,235320,-30.2982,-10.7477,83.8099,1646,-11,824,83.8099,-122,1875.84
3259278,18.6962,-54.0571,786.923,-330,-120,235030,14.8331,-32.2558,86.4914,1650,-13,826,86.4914,-171,1875.07
3259300,22.4612,-58.56,792.448,-320,-1260,234900,37.1592,-35.2483,93.6961,1651,-32,829,93.6961,-198,1889.93
3259311,24.7386,-59.8513,793.875,-400,-1680,235060,44.0969,-5.9348,95.5247,1657,-33,831,95.5247,-205,1891.42
3259316,25.535,-59.5851,793.879,-990,-1980,234180,31.8534,10.6488,95.3361,1671,41,832,95.3361,-166,1823.04
3259328,29.7974,-31.275,800.148,-630,-850,234350,73.918,639.258,50.04,1685,135,834,50.04,307,1716.57
3259339,33.6798,20.3497,816.628,1450,2970,234460,75.3247,1048.6,-32.5595,1714,275,836,-32.5595,589,1600
3259350,40.7504,97.2373,847.732,6090,7880,234750,156.763,1555.62,-155.58,1748,351,838,-155.58,537,1600
3259361,54.0256,204.376,885.942,11300,11260,233300,307.831,2089.85,-327.002,1764,436,840,-327.002,420,1600
3259372,74.5171,341.05,935.235,15670,12200,231780,391.184,2669.76,-440,1823,588,842,-440,309,1600
3259378,85.6801,427.806,967.287,15660,10310,230560,372.099,2891.84,-440,1920,759,843,-440,302,1600
3259389,100.371,589.308,1038.01,17840,10550,230600,221.705,2873.49,-440,2010,605,845,-440,391,1600
3259400,105.544,720.429,1099.81,18460,8900,229100,83.327,2166.62,-440,2070,289,847,-440,484,1600
3259411,106.982,793.591,1123.79,16710,6920,224190,30.3433,911.692,-440,2051,-225,849,-440,493,1813.69
3259433,100.203,726.462,1078.18,9400,4060,220150,-129.046,-1248.03,-440,1972,-103,852,-440,-306,1713.19
3259443,91.9898,645.952,1068.04,-2700,-1390,221100,-174.893,-1705.57,-440,1968,-100,854,-440,-362,1713.16
3259454,82.7796,549.91,1057.26,-10820,-3400,223870,-157.718,-1729.94,-440,1976,-130,856,-440,-399,1751.31
3259460,79.5456,502.721,1050.45,-11990,-3910,226620,-107.798,-1572.96,-440,1958,-158,857,-440,-456,1784.46
3259471,80.1763,436.436,1035,-10500,-4490,228650,77.5883,-1063.54,-440,1920,-175,859,-440,-470,1816.71
3259493,105.731,380.65,1000.87,2590,-1350,229980,291.759,-211.226,-440,1901,-193,862,-440,-92,1860.04
3259505,120.941,373.003,979.644,8000,1280,230510,228.137,-122.626,-440,1893,-206,864,-440,-27,1881.66
3259510,124.829,368.88,969.848,9140,3260,230970,155.534,-164.901,-440,1877,-216,865,-440,43,1910.44
3259521,126.3,349.742,949.137,6940,3820,231010,-27.1101,-432.054,-440,1851,-188,867,-440,-1,1898.44
3259532,119.388,313.616,931.314,1750,2550,230820,-161.767,-743.067,-440,1826,-169,869,-440,-114,1895.05
3259543,108.636,263.047,916.566,-2540,510,230670,-203.208,-973.528,-420.875,1822,-129,871,-420.875,-255,1868.1
3259566,95.7809,154.622,897.767,-6230,-3040,230500,-48.6096,-836.098,-247.395,1830,-81,874,-247.395,-402,1834.28
3259576,96.5309,123.111,892.219,-4350,-2820,230380,26.8316,-564.522,-196.978,1840,-76,876,-196.978,-316,1832.72
3259587,99.9708,102.727,885.263,-1560,-2060,230270,54.5857,-304.499,-176.542,1845,-79,878,-176.542,-273,1839.03
3259593,102.058,96.0809,881.258,820,-650,230270,69.5779,-221.522,-153.729,1851,-82,879,-153.729,-155,1846.57
3259604,103.774,90.1364,873.835,2540,840,230410,18.6296,-83.4288,-144.218,1844,-93,881,-144.218,-31,1862.62
3259614,102.835,86.7144,866.741,3140,2060,230460,-32.2171,-71.7722,-138.743,1838,-88,883,-138.743,11,1867.49
3259626,98.5824,79.1918,858.921,2220,2340,230320,-79.2416,-147.338,-126.707,1833,-73,885,-126.707,-10,1856.92
3259638,92.4225,65.4799,853.504,660,1930,230140,-94.7251,-254.623,-116.99,1829,-49,887,-116.99,-29,1835.41
3259644,89.5757,56.5308,852.273,-450,1260,230230,-94.8928,-298.301,-90.4493,1821,-35,888,-90.4493,-122,1824.28
3259654,85.779,41.5539,851.922,-870,520,230900,-73.2445,-296.689,-66.4863,1812,-34,890,-66.4863,-155,1823.52
3259665,83.7861,26.4384,851.8,-490,-20,231790,-27.7451,-256.712,-42.3015,1820,-50,892,-42.3015,-184,1838.62
3259676,82.7058,14.411,850.389,-20,-50,232570,-9.34119,-208.332,-23.0576,1814,-61,894,-23.0576,-183,1852.84
3259688,81.2533,4.57305,847.632,550,-120,233090,-31.0711,-153.347,-7.31688,1818,-49,896,-7.31688,-145,1843.13
3259699,78.1922,-2.25372,846.841,830,-80,233380,-48.102,-84.3062,0.233697,1832,-40,898,0.233697,-133,1833.67
3259705,75.6721,-5.29445,846.626,780,180,233350,-84.0022,-101.358,8.47112,1828,-48,899,8.47112,-85,1842.99
3259716,69.2334,-10.626,845.432,170,710,233350,-130.128,-92.7085,17.0015,1846,-33,901,17.0015,-52,1827.96
3259728,60.8142,-15.5998,844.703,-350,1200,233390,-143.597,-77.0315,24.9596,1856,-41,903,24.9596,-37,1835.54
3259739,54.0403,-19.3728,842.236,-470,1460,233450,-114.527,-64.5131,30.9964,1846,-57,905,30.9964,-53,1854.59
3259745,51.1745,-20.965,840.644,100,1530,233520,-95.5295,-53.0741,33.544,1841,-66,906,33.544,-60,1864.02
3259756,47.8085,-23.5024,836.489,410,1510,233540,-50.8073,-30.3012,37.6039,1853,-61,908,37.6039,-79,1863.5
3259767,46.1977,-26.9708,831.659,590,970,233530,-19.8644,-63.9707,43.1532,1853,-64,910,43.1532,-130,1869.55
3259779,45.1857,-32.7254,825.447,890,430,233600,-17.4025,-105.158,52.3607,1845,-75,912,52.3607,-168,1886.76
3259791,43.7752,-39.378,817.697,1130,360,233770,-31.4002,-122.599,57.1201,1824,-78,914,57.1201,-172,1893.05
3259796,42.5482,-42.4232,815.469,550,480,233990,-49.0794,-121.807,67.8771,1817,-73,915,67.8771,-174,1895.35
3259807,38.4369,-50.4583,810.562,-590,290,234070,-76.0833,-155.736,80.7333,1835,-51,917,80.7333,-192,1876.54
3259818,33.6761,-59.3158,806.67,-1880,-260,234030,-89.5396,-150.369,94.9053,1832,-60,919,94.9053,-192,1886.89
3259830,29.285,-67.4719,802.278,-2560,-890,234050,-60.9459,-119.786,107.955,1812,-61,921,107.955,-200,1892.73
3259851,26.5256,-66.6741,798.489,-1250,-860,234250,3.95915,77.7239,106.679,1782,-47,924,106.679,-102,1882.24
3259863,26.8074,-56.5068,798.684,390,-100,234410,6.20461,190.986,99.5783,1776,-46,926,99.5783,-46,1881.45
3259869,26.5774,-49.8375,798.674,1890,1130,234440,-7.66587,222.311,79.74,1767,-54,927,79.74,31,1889.59
3259880,25.5539,-38.3832,798.985,2460,2250,234260,-19.5263,195.946,61.4132,1775,-53,929,61.4132,35,1889.63
3259891,23.2011,-30.7746,798.945,2090,2430,233880,-45.1097,101.02,49.2394,1769,-54,931,49.2394,-4,1888.92
3259903,20.4899,-30.1382,799.177,1070,1680,233440,-42.3174,-21.5835,48.2212,1765,-55,933,48.2212,-91,1890.01
3259914,18.703,-36.0582,800.025,70,540,233170,-25.7601,-135.879,51.1709,1754,-48,935,51.1709,-132,1884.17
3259919,18.5628,-39.3535,800.311,-800,-960,233250,-5.60689,-131.811,62.9655,1743,-52,936,62.9655,-207,1885.6
3259930,17.8298,-48.4984,802.371,-1680,-1700,233630,-6.7595,-148.716,77.5974,1739,-63,938,77.5974,-230,1897.27
3259941,18.553,-54.779,803.353,-1540,-1720,234090,10.7117,-103.817,87.6464,1750,-65,940,87.6464,-220,1898.8
3259963,23.5098,-53.7446,801.627,50,-950,234700,64.5095,70.8077,85.9914,1768,-70,943,85.9914,-134,1905.85
3259975,27.4669,-47.2419,799.096,950,-670,234770,66.364,122.139,81.4497,1754,-55,945,81.4497,-115,1893.31
3259981,28.7569,-44.2726,798.453,1430,-230,234880,43.0007,98.977,70.8361,1755,-53,946,70.8361,-88,1891.97
3259992,31.6823,-37.0838,796.995,1750,210,235140,30.2639,119.86,59.3341,1770,-52,948,59.3341,-56,1892.41
3260003,33.3833,-32.5127,794.522,1720,540,235500,24.5546,62.1587,52.0203,1773,-46,950,52.0203,-89,1889.66
3260035,32.4174,-38.8837,786.748,560,-660,237040,-14.7593,-94.5054,62.2139,1765,-40,954,62.2139,-192,1890.53
3260046,31.2634,-44.3862,783.962,-230,-1290,237540,-20.3276,-109.935,71.0179,1774,-18,956,71.0179,-208,1870.95
3260051,30.4676,-47.137,783.114,-770,-1760,237990,-31.8314,-110.035,75.4193,1772,-16,957,75.4193,-205,1868.78
3260063,28.3286,-52.5476,780.947,-1110,-1950,239380,-37.6506,-79.9632,84.0761,1792,-34,959,84.0761,-187,1881.66
3260073,26.0824,-54.9038,776.259,-1920,-3810,234780,-49.9384,-35.3749,87.846,1755,-561,961,87.846,-148,2100
3260084,23.051,-54.9799,723.181,-10680,-15590,240040,-61.3845,6.58406,87.9678,1689,-1144,963,87.9678,-109,2100
3260096,18.733,-44.8693,587.044,-12280,-18600,234960,-88.4929,258.573,71.7909,1542,-1673,965,71.7909,118,2100
3260107,12.65,-19.4915,395.744,-6500,-11950,238910,-109.114,500.181,55.195,1328,-2401,967,55.195,279,2100
3260113,8.95952,-2.9236,254.328,7750,6920,239420,-123.015,552.263,4.67776,992,-2889,968,4.67776,453,2100
3260125,4.84052,-10.1096,110.04,19520,10180,242640,-16.1171,-855.431,16.1754,724,-3491,970,16.1754,-742,2100
3260135,0.341695,-44.732,146.525,13770,9070,246960,-109.078,-640.077,71.5712,426,-4173,972,71.5712,-627,2100
3260147,12.9242,-72.5517,99.6824,-6620,-10130,250220,206.779,-334.317,116.083,146,-4424,974,116.083,-588,2100
3260158,21.5728,-56.2037,90.5898,-140,-8960,250810,22.7834,408.021,89.9258,-125,-4838,976,89.9258,190,2100
3260164,18.7039,-53.4216,81.6775,1810,-3950,250890,-95.6294,92.7349,85.4746,-431,-4902,977,85.4746,-48,2100
3260175,17.8625,-58.7645,76.1031,-1480,-7440,250400,-15.9883,-107.904,94.0232,-659,-4659,979,94.0232,-277,2100
3260185,18.761,-54.1851,76.0542,-280,-7510,250170,-16.1979,133.525,86.6962,-818,-4494,981,86.6962,-44,2100
3260196,17.1066,-54.9634,75.9043,-560,-5760,250140,-23.2822,-44.6676,87.9414,-928,-4280,983,87.9414,-209,2100
3260207,18.363,-55.5151,75.939,-370,-6960,250030,6.24657,1.57317,88.8242,-986,-4061,985,88.8242,-178,2100
3260217,18.6584,-55.8417,75.6553,-410,-5900,249930,58.3434,-62.4062,89.3467,-1012,-3834,987,89.3467,-257,2100
3260228,18.0659,-55.5576,75.6337,-320,-5840,249820,-8.50319,25.4305,88.8922,-1011,-3595,989,88.8922,-150,2100
3260240,18.1824,-55.8548,75.4728,-300,-5570,249720,2.31192,-7.44903,89.3678,-989,-3356,991,89.3678,-185,2100
3260245,17.8801,-55.6803,75.3781,-390,-5130,249630,-12.0918,6.98068,89.0885,-942,-3117,992,89.0885,-166,2100
3260257,18.7693,-56.0232,75.7137,-560,-4850,249530,27.556,-6.2509,89.6372,-896,-2890,994,89.6372,-194,2100
3260268,18.6879,-55.9586,75.6662,-560,-4620,249430,-0.346936,-0.608077,89.5337,-833,-2667,996,89.5337,-178,2100
3260279,18.2346,-55.4367,75.7157,-570,-4440,249340,1.17536,-2.65857,88.6988,-763,-2442,998,88.6988,-180,2100
3260291,18.0683,-54.7988,76.0194,-520,-4320,249240,-5.77226,20.4206,87.6781,-691,-2233,1000,87.6781,-154,2100
3260297,18.0882,-54.8271,76.0127,-500,-4220,249130,0.663493,-0.943983,87.7234,-602,-2021,1001,87.7234,-177,2100
3260308,18.0888,-54.8055,75.9936,-500,-4130,249030,2.87676,0.696269,87.6887,-515,-1829,1003,87.6887,-176,2100
3260319,18.0704,-54.8134,75.9983,-480,-4050,248930,0.392602,-1.17036,87.7014,-425,-1628,1005,87.7014,-177,2100
3260331,18.0818,-54.8074,76.0223,-560,-3970,248830,0.467389,0.704606,87.6919,-328,-1441,1007,87.6919,-175,2100
3260342,18.1848,-54.8368,75.9598,-500,-3900,248730,2.4921,-2.36061,87.7389,-230,-1253,1009,87.7389,-179,2100
3260353,18.4792,-54.9022,75.8684,-430,-3830,248630,9.81793,-2.42802,87.727,-132,-1080,1011,87.727,-175,2100
3260358,18.188,-54.8384,75.9362,-370,-3770,248540,-11.6464,2.55177,87.7415,-48,-927,1012,87.7415,-169,2100
3260370,18.0458,-54.7366,76.045,-330,-3700,248440,0.558362,0.444476,87.5785,42,-767,1014,87.5785,-175,2100
3260381,17.8477,-54.6654,76.1721,-260,-3640,248340,-7.88675,4.42151,87.4647,125,-622,1016,87.4647,-168,2100
3260387,17.8815,-54.6802,76.1819,-250,-3580,248240,1.12739,-0.492174,87.4883,205,-487,1017,87.4883,-176,2100
3260387,17.8815,-54.6802,76.1819,-290,-3510,248140,1.12739,-0.492174,87.4883,285,-356,1017,87.4883,-176,2100
3260387,17.8815,-54.6802,76.1819,-270,-3450,248030,1.12739,-0.492174,87.4883,358,-233,1017,87.4883,-176,2100
3260387,17.8815,-54.6802,76.1819,-270,-3380,247930,1.12739,-0.492174,87.4883,428,-118,1017,87.4883,-176,2100
3260387,17.8815,-54.6802,76.1819,-320,-3330,247830,1.12739,-0.492174,87.4883,497,-11,1017,87.4883,-176,2100
3260387,17.8815,-54.6802,76.1819,-320,-3270,247730,1.12739,-0.492174,87.4883,564,90,1017,87.4883,-176,2010
3260387,17.8815,-54.6802,76.1819,-310,-3220,247630,1.12739,-0.492174,87.4883,633,187,1017,87.4883,-176,1908
