timestamp,x,y,z,pitch,roll,yaw,vx,vy,vz,battery,cpu_load,vicon_count,set_position,set_velocity,calc_thrust
0,0,0,0,0,0,0,0,0,0,0,0,0,0,0,0
871410,-18.2535,13.6758,75.4955,0,0,0,-0.844573,-0.265428,-21.8812,0,0,2,-21.8812,20,2078.8
871420,-18.352,13.5214,75.3735,0,0,0,-3.54373,-5.51722,-21.6343,0,0,4,-21.6343,15,2079.9
871431,-18.0583,13.3183,75.4641,0,0,0,6.14794,-9.20018,-21.6773,0,0,6,-21.6773,22,2081
871437,-17.9952,13.2904,75.319,0,0,0,2.10244,-0.930169,-21.2646,0,0,7,-21.2646,19,2082.1
871448,-18.0017,13.2697,75.31,0,0,0,-0.892434,-0.028259,-21.2316,0,0,9,-21.2316,20,2083.31
871459,-18.0784,13.3561,75.3128,0,0,0,-3.08522,1.81201,-21.3697,0,0,11,-21.3697,22,2084.41
871471,-18.0651,13.3805,75.2957,0,0,0,-1.10276,1.49759,-21.4088,0,0,13,-21.4088,22,2085.51
871482,-18.1155,12.6025,74.6702,0,0,0,-0.438658,1.38116,-20.164,0,0,15,-20.164,20,2086.61
871488,-18.1211,12.6361,74.6697,0,0,0,-0.183578,1.12215,-20.2178,0,0,16,-20.2178,20,2087.71
871499,-18.1125,12.6668,74.6531,0,0,0,-0.169451,0.0362205,-20.2669,0,0,18,-20.2669,19,2088.81
871511,-18.1632,12.6424,74.584,0,0,0,-0.727684,-1.76186,-20.2278,0,0,20,-20.2278,17,2089.91
871522,-18.1093,12.6598,74.5983,0,0,0,1.43242,-0.0236513,-20.2557,0,0,22,-20.2557,19,2091.01
871533,-18.119,12.6437,74.5951,0,0,0,-0.561239,0.312362,-20.2174,0,0,24,-20.2174,18,2092.11
871539,-18.1352,12.636,74.622,0,0,0,-0.54036,-0.255829,-20.2176,0,0,25,-20.2176,19,2093.21
871550,-18.1326,12.5964,74.6221,0,0,0,-0.745287,-0.644305,-20.1542,0,0,27,-20.1542,18,2094.42
871561,-18.0787,12.5807,74.643,0,0,0,1.48556,0.0266581,-20.1292,0,0,29,-20.1292,19,2095
871572,-18.1079,12.6203,74.6395,0,0,0,-0.992771,1.3062,-20.1926,0,0,31,-20.1926,20,2095
871583,-18.1541,12.6024,74.6363,0,0,0,-1.16203,0.35593,-20.1638,0,0,33,-20.1638,19,2095
871589,-18.1001,12.5826,74.6204,0,0,0,1.80183,-0.657115,-20.1322,0,0,34,-20.1322,18,2095
871601,-18.0793,12.5403,74.6604,0,0,0,0.367569,-1.4842,-20.0646,0,0,36,-20.0646,17,2095
871613,-18.0941,12.4917,74.7025,0,0,0,-0.802401,-1.05465,-19.9868,0,0,38,-19.9868,18,2095
871625,-18.09,12.4784,74.7189,1050,0,252750,-0.298341,-0.855107,-20.0065,-51,51,40,-20.0065,19,2044
871630,-18.0242,12.4674,74.7429,990,60,253750,2.63346,-0.440194,-19.9479,-16,54,41,-19.9479,19,2042
871641,-18.0386,12.4428,74.7391,930,120,254760,-0.127304,-0.101416,-19.9085,19,58,43,-19.9085,19,2038
871664,-18.0884,12.4104,74.76,860,170,256780,-0.860454,-0.208708,-19.8566,94,74,46,-19.8566,18,2021
871675,-18.0622,12.3923,74.7675,820,220,257790,-0.151147,1.0452,-19.8277,128,84,48,-19.8277,20,2011
871686,-18.0986,12.4689,75.1053,820,200,257040,-1.40152,2.55589,-19.9502,39,6,50,-19.9502,21,2089
871692,-17.7645,13.1479,75.7004,810,220,252820,11.1375,22.6324,-21.0366,50,0,51,-21.0366,43,2095
871703,-18.2062,12.43,75.1203,840,220,252710,2.7994,-6.73969,-19.888,62,-7,53,-19.888,12,2100
871714,-18.2547,12.425,75.1838,880,140,253970,1.67165,0.78594,-19.8801,55,-25,55,-19.8801,20,2100
871743,-18.0533,12.9955,75.7052,980,90,258110,4.24879,18.2615,-20.7928,-82,-146,59,-20.7928,38,2100
871754,-18.2735,13.2475,76.0687,1040,40,259040,-14.2296,16.3938,-20.4091,-119,-184,61,-20.4091,10,2100
871764,-18.2442,12.9449,75.8693,1270,120,259820,3.54938,21.0901,-20.7118,-153,-208,63,-20.7118,41,2100
871775,-18.4944,12.3623,79.4953,2800,210,260240,-3.28329,-1.43369,-19.7797,-282,-100,65,-19.7797,17,2100
871803,-13.5389,13.6572,212.562,4750,830,259750,-43.6627,-48.0861,-21.8516,-35,560,69,-21.8516,-28,1600
871809,-13.035,13.9584,263.376,4030,-430,259540,16.7966,10.0386,-22.3334,72,743,70,-22.3334,32,1600
871820,-18.8873,5.11187,373.19,3410,-640,260500,-88.7284,-157.04,-8.17898,229,722,72,-8.17898,-151,1600
871832,-20.9924,-1.67386,493.709,2940,-950,262050,-11.6772,-124.464,2.67818,397,692,74,2.67818,-127,1600
871865,-10.1467,-24.0212,760.724,2940,1080,263880,105.313,-153.989,38.4339,807,408,78,38.4339,-188,1600
871875,-4.5691,-27.9315,818.455,3140,1820,263980,117.711,-99.8107,44.6904,903,300,80,44.6904,-139,1600
871881,-1.52467,-32.0659,847.387,3280,1720,263090,101.481,-137.812,51.3054,980,186,81,51.3054,-186,1632.51
871893,3.90109,-44.6798,891.658,2570,450,260800,73.16,-253.084,71.4877,1061,151,83,71.4877,-325,1628.99
871915,5.32049,-78.2863,944.735,1430,-4580,254530,-24.0606,-314.671,125.258,1184,-23,86,125.258,-433,1757.92
871927,0.0254469,-92.7858,954.172,330,-5250,251520,-107.821,-212.975,138.234,1221,-68,88,138.234,-391,1798.75
871933,-3.85712,-96.6849,956.615,-470,-4170,249150,-129.419,-129.971,154.696,1258,-87,89,154.696,-245,1812.83
871956,-22.9227,-90.5187,955.05,-860,-80,246330,-174.683,141.333,144.83,1309,-123,92,144.83,56,1851.89
871962,-26.9031,-85.6488,952.287,-490,1820,245700,-132.678,162.329,137.038,1334,-120,93,137.038,72,1851.1
871973,-33.1864,-77.443,946.446,-70,2620,245460,-76.7399,136.815,123.909,1343,-144,95,123.909,44,1878.83
871984,-36.0315,-73.2073,937.891,660,1910,245400,-35.2152,37.3086,117.132,1337,-163,97,117.132,-55,1904.88
871996,-36.6996,-73.7514,925.951,1210,510,245520,-0.173878,-28.4232,118.002,1331,-164,99,118.002,-129,1917.73
872007,-36.5206,-79.3627,914.197,1540,-620,245790,5.97452,-108.44,126.98,1315,-147,101,126.98,-213,1911.44
872013,-37.2009,-83.6739,908.684,1210,-1650,246200,-22.6761,-143.705,133.878,1293,-141,102,133.878,-240,1909.13
872024,-40.1833,-92.0929,901.155,210,-2090,246750,-67.5618,-153.96,147.349,1276,-128,104,147.349,-245,1901.41
872036,-46.3714,-99.9477,895.177,-860,-2340,247350,-101.555,-116.178,159.916,1258,-129,106,159.916,-209,1906.43
872058,-57.8678,-104,887.38,-1160,-1330,248470,-85.3833,11.6091,166.399,1257,-129,109,166.399,-102,1915.25
872070,-60.8025,-100.115,883.145,-630,-520,248830,-20.8715,73.1303,163.694,1268,-111,111,163.694,-61,1899.05
872080,-61.374,-95.8311,880.29,260,300,249040,-17.0384,91.4896,153.33,1275,-105,113,153.33,-41,1896.41
872086,-60.3228,-93.7047,878.514,840,750,249160,35.0393,70.8814,149.927,1291,-84,114,149.927,-77,1876.98
872097,-58.4692,-90.6967,875.977,1530,470,249320,28.1446,28.3027,145.115,1292,-80,116,145.115,-109,1875.1
872109,-56.859,-91.1682,873.831,1860,-180,249460,13.4198,-28.9439,145.869,1305,-78,117,145.869,-157,1874.91
872121,-58.6644,-95.2691,871.062,1500,-840,249670,-36.8045,-75.3872,148.812,1282,-96,119,148.812,-175,1891.11
872126,-60.3353,-97.5987,869.932,610,-1260,249690,-66.8361,-93.1825,156.158,1085,-177,120,156.158,-194,1974.55
872137,-66.1765,-103.02,869.421,-40,-1450,249460,-142.456,-85.9947,164.832,868,-201,122,164.832,-163,2003.66
872149,-73.2539,-108.32,878.624,-720,-1130,249120,-122.483,-77.745,173.311,700,-177,124,173.311,-168,1973.95
872159,-79.2141,-111.352,898.417,-870,-930,248890,-99.0771,-47.1008,178.163,591,-154,126,178.163,-150,1934.59
872181,-88.4295,-113.943,965.291,-270,-700,248410,-62.8072,-12.1064,182.309,434,-182,129,182.309,-133,1908.77
872191,-91.3167,-114.119,999.823,0,-820,248040,-55.4673,-2.18207,182.591,383,-198,131,182.591,-124,1897.37
872197,-93.2806,-113.58,1021.18,-260,-720,247760,-65.4602,17.9547,181.729,330,-225,132,181.729,-100,1906.49
872209,-96.4591,-111.341,1064.75,-150,-360,247550,-64.3674,45.1872,178.145,312,-224,134,178.145,-71,1872.77
872220,-98.5897,-107.044,1105.25,-30,150,247170,-41.0525,80.6895,171.27,303,-241,136,171.27,-42,1879.62
872230,-99.9978,-102.13,1141.06,330,690,246610,-19.4687,98.2983,163.408,305,-259,138,163.408,-28,1898.78
872241,-99.2256,-97.1436,1177.7,980,1070,246060,32.2139,80.7722,155.43,300,-261,140,155.43,-61,1901
872262,-93.3351,-93.6461,1248.36,2040,470,245280,56.4736,-22.5303,149.834,327,-222,143,149.834,-157,1864.2
872273,-90.9155,-96.9373,1285.87,1470,-460,245140,33.9694,-81.8948,155.1,363,-224,145,155.1,-201,1861.19
872284,-91.7404,-102.805,1319.84,480,-1160,245120,-27.6589,-101.031,164.487,387,-250,147,164.487,-192,1890.28
872289,-92.7292,-105.767,1333.77,-400,-1910,245220,-39.5534,-118.493,169.227,413,-266,148,169.227,-204,1906.49
872300,-94.8413,-111.512,1360.17,-720,-2610,245700,-28.5954,-100.554,178.42,432,-301,150,178.42,-201,1938.79
872311,-95.1209,-113.464,1380.68,220,-2650,246560,16.0184,-12.97,181.542,462,-331,152,181.542,-154,1970.27
872323,-90.0968,-110.373,1394.71,2260,-2330,247390,101.115,82.3143,176.597,479,-357,154,176.597,-114,1996.9
872334,-82.6538,-104.426,1400.49,3850,-2020,247760,129.951,115.859,167.081,475,-375,156,167.081,-92,2017.63
872345,-76.8537,-98.8345,1402.74,4500,-1870,247970,92.6872,90.5405,158.135,483,-362,158,158.135,-82,2006.38
872351,-75.4408,-96.7169,1403.27,3910,-1640,248070,47.0975,70.5881,154.747,492,-346,159,154.747,-81,1991.07
872362,-76.838,-95.6573,1403.74,2700,-1710,248220,-36.036,7.97412,153.052,503,-348,161,153.052,-92,1992.7
872385,-86.8979,-101.537,1398.16,600,-1640,248630,-95.9038,-79.5052,162.459,473,-322,164,162.459,-145,1967.96
872391,-89.6292,-103.15,1396.52,150,-1670,248740,-91.0428,-53.7642,165.04,476,-296,165,165.04,-127,1943.41
872403,-92.7999,-105.393,1394.38,290,-1430,248820,-41.9371,-35.9508,168.629,473,-282,167,168.629,-139,1929.77
872414,-93.11,-105.926,1392.42,870,-1160,248790,5.06102,0.05672,169.482,476,-261,169,169.482,-131,1909.02
872425,-92.2046,-105.275,1390.96,1170,-1250,248380,18.145,20.8366,168.44,481,-245,171,168.44,-118,1893.19
872437,-92.248,-103.922,1388.96,1140,-1360,247650,-1.37675,19.2345,167.198,483,-240,173,167.198,-103,1887.3
872443,-93.0351,-102.911,1387.76,960,-1090,246620,-26.2356,33.6854,164.658,495,-221,174,164.658,-79,1869.37
872454,-94.7661,-100.408,1384.68,1100,-580,245680,-33.5614,48.0986,160.653,515,-223,176,160.653,-56,1870.37
872465,-97.164,-97.3586,1379.38,1150,160,245090,-44.6549,62.2404,155.774,532,-208,178,155.774,-31,1859.37
872476,-98.4437,-94.8522,1371.02,980,490,244920,-22.673,46.788,151.764,549,-201,180,151.764,-51,1847.28
872497,-98.4813,-94.2262,1347.23,1020,180,245170,20.4947,-20.6222,150.762,544,-215,183,150.762,-130,1862.2
872508,-96.5883,-96.5809,1330.68,1100,-140,245480,41.2628,-54.3873,154.529,539,-198,185,154.529,-173,1845.13
872514,-95.43,-98.2184,1321.48,980,-310,245820,38.6117,-54.585,157.149,524,-189,186,157.149,-175,1836
872525,-93.7702,-102.514,1304.15,720,-410,246280,31.9317,-84.009,164.022,500,-202,188,164.022,-202,1847.87
872536,-93.1295,-107.424,1284.79,390,-740,246710,6.79706,-89.8056,171.879,479,-199,190,171.879,-201,1846.77
872548,-92.472,-113.284,1261.38,40,-1320,247050,3.43482,-83.2296,181.254,455,-206,192,181.254,-203,1851.69
872559,-93.0317,-117.762,1238.43,-70,-1500,247250,-15.2105,-66.1616,188.419,436,-214,194,188.419,-185,1859.63
872570,-93.8653,-120.114,1213.02,-140,-1090,247290,-22.6422,-29.6048,190.761,418,-207,196,190.761,-186,1854.6
872575,-94.411,-120.6,1201.33,0,-460,247270,-21.8283,-19.4622,192.961,396,-206,197,192.961,-146,1853.53
872587,-95.9879,-120.009,1172.22,210,-80,247460,-23.3352,13.4657,192.014,378,-211,199,192.014,-115,1857.46
872620,-96.5763,-116.587,1079.9,1140,690,248430,1.08522,-0.819137,186.539,325,-220,203,186.539,-138,1866.43
872631,-96.6225,-118.603,1045.93,1060,400,248180,-7.08867,-43.6384,189.764,305,-220,205,189.764,-173,1890.72
872636,-96.8359,-120.397,1030.1,830,-20,247540,-8.53343,-71.7778,192.635,292,-196,206,192.635,-197,1879.48
872648,-98.0641,-126.419,992.841,380,-640,246680,-29.4594,-113.615,202.271,265,-171,208,202.271,-226,1884.39
872659,-100.292,-132.745,960.504,160,-1130,245780,-50.5211,-113.143,212.392,266,-127,210,212.392,-216,1872.33
872681,-108.226,-140.538,902.985,-370,-1100,244500,-86.7528,-36.5592,224.861,286,-73,212,224.861,-131,1857.13
872687,-110.916,-140.879,887.911,-480,-370,244250,-89.6646,-11.3695,225.407,279,-55,213,225.407,-108,1851.14
872698,-115.724,-138.795,860.456,-370,10,244200,-80.7373,47.9802,222.072,272,-37,215,222.072,-61,1855.05
872709,-118.834,-134.792,833.34,160,660,244230,-41.0462,77.1618,215.668,257,-14,217,215.668,-55,1853.72
872721,-120.287,-129.437,805.965,660,950,244170,-13.1273,86.3736,207.099,255,16,219,207.099,-58,1846.53
872731,-120.052,-126.229,785.341,760,870,244200,15.0206,57.5244,201.966,254,39,221,201.966,-93,1840.89
872743,-117.732,-124.675,761.721,720,440,244270,49.3026,18.7408,199.481,253,57,223,199.481,-144,1840.64
872749,-116.334,-124.462,750.404,990,-50,244360,46.6093,7.10978,199.139,253,68,224,199.139,-151,1838.56
872760,-112.938,-125.567,730.191,980,-520,244290,58.5588,-26.3878,200.908,239,81,226,200.908,-187,1840.62
872771,-109.317,-126.778,710.997,950,-940,244120,61.7759,-23.6454,202.845,230,99,228,202.845,-189,1839.84
872782,-107.106,-128.282,694.535,990,-900,243860,42.2861,-29.4681,205.25,229,116,230,205.25,-182,1834.86
872793,-106.462,-128.759,679.718,1140,-630,243670,1.8477,-9.26131,206.015,218,129,232,206.015,-141,1832.51
872804,-107.663,-129.344,666.615,860,-150,243580,-25.1418,-8.60196,206.95,204,127,234,206.95,-123,1844.86
872815,-110.502,-129.532,654.699,220,80,243750,-60.4312,-6.88081,206.976,178,131,236,206.976,-104,1846.1
872820,-111.917,-129.801,649.742,0,500,244190,-56.5773,-10.7419,207.681,161,142,237,207.681,-104,1843.16
872832,-115.419,-130.536,640.547,-60,530,244630,-59.7839,-18.1654,208.857,125,126,239,208.857,-110,1865.47
872855,-118.116,-132.966,626.316,510,30,245120,-12.9924,-34.3504,212.745,81,138,242,212.745,-156,1866.92
872861,-118.159,-134.261,623.863,610,-270,245350,-1.43947,-43.1719,214.817,91,159,243,214.817,-172,1847.83
872872,-117.826,-136.318,621.751,350,-470,245610,0.931274,-43.8119,218.11,85,148,245,218.11,-177,1859.46
872883,-117.05,-137.398,618.922,270,-520,245810,14.6768,-22.3827,219.836,85,155,247,219.836,-171,1857.7
872916,-113.576,-130.202,618.169,990,-300,245840,23.9888,90.3841,208.324,102,193,251,208.324,-80,1817.76
872922,-113.291,-126.421,618.6,1810,70,246110,9.49223,126.035,202.274,120,200,252,202.274,-38,1809.17
872933,-113.898,-119.258,619.863,2040,560,246430,-21.1595,135.788,190.813,135,195,254,190.813,-3,1812.88
872944,-117.108,-113.022,620.785,1460,1260,246710,-61.0052,98.7283,180.836,140,184,256,180.836,-1,1822.92
872967,-127.943,-106.816,619.154,150,1440,246490,-93.8497,23.9075,170.906,177,179,259,170.906,-33,1826.8
872978,-131.674,-106.73,615.807,-10,900,246060,-70.8149,10.0348,171.249,187,173,261,171.249,-76,1835.89
872983,-132.897,-107.514,614.143,170,240,245710,-48.9276,-31.3915,172.023,200,175,262,172.023,-102,1838.54
872995,-135.951,-109.497,609.353,100,-100,245690,-48.4792,-35.142,175.195,211,181,264,175.195,-106,1834.21
873007,-139.027,-112.016,604.53,-90,-440,246220,-61.0306,-34.2467,179.225,210,161,266,179.225,-101,1857.98
873019,-141.601,-113.244,597.365,-20,-370,247110,-40.4863,-14.5618,180.491,220,159,268,180.491,-106,1863.53
873025,-143.212,-113.328,593.82,630,-220,247990,-53.6942,-2.8078,181.325,211,172,269,181.325,-86,1856.54
873036,-145.43,-112.361,588.564,1130,80,248630,-44.5458,19.3707,179.777,197,173,271,179.777,-75,1857.71
873047,-148.478,-111.049,584.928,1100,320,249010,-61.7525,22.9705,177.678,183,175,273,177.678,-62,1860.62
873068,-156.949,-110.579,582.095,430,470,249130,-90.8361,5.15909,176.927,174,174,276,176.927,-62,1862.84
873079,-161.645,-111.088,582.351,290,270,249070,-95.5196,-9.75456,177.741,174,175,278,177.741,-71,1860.62
873090,-164.672,-111.244,582.435,-110,20,248970,-63.9023,-4.14815,177.824,175,156,280,177.824,-90,1879.5
873096,-165.161,-111.528,581.849,-260,-80,248800,-16.3156,-9.46974,178.444,160,139,281,178.444,-113,1898.23
873107,-165.139,-110.325,580.413,460,40,248430,12.44,22.6982,176.52,155,137,283,176.52,-100,1901.57
873119,-162.882,-108.11,578.318,1110,-40,247870,45.7104,36.623,172.975,139,126,285,172.975,-103,1914.47
873130,-160.736,-106.512,576.902,1560,-360,247450,37.9386,32.3812,170.419,106,127,287,170.419,-100,1916.88
873140,-159.491,-105.808,577.724,1720,-580,247260,17.0671,6.71633,169.293,83,155,289,169.293,-108,1888.4
873146,-159.93,-105.146,580.005,1640,-640,247080,-14.6534,22.0786,168.233,43,163,290,168.233,-76,1876.67
873162,-164.857,-104.647,591.843,830,-180,246960,-91.7055,1.88696,167.511,23,149,293,167.511,-58,1883.99
873167,-166.995,-104.075,595.734,170,580,246680,-85.5263,22.8598,166.521,23,160,294,166.521,-33,1868.22
873179,-172.876,-103.318,608.069,-100,1240,246420,-94.0119,13.4511,165.309,34,167,296,165.309,-32,1851.33
873202,-175.314,-103.499,631.717,-540,850,246480,38.8098,-16.0805,165.599,51,139,299,165.599,-131,1859.28
873213,-170.589,-104.425,640.148,10,60,246830,103.274,-12.2997,167.08,52,126,301,167.08,-167,1865.53
873219,-166.444,-104.818,644.355,960,-960,247120,138.181,-13.0941,167.709,49,107,302,167.709,-190,1880.22
873231,-157.573,-103.926,650.741,2040,-1630,247250,145.811,15.7411,166.282,70,114,304,166.282,-171,1869.18
873242,-152.438,-101.289,656.508,2310,-1410,247340,78.8083,48.0266,162.062,84,99,306,162.062,-105,1878.62
873253,-150.64,-97.371,660.414,2050,-390,247370,0.760048,77.4802,155.794,92,100,308,155.794,-33,1875.56
873263,-151.939,-93.7416,663.199,1430,400,247510,-46.6288,64.5165,149.987,86,90,310,149.987,-13,1884.42
873269,-153.528,-91.3765,664.802,850,440,247800,-52.9455,78.8365,146.202,73,100,311,146.202,5,1873.2
873280,-156.921,-88.5964,669.295,950,580,248060,-62.0258,49.0392,141.754,73,123,313,141.754,-11,1848.6
873291,-160.141,-86.3352,676.061,1080,590,248160,-51.2712,36.8939,138.136,90,127,315,138.136,-24,1835.05
873314,-167.586,-85.4769,690.704,860,1000,247790,-58.6542,-10.7173,136.763,89,102,318,136.763,-58,1848.14
873325,-171.941,-87.6111,697.1,100,950,247560,-74.6436,-41.354,140.178,89,77,320,140.178,-76,1868
873330,-172.782,-89.1188,698.766,-300,690,247570,-33.6469,-60.3063,142.59,96,69,321,142.59,-115,1874.71
873341,-173.684,-93.324,701.966,-390,10,247780,8.84867,-81.2657,149.318,86,57,323,149.318,-163,1885.23
873352,-172.628,-97.7799,704.919,-280,-680,247970,40.4762,-77.2012,156.448,82,56,325,156.448,-183,1883.97
873363,-168.621,-101.162,707.404,-110,-1040,248090,84.2781,-50.8946,161.86,96,64,327,161.86,-190,1875.07
873374,-163.483,-101.965,709.662,10,-1320,248130,100.116,-1.67756,163.144,111,57,329,163.144,-158,1878.32
873384,-157.548,-100.11,710.4,690,-1230,247860,124.433,48.2807,160.177,131,63,331,160.177,-127,1874.8
873395,-150.499,-95.4561,710.397,1450,-1010,247390,137.273,94.5143,152.73,175,91,332,152.73,-89,1849.8
873395,-150.499,-95.4561,710.397,1800,-480,246900,137.273,94.5143,152.73,219,96,332,152.73,-89,1838.64
873395,-150.499,-95.4561,710.397,1790,-230,246510,137.273,94.5143,152.73,228,70,332,152.73,-89,1865.6
873395,-150.499,-95.4561,710.397,1900,-140,246330,137.273,94.5143,152.73,234,76,332,152.73,-89,1859.6
873395,-150.499,-95.4561,710.397,2270,-160,246250,137.273,94.5143,152.73,234,76,332,152.73,-89,1858.57
873395,-150.499,-95.4561,710.397,2400,-190,246010,137.273,94.5143,152.73,240,90,332,152.73,-89,1845.51
873395,-150.499,-95.4561,710.397,2540,-140,245750,137.273,94.5143,152.73,224,90,332,152.73,-89,1844.42
873395,-150.499,-95.4561,710.397,2530,-150,245590,137.273,94.5143,152.73,190,89,332,152.73,-89,1847.33
873395,-150.499,-95.4561,710.397,2570,-200,245550,137.273,94.5143,152.73,175,91,332,152.73,-89,1844.23
873395,-150.499,-95.4561,710.397,2570,-150,245550,137.273,94.5143,152.73,191,104,332,152.73,-89,1833.12
873395,-150.499,-95.4561,710.397,2570,-80,245630,137.273,94.5143,152.73,227,108,332,152.73,-89,1825.93
873401,-147.767,-91.5724,710.201,2490,460,245710,91.0695,129.455,146.516,242,92,333,146.516,-31,1842.93
873401,-147.767,-91.5724,710.201,2370,1140,245790,91.0695,129.455,146.516,263,97,333,146.516,-31,1837.83
873401,-147.767,-91.5724,710.201,2640,1330,245800,91.0695,129.455,146.516,289,106,333,146.516,-31,1828.67
873401,-147.767,-91.5724,710.201,2730,1500,245760,91.0695,129.455,146.516,304,94,333,146.516,-31,1840.53
873401,-147.767,-91.5724,710.201,2860,1470,245750,91.0695,129.455,146.516,285,90,333,146.516,-31,1843.42
873401,-147.767,-91.5724,710.201,3000,1290,245700,91.0695,129.455,146.516,273,93,333,146.516,-31,1841.32
873401,-147.767,-91.5724,710.201,2930,1300,245720,91.0695,129.455,146.516,261,94,333,146.516,-31,1841.22
873401,-147.767,-91.5724,710.201,3050,1360,245920,91.0695,129.455,146.516,266,103,333,146.516,-31,1832.09
873401,-147.767,-91.5724,710.201,2960,1420,246320,91.0695,129.455,146.516,280,103,333,146.516,-31,1828.92
873401,-147.767,-91.5724,710.201,2760,1490,246890,91.0695,129.455,146.516,279,85,333,146.516,-31,1847.81
873401,-147.767,-91.5724,710.201,2680,1420,247390,91.0695,129.455,146.516,275,76,333,146.516,-31,1857.77
873401,-147.767,-91.5724,710.201,2820,1610,247740,91.0695,129.455,146.516,266,71,333,146.516,-31,1862.75
873401,-147.767,-91.5724,710.201,2720,1670,248090,91.0695,129.455,146.516,242,54,333,146.516,-31,1879.81
873401,-147.767,-91.5724,710.201,2640,1670,248330,91.0695,129.455,146.516,239,69,333,146.516,-31,1864.86
873401,-147.767,-91.5724,710.201,2610,1550,248500,91.0695,129.455,146.516,230,67,334,146.516,-31,1866.87
873656,-441.401,-797.803,532.621,1000,20,248500,-230.302,-553.906,440,220,69,335,440,-570,2008.39
873662,-458.053,-849.856,527.011,-6960,-3800,248650,-555.04,-1735.1,440,194,151,336,440,-410,1933.41
873662,-458.053,-849.856,527.011,-9580,-4340,248960,-555.04,-1735.1,440,183,184,336,440,-410,1897.64
873688,-516.378,-1061.54,530.602,-9470,-3830,251110,-435.277,-1618.53,440,172,150,338,440,-451,1922.99
873698,-508.116,-1108.9,537.751,-6460,-6200,254980,305.916,-762.35,440,168,134,340,440,-800,1946.7
873709,-465.075,-1124.86,541.509,2210,-8850,255660,876.86,-168.78,440,170,192,342,440,-800,1878.91
873721,-411.267,-1122.86,554.004,10080,-9600,254490,865.433,85.0327,440,178,175,344,440,-587,1885.99
873733,-376.401,-1104.4,568.63,12020,-7290,253480,463.413,347.419,440,180,161,346,440,-203,1888.44
873739,-373.074,-1092.83,575.226,9210,-2060,252520,110.931,385.65,440,181,148,347,440,-34,1896.3
873750,-387.307,-1072.32,588.283,1580,2150,251130,-376.48,356.533,440,195,145,349,440,148,1888.99
873773,-450.894,-1049.78,613.142,-8090,4810,248280,-497.12,96.2246,440,218,124,352,440,9,1890.39
873779,-460.806,-1049.49,618.859,-8650,2800,247630,-330.423,9.38224,440,211,121,353,440,-136,1888.94
873790,-462.386,-1045.76,630.271,-5850,60,247140,67.7762,46.9894,440,234,142,355,440,-286,1858.84
873800,-448.902,-1043.15,641.783,-580,-2310,246880,326.411,47.9049,440,247,116,357,440,-413,1873.62
873811,-423.315,-1036.24,653.11,3030,-3990,246750,490.929,144.054,440,257,100,359,440,-416,1882.64
873823,-396.294,-1024.71,664.34,4220,-4470,246880,425.759,231.903,440,255,140,361,440,-312,1836.62
873835,-376.983,-1002.03,680.754,4320,-2710,247080,293.931,435.094,440,269,140,363,440,-73,1822.3
873845,-369.697,-979.554,696.234,2650,-680,247310,100.761,469.478,440,301,198,365,440,-29,1756.03
873851,-368.241,-963.835,707.747,1660,1580,247090,48.559,523.99,440,340,190,366,440,121,1746.72
873863,-367.007,-926.613,729.688,-210,2760,247370,27.9442,663.048,440,393,207,368,440,252,1716.51
873874,-364.938,-886.441,748.867,-970,3770,248420,61.9224,765.412,440,426,226,370,440,326,1678.32
873885,-357.787,-842.871,769.507,-750,3560,249680,148.455,800.46,440,441,232,372,440,319,1652.83
873896,-344.841,-798.64,790.582,370,3420,250880,295.825,809.444,440,457,219,374,440,304,1657
873902,-335.188,-773.127,801.351,1330,2890,251440,321.763,850.434,440,466,235,375,440,294,1625.23
873913,-311.859,-723.109,823.361,2540,2360,251450,468.86,933.663,440,483,273,377,440,310,1600
873925,-282.42,-662.652,852.536,4280,2750,251680,522.593,1004.21,440,519,301,379,440,349,1600
873937,-253.486,-597.383,885.198,6260,4200,252530,480.978,1097.12,440,560,294,381,440,451,1600
873948,-230.143,-536.557,913.567,7380,5900,253270,414.919,1109.91,440,590,258,383,440,475,1600
873954,-219.096,-504.545,926.954,7780,6750,253340,368.21,1067.06,440,604,208,384,440,472,1600
873965,-201.416,-449.891,946.786,7370,6790,253290,310.088,979.635,440,599,119,386,440,410,1608.25
873975,-190.273,-408.108,957.268,5930,6110,252820,192.194,800.242,440,589,38,388,440,288,1681.89
873987,-182.058,-367.978,959.969,4190,5080,252400,121.193,643.135,440,561,-18,390,440,168,1734.04
873993,-179.611,-351.718,958.927,2300,3630,251930,81.5691,541.993,440,537,-63,391,440,90,1780.44
874005,-176.259,-326.082,953.163,1230,2260,251310,43.0386,400.332,440,524,-80,393,440,-25,1801.76
874017,-173.233,-306.741,944.804,330,860,250770,50.1418,302.381,440,497,-94,395,440,-118,1825.29
874029,-168.711,-286.687,936.061,760,200,250320,66.1891,343.518,440,472,-107,397,440,-87,1845.22
874035,-166.241,-276.707,931.437,1140,320,250220,82.3483,332.668,440,447,-103,398,440,-104,1844.91
874058,-159.28,-239.896,917.844,2150,970,249820,32.3392,303.499,383.833,418,-100,401,383.833,-59,1851.79
874069,-158.887,-226.727,912.622,1820,930,249620,-4.89292,238.305,362.763,410,-93,403,362.763,-83,1851.01
874075,-159.627,-221.046,910.256,1510,610,249500,-24.6775,189.353,353.674,394,-98,404,353.674,-111,1854.92
874087,-162.982,-213.878,906.221,850,170,249650,-71.8439,110.357,342.204,375,-115,406,342.204,-151,1876.26
874110,-173.645,-209.091,898.64,390,-780,249700,-107.885,0.738649,334.546,366,-105,408,334.546,-229,1870.5
874120,-180.713,-208.76,895.973,-400,-910,249510,-136.072,-8.37016,334.016,358,-109,410,334.016,-223,1879.8
874131,-189.679,-208.307,892.683,-1490,-1050,249340,-174.278,12.6834,333.292,352,-108,412,333.292,-185,1880.58
874137,-194.022,-207.436,890.964,-2470,-1130,249320,-144.763,29.0407,331.898,360,-112,413,331.898,-180,1888.16
874161,-202.32,-195.201,883.216,-1010,-1200,249100,-22.3529,163.346,312.322,348,-97,416,312.322,-91,1878.69
874161,-202.32,-195.201,883.216,320,-420,249030,-22.3529,163.346,312.322,353,-91,416,312.322,-91,1873.84
874179,-202.967,-174.727,878.622,740,-390,249050,-6.64548,236.609,279.563,375,-73,418,279.563,-1,1858.59
874190,-205.144,-161.594,876.431,940,680,249010,-50.2896,236.455,258.55,387,-77,420,258.55,35,1864.41
874211,-213.813,-141.366,870.96,-640,1500,248530,-93.6462,151.8,226.185,408,-62,422,226.185,8,1852.89
874223,-217.923,-135.416,867.244,-1190,1270,247900,-59.7535,77.4548,216.665,430,-66,424,216.665,-61,1860.91
874229,-218.822,-132.732,864.908,-1080,600,247220,-29.9729,89.4536,212.371,440,-73,425,212.371,-59,1869.85
874239,-218.063,-129.687,859.66,-530,180,246360,31.2304,57.2224,207.499,456,-77,427,207.499,-109,1878.19
874263,-208.037,-125.312,841.929,1120,-240,244940,102.869,20.2364,200.499,494,-46,430,200.499,-167,1861.54
874274,-202.971,-125.965,833.12,1460,-960,244790,74.5776,-21.02,200.704,490,-46,432,200.704,-191,1866.28
874279,-201.433,-126.706,828.738,1210,-1780,244930,61.4949,-29.6268,202.729,499,-42,433,202.729,-193,1868.26
874291,-199.977,-128.977,818.217,710,-1940,245280,10.0029,-34.423,206.364,507,-42,435,206.364,-178,1877.81
874302,-202.888,-129.889,806.407,50,-1390,245760,-69.2583,-13.2381,207.822,510,-39,437,207.822,-123,1885.42
874313,-208.049,-128.354,794.387,-740,-380,246130,-100.89,35.8949,205.366,505,-32,439,205.366,-64,1886.21
874324,-214.401,-124.989,782.769,-900,840,246340,-105.683,68.973,199.983,477,-14,441,199.983,-29,1877.67
874330,-217.325,-122.908,777.221,-770,1670,246380,-97.4724,69.3849,196.652,467,6,442,196.652,-29,1862.21
874342,-220.663,-120.049,768.671,-560,1610,246300,-37.0441,35.926,192.079,469,9,444,192.079,-82,1865.11
874352,-220.292,-120.067,762.432,220,930,246170,24.1353,-23.3179,192.107,481,5,446,192.107,-162,1875.2
874375,-214.067,-129.619,742.79,650,-1840,245650,56.2347,-109.276,207.39,470,0,449,207.39,-266,1897.31
874386,-213.102,-134.837,733.697,540,-2260,245320,10.4955,-75.4797,212.117,468,11,451,212.117,-264,1889.17
874391,-213.807,-136.53,729.636,-20,-1900,245070,-28.1884,-67.7061,218.448,457,19,452,218.448,-198,1890.25
874403,-217.707,-137.484,722.077,-410,-840,245060,-74.5959,-7.46717,219.974,444,27,454,219.974,-124,1886.48
874415,-223.967,-134.274,716.017,-1010,220,245190,-110.744,72.7648,214.838,425,25,456,214.838,-31,1890.5
874427,-228.511,-129.796,710.001,-1070,850,245430,-60.2137,95.6468,207.674,402,22,458,207.674,-28,1901.57
874433,-229.442,-127.416,707.68,-330,1220,245670,-31.0522,79.3345,203.866,381,33,459,203.866,-52,1892.65
874445,-229.236,-123.84,704.387,210,880,245890,12.7811,54.976,198.144,368,35,461,198.144,-91,1894.49
874466,-226.354,-122.943,701.13,780,-20,246480,23.6563,-17.881,196.709,356,44,464,196.709,-162,1887.51
874477,-226.241,-125.241,701.038,710,-630,246600,-1.71956,-44.3264,200.386,378,61,466,200.386,-178,1870.71
874483,-226.574,-126.988,701.535,230,-800,246550,-11.0906,-58.2223,203.181,396,87,467,203.181,-190,1846.35
874494,-228.963,-130.441,704.41,-340,-940,246410,-51.1047,-64.5946,208.705,409,97,469,208.705,-182,1831.97
874505,-233.288,-133.738,708.883,-1160,-1070,246310,-94.2341,-49.8409,213.98,412,86,471,213.98,-153,1839.3
874517,-237.8,-135.064,714.235,-1160,-870,246230,-79.6887,-7.24808,216.103,417,88,473,216.103,-122,1833.95
874528,-240.702,-133.743,719.903,-820,-740,246120,-47.9855,37.1296,213.99,426,69,475,213.99,-93,1847.34
874539,-242.042,-130.469,724.309,30,-430,246010,-15.0945,60.6722,208.751,421,60,477,208.751,-82,1851.81
874549,-242.69,-125.928,728.468,180,130,245940,-13.5398,87.6115,201.485,431,61,479,201.485,-52,1848.48
874555,-243.141,-123.437,731.16,340,540,246020,-15.0337,83.0185,197.5,449,69,480,197.5,-52,1839.28
874567,-243.188,-118.642,736.535,110,500,246050,1.73299,73.184,189.827,483,60,482,189.827,-61,1841.91
874579,-242.773,-115.49,739.212,370,350,246010,-16.0484,44.1107,184.784,493,62,484,184.784,-75,1839.73
874590,-239.924,-112.56,742.994,270,330,245880,49.9528,41.8795,182.106,481,49,486,182.106,-84,1849.23
874596,-239.35,-112.235,744.227,150,-10,245830,19.1234,10.833,179.576,493,37,487,179.576,-116,1859.68
874606,-236.699,-110.442,746.321,280,-150,245700,43.746,15.3716,176.707,508,31,489,176.707,-121,1863.05
874617,-233.63,-108.609,746.73,430,-320,245610,59.8807,27.9071,173.774,519,24,491,173.774,-115,1869.8
874629,-229.99,-107.36,745.089,730,-380,245570,59.0687,11.8284,171.775,533,18,493,171.775,-127,1878.24
874640,-226.829,-105.223,742.658,690,-560,245580,63.9516,27.1112,168.356,542,18,494,168.356,-113,1880.31
874651,-224.476,-102.162,739.987,760,-280,245570,39.2158,45.0257,163.459,528,17,496,163.459,-83,1883.6
874657,-223.92,-100.065,738.508,700,360,245670,18.534,69.9003,160.104,528,24,497,160.104,-48,1876.91
874668,-223.584,-95.907,736.745,580,1040,245800,-1.8828,79.6422,153.451,528,24,499,153.451,-25,1880.48
874680,-223.66,-92.1747,735.31,580,1420,245960,-29.7001,39.3573,147.479,511,27,501,147.479,-44,1877.75
874691,-223.36,-89.4221,735.574,270,1110,246120,11.0597,48.649,143.075,505,29,503,143.075,-50,1875.66
874697,-222.343,-89.5837,736.277,820,680,246110,33.8929,-5.38487,143.334,507,35,504,143.334,-109,1871.2
874709,-219.674,-90.5829,737.385,1490,160,245860,50.0201,-26.5679,144.933,509,54,506,144.933,-137,1849.34
874732,-219.034,-99.0678,746.235,1070,-1150,245400,-24.1263,-79.9035,158.508,526,67,509,158.508,-162,1829
874738,-220.034,-102.02,749.236,70,-1240,245220,-33.3061,-98.4031,163.232,511,45,510,163.232,-178,1848.54
874749,-225.181,-107.255,751.862,-1060,-1000,245040,-80.2123,-61.8179,171.607,503,49,512,171.607,-130,1843.4
874760,-230.846,-109.051,755.665,-990,-150,244910,-103.176,-29.6333,174.481,522,63,514,174.481,-92,1825.26
874771,-235.651,-108.331,760.428,-610,240,244890,-77.7931,23.7243,173.33,533,63,516,173.33,-54,1820.29
874782,-238.896,-105.674,764.445,-340,670,244920,-48.5492,52.0851,169.078,533,41,518,169.078,-38,1836.96
874803,-242.173,-100.174,766.2,310,1100,244570,-21.0426,47.0391,160.278,525,35,521,160.278,-47,1845.55
874814,-242.951,-100.425,767.593,-150,430,244140,-0.778093,-11.9953,160.681,505,35,523,160.681,-108,1843.4
874825,-244.193,-103.105,770.427,-510,-330,243700,-12.9375,-61.76,162.004,501,50,525,162.004,-110,1828.73
874831,-244.47,-104.084,773.254,-870,-770,243460,-9.26155,-32.6185,166.534,496,61,526,166.534,-124,1812.6
874842,-244.057,-104.548,779.841,-740,-250,243560,14.0237,-5.70234,167.276,500,60,528,167.276,-111,1808.12
874865,-239.193,-98.709,793.226,310,660,244800,71.2783,73.9468,157.934,500,30,531,157.934,-63,1826.03
874871,-236.769,-96.8341,795.416,1180,730,245570,80.7853,62.4984,154.934,481,2,532,154.934,-76,1852.23
874882,-231.126,-94.0847,799.177,1940,530,246340,112.341,31.917,150.536,472,7,534,150.536,-115,1846.22
874893,-227.528,-93.6268,803.232,1930,230,247030,75.7347,-7.69106,149.803,483,20,536,149.803,-135,1829.9
874916,-228.849,-101.129,811.572,920,-350,248110,-50.687,-99.3003,161.806,519,1,539,161.806,-181,1841.08
874926,-232.223,-106.531,812.9,80,-560,248510,-71.3833,-124.158,170.45,529,-8,541,170.45,-205,1846.98
874932,-234.391,-109.721,813.437,-670,-1020,248690,-72.2614,-106.327,175.554,533,-16,542,175.554,-194,1855.56
874943,-238.661,-115.686,812.265,-900,-940,248750,-70.1728,-100.989,185.097,547,-9,544,185.097,-200,1850.52
874966,-243.689,-123.139,809.461,-420,-460,248730,-22.3638,-34.9166,197.023,589,-2,547,197.023,-167,1845.65
874977,-243.673,-124.531,806.24,-160,-20,248570,14.8342,-13.5927,199.249,596,-7,549,199.249,-164,1852.21
874983,-243.115,-125.058,804.041,110,60,248170,18.5914,-17.5739,200.093,595,-18,550,200.093,-170,1865.01
874994,-241.862,-126.439,799.011,170,-120,247770,24.6524,-32.014,202.303,591,-24,552,202.303,-187,1876.14
875028,-235.854,-132.131,780.058,1270,-990,246770,12.5954,-17.8887,211.41,576,-9,556,211.41,-175,1881.8
875039,-236.612,-132.889,776.168,980,-810,246610,-24.463,-2.84084,212.623,582,10,558,212.623,-147,1860.99
875045,-238.594,-133.063,774.652,460,-530,246570,-66.0528,-5.78542,212.9,574,7,559,212.9,-130,1864.24
875068,-250.299,-133.424,770.619,-550,260,246820,-122.017,-12.5487,213.478,572,26,562,213.478,-112,1849.56
875078,-255.727,-132.931,770.385,-570,440,246980,-111.414,4.70792,212.69,577,36,564,212.69,-101,1840.71
875090,-260.878,-134.672,771.311,-590,270,246990,-77.6978,-35.7277,215.475,583,32,566,215.475,-156,1841.9
875096,-262.998,-135.175,771.491,-350,-110,246950,-70.6495,-16.7739,216.28,578,24,567,216.28,-140,1849.73
875107,-265.144,-137.524,771.267,40,-600,246890,-32.9137,-44.5091,220.039,577,26,569,220.039,-184,1849.91
875118,-266.794,-140.743,771.161,150,-1050,246780,-29.6734,-63.3011,225.19,580,20,571,225.19,-206,1855
875129,-268.371,-143.929,771.074,-110,-1650,246710,-40.1015,-38.1163,230.287,591,28,573,230.287,-183,1847.06
875141,-270.879,-145.763,770.976,-500,-1550,246710,-45.6108,-20.8689,233.221,593,22,575,233.221,-167,1853.14
875147,-272.621,-145.85,770.615,-580,-1110,246720,-58.048,-2.89815,233.36,608,24,576,233.36,-146,1851.43
875158,-276.288,-143.664,769.131,-410,-360,246780,-70.9768,54.5829,229.862,622,25,578,229.862,-84,1851.61
875169,-279.041,-140.323,766.764,-100,90,246910,-50.9238,68.527,224.517,618,11,580,224.517,-76,1867.55
875202,-285.161,-132.637,753.423,-640,0,246800,-20.3033,29.6685,212.219,592,0,584,212.219,-111,1889.65
875213,-285.706,-132.604,749.497,-650,-560,246690,-10.1257,10.2652,212.659,589,22,586,212.659,-153,1871.49
875219,-285.928,-132.659,748.112,-530,-1090,246710,-7.38508,-1.84747,212.255,581,26,587,212.255,-144,1869.12
875229,-285.708,-132.1,746.578,-440,-1110,246840,1.87986,20.6065,211.36,575,25,589,211.36,-127,1869.43
875241,-285.927,-129.288,745.633,-510,-570,247240,1.80469,60.0697,206.861,565,17,591,206.861,-89,1879.31
875263,-286.629,-120.129,745.158,300,700,248720,-6.29401,87.1581,192.206,537,34,594,192.206,-51,1862.89
875269,-286.362,-118.244,746.192,490,830,249660,8.89827,62.8352,189.19,516,29,595,189.19,-78,1866.1
875281,-284.4,-116.345,750.241,590,270,250510,31.1359,18.676,186.153,482,17,597,186.153,-128,1875.95
875292,-281.798,-117.132,754.467,610,-130,251120,60.0979,-28.9983,187.411,449,10,599,187.411,-185,1879.69
875302,-279.665,-119.471,759.593,1150,-700,251290,45.9527,-49.1269,191.153,422,9,601,191.153,-205,1877.73
875313,-278.71,-122.913,767.734,1100,-1160,251220,8.15129,-59.0616,196.661,424,18,603,196.661,-208,1861.29
875324,-280.704,-126.263,777.238,280,-1330,250880,-43.4197,-56.5284,202.021,435,14,605,202.021,-193,1856.71
875330,-283.082,-127.599,782.544,-130,-1310,250470,-79.276,-44.5198,204.158,453,8,606,204.158,-169,1859.5
875341,-288.738,-128.993,791.119,-740,-1080,250160,-104.784,-15.5666,206.389,460,0,608,206.389,-132,1860.66
875352,-295.702,-128.611,799.002,-970,-270,249870,-128.616,18.2147,205.777,463,0,610,205.777,-90,1854.39
875374,-305.729,-125.592,814.358,-790,560,249600,-63.9305,21.2896,200.948,475,8,613,200.948,-102,1834.03
875386,-307.569,-125.709,822.728,-260,470,249630,-21.0064,-5.21754,201.135,479,-7,615,201.135,-142,1841.25
875392,-307.45,-126.89,826.271,200,10,249770,3.968,-39.3463,203.024,490,-17,616,203.024,-185,1849.39
875403,-306.31,-129.892,830.527,630,-720,249780,23.952,-61.1263,207.828,528,-14,618,207.828,-217,1841.94
875414,-305.465,-134.712,832.956,560,-1440,249640,10.4267,-92.1748,215.539,561,-18,620,215.539,-250,1844.95
875425,-306.378,-140.456,832.965,100,-1890,249480,-23.0931,-96.1926,224.73,583,-16,622,224.73,-250,1842.9
875436,-309.329,-145.419,831.569,-510,-2150,249520,-65.5099,-83.1313,232.67,604,-26,624,232.67,-228,1852.99
875447,-313.945,-148.455,827.044,-1200,-1910,249540,-88.9619,-46.0914,237.529,621,-46,626,237.529,-191,1877.68
875453,-316.757,-148.488,823.361,-1380,-1360,249540,-93.7214,-1.08418,237.581,645,-28,627,237.581,-147,1863.71
875464,-321.066,-146.437,816.143,-1040,-700,249520,-74.9073,61.3264,234.3,659,-6,629,234.3,-92,1846.49
875475,-323.524,-141.566,810.18,-440,0,249450,-30.6673,91.9733,226.506,676,8,631,226.506,-70,1837.2
875487,-325.178,-135.991,803.531,-80,440,249510,-14.8106,97.3792,217.586,688,2,633,217.586,-61,1848.47
875498,-324.785,-131.949,795.368,690,750,249690,17.2913,70.2917,211.118,695,5,635,211.118,-93,1852.99
875503,-324.219,-131.099,791.891,1380,680,249700,22.6343,34.0081,209.758,704,28,636,209.758,-128,1831.71
875515,-323.849,-130.459,784.94,1220,90,249510,-1.79199,-10.1021,208.734,704,17,638,208.734,-160,1847.2
875526,-326.665,-133.729,777.501,440,-630,249280,-70.0468,-87.5686,213.966,718,35,640,213.966,-214,1838.11
875549,-338.625,-143.58,764.933,-1480,-1820,248780,-115,-69.1257,229.728,743,59,643,229.728,-189,1821.95
875560,-345.702,-145.287,760.185,-1990,-1540,248460,-121.284,-17.3833,231.625,763,73,645,231.625,-161,1810.49
875565,-348.221,-144.831,758.536,-1870,-840,248010,-100.771,18.2281,231.73,781,64,646,231.73,-111,1821.7
875577,-352.415,-140.672,752.778,-1500,20,247730,-54.0866,85.4271,225.076,776,44,648,225.076,-57,1845.22
875599,-351.59,-127.599,741.545,470,1600,247910,39.9684,109.116,204.159,734,59,651,204.159,-50,1837.09
875611,-347.674,-123.606,738.791,1140,950,248560,56.3054,40.4485,199.711,699,33,653,199.711,-75,1867.25
875621,-345.023,-123.78,737.164,1360,20,249070,42.6221,-3.29251,197.916,673,36,655,197.916,-161,1867.55
875627,-343.479,-125.191,736.937,1290,-420,249310,51.4443,-47.0423,200.305,664,41,656,200.305,-202,1862.94
875638,-343.619,-128.898,738.493,990,-710,249430,-2.87101,-68.1809,206.237,663,48,658,206.237,-211,1852.71
875661,-353.131,-137.196,745.521,-340,-1010,249690,-114.847,-67.4068,219.514,636,28,661,219.514,-184,1868.18
875667,-356.209,-138.576,748.237,-1060,-950,249550,-102.579,-45.9926,221.722,639,37,662,221.722,-170,1858.07
875678,-362.723,-139.441,753.535,-1410,-530,249020,-114.076,-2.98842,223.106,640,36,664,223.106,-129,1853.83
875689,-368.1,-137.781,760.101,-1370,90,248200,-62.7172,52.553,220.449,644,22,666,220.449,-86,1861.59
875712,-374.464,-126.962,774.869,-290,810,246690,-44.9414,106.455,203.139,613,39,669,203.139,-16,1833.79
875723,-373.922,-121.91,785.94,-230,870,246070,7.37946,103.484,200.023,635,46,671,200.023,-60,1822.7
875729,-373.038,-119.57,791.911,160,1060,245500,29.4788,78.0062,191.312,657,39,672,191.312,-56,1818.84
875739,-371.041,-115.535,800.522,500,1150,244830,39.4344,90.8426,184.856,667,27,674,184.856,-42,1823.8
875762,-362.992,-111.563,816.215,830,570,243240,74.9396,0.605957,178.501,684,9,677,178.501,-130,1830.01
875774,-358.777,-113.838,822.826,520,-80,242800,70.0335,-45.8939,182.141,694,28,679,182.141,-171,1805.55
875779,-357.023,-114.77,826.536,-30,-660,242830,70.1403,-37.2688,183.632,695,29,680,183.632,-164,1800.33
875790,-352.708,-118.137,834.867,-200,-1050,243350,71.7784,-61.7209,189.019,715,20,682,189.019,-193,1803.41
875801,-348.289,-119.703,841.773,80,-1260,244170,78.2854,-19.3794,191.525,734,11,684,191.525,-163,1805.65
875812,-343.362,-119.637,846.485,840,-1130,245110,75.7118,15.4614,191.42,750,15,686,191.42,-134,1798.64
875823,-339.415,-117.512,851.318,1450,-470,246050,60.6078,38.8571,188.02,764,11,688,188.02,-106,1797.51
875834,-337.477,-115.308,855.339,1500,-160,246750,20.2983,38.4105,184.493,761,5,690,184.493,-90,1800.03
875845,-338.765,-113.215,857.882,990,200,247270,-36.9752,32.3027,182.695,750,-6,692,182.695,-72,1810.93
875851,-340.328,-112.895,858.888,50,460,247780,-52.1151,10.6693,180.633,751,-26,693,180.633,-87,1828.8
875863,-344.397,-112.983,859.917,-660,440,248330,-70.8503,1.2465,180.772,758,-33,695,180.772,-91,1834.88
875874,-347.15,-115.274,858.065,-1030,160,248770,-35.5236,-44.1875,184.438,768,-43,697,184.438,-152,1847.33
875886,-347.84,-118.724,854.105,-550,-390,249030,9.02639,-64.4401,189.958,767,-52,699,189.958,-194,1858.5
875897,-346.06,-122.233,847.938,190,-800,249050,36.0787,-65.0857,192.449,756,-65,701,192.449,-202,1873.82
875902,-345.286,-123.872,844.774,770,-1050,248920,30.9332,-65.536,198.195,753,-66,702,198.195,-211,1882.21
875914,-343.774,-127.258,836.237,950,-1020,248690,34.4067,-51.0457,203.613,752,-51,704,203.613,-204,1873.17
875925,-344.507,-130.075,829.406,750,-1040,248360,-21.9022,-39.016,208.12,752,-42,706,208.12,-176,1868.73
875937,-348.383,-133.058,822.797,110,-780,248030,-83.3478,-49.0485,210.539,747,-43,708,210.539,-179,1872.44
875947,-353.249,-134.901,817.389,-560,-470,247830,-105.645,-20.0974,215.038,740,-35,710,215.038,-168,1870.64
875953,-356.587,-135.802,814.359,-770,10,247680,-111.26,-30.0196,217.283,740,-20,711,217.283,-138,1859.07
875965,-362.318,-137.337,809.241,-900,180,247350,-93.4761,-23.0547,219.739,745,-16,713,219.739,-139,1859.19
875976,-366.971,-139.21,804.757,-940,210,247090,-87.5091,-35.0339,222.736,753,-13,715,222.736,-153,1860.84
875998,-370.747,-145.058,793.229,-840,-260,247060,-1.81941,-68.1707,232.093,761,-42,718,232.093,-222,1897.36
876009,-370.199,-148.614,784.747,-630,-890,247200,35.7134,-62.218,234.796,766,-31,720,234.796,-218,1890.98
876019,-368.715,-152.223,778.385,-170,-1460,247390,26.5571,-52.5068,241.457,766,-6,722,241.457,-267,1874.48
876025,-367.074,-154.311,775.238,-60,-1900,247530,54.6759,-69.5921,246.897,762,5,723,246.897,-261,1868.23
876036,-367.207,-155.401,770.432,100,-1690,247670,-38.2535,-12.9591,248.642,775,22,725,248.642,-177,1856.12
876058,-366.827,-151.434,765.823,-150,-990,248040,-18.2251,49.2401,242.294,813,28,728,242.294,-121,1850.77
876070,-368.639,-146.062,762.141,60,-570,248250,-31.5465,87.9955,233.699,812,21,730,233.699,-73,1860.73
876075,-368.858,-144.062,760.008,260,-220,248470,-8.74731,80.0113,230.498,818,23,731,230.498,-86,1860.5
876087,-370.894,-137.162,754.923,110,-30,248740,-35.5094,119.162,219.46,814,16,733,219.46,-31,1871.62
876120,-379.077,-121.153,745.599,40,510,248950,-23.1161,56.9876,193.845,779,47,737,193.845,-72,1849.21
876126,-380.711,-119.922,746.068,200,-50,248410,-54.4728,41.0341,191.875,779,60,738,191.875,-74,1834.79
876138,-384.608,-118.46,747.326,-490,-210,248030,-73.4072,12.2501,189.536,781,50,740,189.536,-88,1840.7
876150,-388.447,-116.291,748.001,-950,120,248040,-56.5146,39.539,186.065,773,42,742,186.065,-63,1851.17
876162,-391.287,-113.589,747.763,-690,520,248330,-40.4397,54.6818,181.743,777,55,744,181.743,-51,1838.31
876168,-392.479,-111.857,748.436,-490,780,248880,-39.7596,57.73,178.972,772,40,745,178.972,-48,1852.75
876179,-393.85,-108.718,748.427,80,780,249470,-26.9146,57.5648,173.948,763,28,747,173.948,-50,1864.79
876191,-394.962,-106.919,746.968,390,780,249670,-33.3624,11.9121,171.071,757,22,748,171.071,-92,1872.05
876203,-398.569,-106.778,744.962,140,370,249550,-73.7225,-7.44481,170.488,751,6,750,170.488,-85,1887.72
876209,-401.096,-107.291,744.055,-480,170,249160,-84.2273,-17.0766,171.665,734,0,751,171.665,-101,1896.73
876219,-406.622,-109.74,741.513,-1200,70,248510,-138.262,-70.8505,175.583,731,4,753,175.583,-135,1895.99
876243,-417.136,-116.696,738.511,-2220,-560,247400,-49.0812,-54.6501,186.714,720,-5,756,186.714,-150,1906.85
876253,-417.269,-117.853,737.047,-1200,-590,247070,10.1495,-3.99556,188.405,704,8,758,188.405,-150,1895.96
876259,-415.62,-116.868,738.025,-20,-420,246780,54.9643,32.8097,186.99,696,5,759,186.99,-104,1897.72
876270,-411.994,-114.856,739.37,1020,-10,246410,62.2215,43.202,183.77,690,-2,761,183.77,-94,1903.88
876282,-409.022,-112.079,740.175,1460,490,246020,31.5718,41.7413,179.326,674,7,763,179.326,-78,1894.48
876314,-415.98,-115.2,752.228,-630,-50,244400,-65.8368,-69.7692,184.319,653,5,767,184.319,-139,1886.25
876325,-419.759,-118.712,756.164,-1520,-490,243960,-62.2979,-63.3585,187.405,651,13,769,187.405,-132,1878.71
876331,-421.405,-120.277,758.276,-2010,-440,243630,-54.8609,-52.1732,192.443,660,18,770,192.443,-130,1869.66
876342,-420.95,-121.935,763.424,-1250,-270,243400,13.5793,-22.8231,195.096,669,33,772,195.096,-133,1852.57
876365,-408.9,-123.03,776.043,320,-390,243100,129.953,-2.22424,196.848,681,44,774,196.848,-165,1829.37
876376,-401.118,-123.665,783.514,960,-780,242990,150.148,-14.2892,197.863,685,46,776,197.863,-187,1821.25
876382,-397.61,-124.023,787.707,1210,-1140,242810,116.913,-11.9372,198.436,715,47,777,198.436,-171,1815.72
876393,-394.024,-123.469,794.98,660,-560,242540,60.2194,4.24063,197.551,746,36,779,197.551,-132,1820.72
876405,-393.888,-122.419,800.841,330,270,242390,-16.0662,18.77,195.87,765,24,781,195.87,-82,1827.88
876417,-393.959,-121.703,803.526,-280,890,242380,-4.63851,18.4292,195.61,779,9,783,195.61,-101,1842.69
876422,-393.655,-122.338,804.019,-590,930,242530,12.1663,-25.3954,195.741,792,-8,784,195.741,-134,1857.23
876434,-390.66,-124.851,801.175,-440,70,242700,57.6263,-45.3678,199.762,792,-23,786,199.762,-177,1874.59
876445,-385.307,-129.049,796.594,0,-820,242770,102.662,-80.7569,206.479,788,-20,788,206.479,-236,1878.38
876456,-379.23,-132.405,792.03,390,-1610,242750,100.86,-49.4879,211.849,778,-17,790,211.849,-213,1877.15
876468,-373.352,-133.975,788.549,650,-1380,242940,98.3254,-1.99577,214.36,776,0,792,214.36,-173,1863.02
876474,-370.741,-133.17,788.459,830,-970,243200,87.0214,26.8389,213.072,758,5,793,213.072,-141,1858.11
876485,-367.184,-130.722,789.573,860,-390,243350,57.1799,48.2094,209.156,751,13,795,209.156,-107,1849.23
876497,-365.155,-126.552,791.879,580,390,243330,29.7237,71.8493,202.483,758,28,797,202.483,-69,1831.31
876509,-363.394,-122.591,795.54,80,740,243210,23.6614,69.5428,199.484,775,14,799,199.484,-77,1844.43
876515,-362.371,-120.729,795.676,-260,820,243160,34.0926,62.0486,193.167,799,18,800,193.167,-71,1839.13
876527,-359.237,-118.951,796.146,-320,500,243180,55.6733,36.8726,190.322,816,13,802,190.322,-101,1843.69
876539,-353.995,-117.479,794.174,-30,570,243200,99.1317,17.2469,187.967,820,11,804,187.967,-136,1846.22
876545,-350.248,-117.307,792.891,660,310,243120,124.883,5.73383,187.692,826,25,805,187.692,-158,1837.19
876557,-342.139,-117.074,791.477,1340,200,242970,143.772,-6.24081,187.319,829,10,807,187.319,-177,1848.25
876569,-334.134,-118.619,789.172,1450,0,242810,125.923,-34.8883,189.791,831,-5,809,189.791,-199,1867.12
876580,-327.709,-122.491,785.186,900,-520,242710,101.966,-73.3047,195.985,832,-7,811,195.985,-230,1872.39
876590,-322.996,-126.898,781.767,220,-1100,242670,78.6164,-74.8641,203.037,815,-19,813,203.037,-227,1887.26
876596,-320.733,-129.045,779.628,-140,-1190,242620,75.4532,-71.5686,206.473,795,-5,814,206.473,-227,1874.11
876607,-316.268,-132.555,776.612,-130,-1000,242610,83.2531,-61.1796,212.089,796,-3,816,212.089,-227,1876.63
876619,-311.256,-131.833,774.741,190,-230,242720,89.5302,11.9539,210.934,789,-6,818,210.934,-163,1880.25
876630,-306.462,-129.55,772.595,790,490,243090,97.8008,44.6983,207.28,779,-1,820,207.28,-135,1879.1
876641,-301.845,-127.157,771.27,1460,780,243500,75.4407,42.3839,203.451,765,-6,822,203.451,-126,1882.28
876647,-299.095,-126.646,770.988,1640,660,243930,91.6497,17.0354,202.633,749,-1,823,202.633,-156,1880.65
876659,-295.894,-129.11,771.177,890,80,244280,57.7492,-70.5738,206.576,718,0,825,206.576,-227,1877.62
876671,-295.938,-133.677,774.235,-20,-700,244560,-2.37197,-93.9593,213.883,713,2,827,213.883,-231,1873.28
876677,-296.611,-136.759,775.946,-690,-1360,244920,-22.4318,-102.733,218.814,703,-2,828,218.814,-237,1875.01
876688,-297.347,-141.845,779.634,-1180,-1660,245280,-12.2006,-78.9686,226.952,698,3,830,226.952,-229,1868.14
876712,-294.835,-143.162,789.391,-1080,-1020,245630,40.9205,51.4673,229.059,681,-4,833,229.059,-134,1866.46
876723,-290.728,-138.528,793.87,0,-300,245600,70.0998,102.981,226.588,672,4,835,226.588,-137,1858.79
876728,-288.226,-136.211,796.601,760,160,245590,100.072,92.691,217.937,677,14,836,217.937,-109,1844.71
876740,-282.084,-129.29,804.391,1510,520,245620,90.8688,115.293,206.865,681,10,838,206.865,-76,1839.39
876751,-277.835,-124.835,811.735,1460,700,245680,58.0948,74.9161,199.737,691,2,840,199.737,-94,1842.46
876773,-275.564,-123.147,823.065,400,340,245670,-3.49529,-30.438,197.035,714,-14,843,197.035,-166,1850.32
876779,-276.127,-125.029,825.054,-160,-420,245700,-18.7771,-62.7372,200.047,735,-12,844,200.047,-193,1846.69
876791,-277.618,-130.092,828.222,-440,-1080,245920,-32.1472,-88.4159,208.147,743,-13,846,208.147,-220,1845.11
876813,-280.866,-137.874,833.241,-850,-1360,246750,-23.9608,-43.2333,220.598,762,-7,849,220.598,-195,1834.95
876824,-282.001,-137.92,835.335,-620,-820,247250,-15.2978,18.418,220.672,778,-14,851,220.672,-142,1839.19
876835,-281.761,-135.813,835.868,-400,-120,247450,3.41154,41.5293,218.961,816,-8,853,218.961,-133,1832.68
876840,-281.991,-134.029,835.409,10,180,247240,-9.22602,71.3472,214.446,842,-23,854,214.446,-91,1845.97
876851,-281.665,-130.724,832.41,340,460,246890,-3.40876,65.1372,209.159,871,-22,856,209.159,-93,1850.36
876862,-281.365,-128.38,827.328,650,520,246520,6.29657,43.7434,205.409,883,-16,858,205.409,-112,1848.4
876885,-282.746,-129.703,814.585,230,-20,246120,-24.4239,-33.5865,207.525,898,1,861,207.525,-172,1840.48
876896,-284.245,-132.325,809.072,-270,-290,245960,-24.7988,-46.4686,211.719,897,17,863,211.719,-188,1829.8
876907,-285.49,-135.236,805.502,-660,-740,245600,-34.0087,-57.2019,214.089,890,18,865,214.089,-196,1831.29
876913,-286.536,-135.958,803.599,-910,-1080,245160,-34.8664,-24.0667,217.532,903,33,866,217.532,-166,1817.92
876925,-286.722,-135.903,801.145,-690,-1020,244780,1.78306,16.3264,217.445,918,34,868,217.445,-140,1818.69
876957,-279.933,-119.761,787.741,550,800,244290,70.1017,142.237,203.85,885,14,872,203.85,-59,1845.74
876963,-277.353,-115.558,785.132,1290,1140,244020,85.996,140.082,184.894,861,30,873,184.894,-30,1838.24
876975,-272.396,-108.297,783.015,1420,990,243730,83.9774,108.861,173.274,863,38,875,173.274,-48,1828.8
877008,-265.03,-101.126,774.128,140,440,243100,43.3754,29.574,161.801,845,3,879,161.801,-93,1869.84
877019,-263.016,-100.243,768.951,420,640,243110,39.2126,28.0028,161.734,838,22,881,161.734,-113,1854.74
877025,-260.812,-100.1,767.36,790,940,243330,73.4593,4.78062,160.16,831,42,882,160.16,-128,1837.27
877035,-257.152,-99.7898,765.571,1470,710,243510,72.1674,-9.79366,159.664,825,37,884,159.664,-142,1843.63
877046,-253.07,-101.668,764.591,1480,10,243650,72.377,-51.4691,162.668,804,34,886,162.668,-182,1846.38
877070,-250.67,-112.772,764.803,510,-900,243800,-14.4828,-102.233,170.199,805,47,889,170.199,-206,1834.93
877076,-251.636,-115.791,765.255,230,-790,243810,-32.1952,-100.631,185.266,806,38,890,185.266,-205,1842.61
877088,-254.28,-120.808,765.584,-390,-550,243880,-43.982,-75.0748,193.294,817,48,892,193.294,-184,1832.26
877099,-258.452,-124.619,766.233,-860,-270,244100,-69.2249,-69.6288,199.39,816,41,894,199.39,-173,1838.65
877110,-262.091,-127.482,766.213,-1190,-400,244470,-60.623,-55.036,203.972,819,29,896,203.972,-169,1850.63
877121,-264.899,-128.989,764.768,-1140,-650,244810,-50.9216,-28.4032,206.382,831,31,898,206.382,-153,1849.78
877126,-265.836,-129.133,764.154,-700,-750,245090,-37.4806,-5.78231,206.613,838,24,899,206.613,-138,1856.27
877137,-267.297,-127.959,761.452,0,-640,245350,-21.8546,32.8053,204.734,827,18,901,204.734,-108,1867.49
877148,-268.527,-125.223,759.145,450,-210,245530,-26.3154,70.0541,200.357,830,30,903,200.357,-68,1856.38
877159,-270.665,-121.133,758.029,640,340,245680,-41.3333,84.6275,193.812,832,20,905,193.812,-43,1865.31
877170,-273.982,-117.436,755.621,430,1000,245770,-65.9287,68.8946,187.898,826,24,907,187.898,-43,1866.31
877181,-278.281,-114.981,753.825,-320,1400,245790,-81.9673,39.8406,183.97,824,42,909,183.97,-60,1847.77
877187,-280.584,-114.921,753.387,-950,1010,245610,-76.7575,2.01379,183.873,827,32,910,183.873,-97,1857.11
877199,-283.372,-116.276,752.786,-1260,230,245120,-36.1283,-26.7587,186.041,822,24,912,186.041,-139,1866.65
877211,-283.387,-118.453,750.679,-930,-140,244440,6.74328,-27.1113,189.525,817,22,913,189.525,-157,1870.4
877222,-281.21,-119.274,749.027,-160,-450,243530,37.6587,-6.29735,190.839,795,17,914,190.839,-149,1875.83
877228,-279.363,-119.467,748.654,340,-620,242620,61.5617,-6.44394,191.148,805,27,915,191.148,-158,1869.22
877240,-277.41,-118.349,747.857,520,-510,241800,21.5573,21.4147,189.359,799,30,917,189.359,-112,1865.93
877263,-280.895,-114.639,751.883,-150,90,241180,-57.0024,17.1411,183.422,776,47,919,183.422,-71,1846.72
877274,-285.135,-113.313,755.994,-560,480,241550,-83.6649,31.2675,182.802,780,60,921,182.802,-66,1833.18
877280,-287.209,-113.337,759.028,-600,760,242300,-69.1257,-0.769406,181.338,795,66,922,181.338,-81,1818.79
877291,-290.049,-114.353,764.336,-470,370,243150,-47.5251,-22.1604,182.965,791,48,924,182.965,-115,1833.4
877314,-291.693,-121.843,771.469,-610,-700,244960,4.43401,-77.5527,194.948,782,36,927,194.948,-205,1839.55
877325,-291.127,-126.35,773.722,-500,-1130,245970,25.3981,-79.7755,198.969,796,33,929,198.969,-212,1839.72
877331,-290.708,-128.181,774.657,-140,-1480,246880,13.9936,-61.0477,205.09,799,28,930,205.09,-208,1844.88
877342,-290.337,-130.799,774.981,40,-1430,247510,5.27212,-28.8231,209.278,788,14,932,209.278,-182,1857.61
877354,-290.728,-131.838,775.539,100,-1170,247900,-8.11081,-8.59534,210.941,782,4,934,210.941,-162,1869.24
877365,-292.745,-131.304,775.535,50,-740,248140,-39.8306,13.8822,210.087,787,1,936,210.087,-131,1870.32
877371,-294.65,-131.405,775.192,-10,-500,248130,-63.499,-3.34308,210.248,794,-2,937,210.248,-139,1874.69
877371,-294.65,-131.405,775.192,-140,-630,247750,-63.499,-3.34308,210.248,824,5,937,210.248,-139,1867.8
877395,-305.058,-128.213,771.937,-130,-590,247230,-92.207,19.5947,205.141,839,16,938,205.141,-98,1859.45
877407,-312.797,-126.946,768.606,-620,-210,246770,-140.928,24.0676,204.27,844,7,940,204.27,-89,1869.71
877413,-316.426,-126.426,766.374,-1040,360,246460,-120.972,17.3335,202.282,858,14,941,202.282,-82,1867.04
877436,-328.136,-127.437,758.777,-1480,170,246360,-86.0514,-20.7452,203.899,832,40,943,203.899,-128,1848.18
877456,-323.084,-130.152,759.55,210,550,248360,62.5139,-26.6218,208.243,808,54,944,208.243,-197,1830.36
877468,-304.721,-128.601,761.9,1760,310,249880,308.337,47.6336,208.049,847,127,946,208.049,-251,1768.37
877474,-293.991,-128.224,765.695,3880,530,251970,357.666,12.5922,205.158,888,197,947,205.158,-256,1680.47
877485,-275.405,-125.464,778.463,5080,960,253740,309.75,52.8062,200.743,893,185,949,200.743,-196,1683.33
877496,-257.043,-121.061,791.293,7080,1200,256080,334.639,103.068,193.697,927,216,951,193.697,-143,1639.99
877513,-231.176,-112.684,815.607,8420,1180,256680,284.538,87.4901,180.295,948,195,952,180.295,-131,1638.5
877525,-212.48,-111.89,830.337,8620,1720,257210,300.726,-1.37179,179.024,965,191,954,179.024,-219,1631.67
877536,-195.336,-115.283,842.059,8720,1810,257310,303.797,-54.2244,184.452,958,159,956,184.452,-276,1651.27
877548,-178.99,-122.854,852.953,8950,1820,257180,272.422,-166.717,196.567,946,146,958,196.567,-395,1656.63
877559,-163.371,-134.293,862.584,8840,1640,257150,284.793,-224.2,214.868,967,128,960,214.868,-473,1665.01
877565,-156.304,-140.68,866.122,8720,1630,257120,235.573,-212.907,225.088,990,133,961,225.088,-463,1658.28
877577,-140.807,-153.094,873.211,8620,1480,257120,222.927,-214.575,244.95,984,129,963,244.95,-482,1658.69
877600,-116.403,-178.383,883.736,8950,1870,258100,172.207,-203.488,285.413,987,115,965,285.413,-503,1658.3
877611,-107.511,-189.64,887.886,9500,1940,258890,110.113,-184.714,294.558,984,90,967,294.558,-546,1680.75
877616,-103.814,-193.617,888.399,9570,2020,259760,147.875,-159.056,309.787,981,85,968,309.787,-479,1681.88
877627,-97.9502,-201.644,890.211,9500,1910,260660,122.325,-135.99,322.631,972,77,970,322.631,-465,1687.64
877639,-92.1158,-209.448,891.314,9420,1710,261620,99.469,-126.717,335.117,966,62,972,335.117,-466,1701.04
877650,-87.4463,-214.054,890.707,8750,1390,262640,87.1939,-75.3173,342.486,973,92,974,342.486,-420,1673.79
877661,-82.0675,-217.754,891.717,7670,1590,263470,107.111,-49.4617,348.406,970,129,976,348.406,-402,1635.06
877672,-76.5055,-220.925,896.69,7060,1880,264120,99.5802,-50.1872,351.472,994,150,978,351.472,-419,1609.25
877677,-74.6608,-220.712,899.395,6120,2050,264450,73.7891,8.51702,353.139,1021,162,979,353.139,-346,1600
877689,-69.4951,-219.934,905.111,4600,1960,264470,85.133,17.1029,351.894,1027,150,981,351.894,-337,1600
877699,-67.2042,-220.45,908.347,3980,1730,264270,25.6144,-18.82,352.72,1054,138,983,352.72,-371,1606.03
877710,-64.7514,-222.84,910.767,3660,1380,264090,34.6046,-44.8988,356.544,1063,114,985,356.544,-401,1626.05
877722,-62.53,-225.146,910.267,3300,1400,263950,48.5754,-34.9976,360.234,1061,113,987,360.234,-395,1628.45
877733,-60.4168,-226.332,910.809,3470,1520,263840,47.7162,-21.0333,362.132,1067,110,989,362.132,-383,1627.99
877739,-59.3029,-227.127,911.531,3530,1370,263730,37.1277,-26.4763,363.402,1067,96,990,363.402,-390,1641.46
877750,-58.4373,-227.514,911.421,3440,1620,263570,20.3192,-15.1756,364.022,1067,89,992,364.022,-378,1648.62
877760,-57.267,-227.504,911.811,3260,1800,263420,40.5878,-7.21524,364.007,1090,91,994,364.007,-371,1644.55
877771,-56.3872,-227.587,911.309,2900,2020,255550,22.2665,15.0858,364.139,1083,68,996,364.139,-348,1651.95
877782,-56.4308,-227.545,907.987,-6250,3350,242950,7.61568,5.09408,364.072,1046,-326,998,364.072,-357,2008.86
877794,-57.7126,-227.047,862.175,-23080,5410,229820,-49.7281,19.7851,363.275,954,-531,1000,363.275,-340,2100
877805,-72.879,-223.639,808.498,-31870,6370,228690,-337.664,72.0209,361.279,824,-423,1002,361.279,-305,2100
877810,-79.3084,-222.577,789.584,-34200,7370,228950,-257.177,42.4906,356.123,706,-333,1003,356.123,-312,2100
877821,-90.0748,-219.76,761.506,-35920,8810,229550,-156.311,83.3053,351.615,611,-478,1005,351.615,-273,2100
877833,-96.5923,-214.984,726.415,-44910,10910,228000,-116.295,121.499,343.975,494,-801,1007,343.975,-231,2100
877855,-123.401,-193.245,571.134,-60580,16570,223590,-241.659,224.793,309.192,168,-1235,1010,309.192,-127,2100
877866,-117.093,-180.221,474.567,-56480,14070,226410,260.797,201.22,296.402,-21,-1142,1012,296.402,-38,2100
877871,-102.227,-174.02,435.051,-41730,10480,230820,594.638,248.02,278.433,-160,-968,1013,278.433,43,2100
877883,-46.9176,-164.882,361.011,-23500,6700,234610,996.742,135.567,263.811,-231,-1004,1015,263.811,-71,2100
877894,-7.76316,-162.29,295.053,-16150,4650,236490,595.285,64.9639,259.665,-270,-1211,1017,259.665,-177,2100
877905,16.0095,-156.014,208.16,-17930,3180,238780,348.641,141.914,249.623,-328,-1295,1019,249.623,-93,2100
877917,16.0648,-138.772,109.096,-10420,1220,241770,-159.553,280.673,222.035,-387,-639,1021,222.035,48,2100
877922,12.1948,-132.517,94.9385,-7290,2980,246440,-154.801,250.186,212.027,-381,-366,1022,212.027,25,2100
877933,2.00324,-123.425,78.0482,410,2930,247030,-96.4483,76.931,197.48,-324,-329,1024,197.48,-134,2100
877944,-3.99048,-123.001,76.41,2020,0,247000,-131.375,62.9863,196.802,-266,-280,1026,196.802,-152,2100
877955,-4.01754,-120.056,75.9037,-2190,1010,246940,53.4201,24.4361,192.089,-232,-249,1028,192.089,-158,2100
877966,-1.71989,-122.052,75.9025,190,1470,247390,10.9157,-52.2598,195.283,-202,-215,1030,195.283,-243,2100
877987,-2.60765,-121.259,75.6837,-250,1130,247980,7.36731,-26.5892,194.014,-133,-156,1033,194.014,-217,2100
877998,-2.97435,-121.466,75.6982,-400,820,248070,3.87992,3.64273,194.346,-103,-131,1035,194.346,-188,2100
