timestamp,x,y,z,pitch,roll,yaw,vx,vy,vz,battery,cpu_load,vicon_count,set_position,set_velocity,calc_thrust
0,0,0,0,0,0,0,0,0,0,0,0,0,0,0,0
0,0,0,0,0,0,0,0,0,-500,0,0,0,-500,800,2076.6
3335271,-84.5866,14.7174,74.4184,0,0,0,1.32931,1.59806,-500,0,0,2,-500,800,2077.7
3335294,-84.4569,14.6968,74.4615,0,0,0,-2.54971,-1.45854,-500,0,0,5,-500,800,2079.9
3335305,-84.8814,15.5092,75.9352,0,0,0,-26.9222,34.4498,-500,0,0,7,-500,800,2081
3335310,-84.8927,15.5785,75.959,0,0,0,-0.452482,2.77317,-500,0,0,8,-500,800,2082.1
3335322,-85.0194,15.2497,75.5818,0,0,0,-5.28065,-10.1521,-500,0,0,10,-500,800,2083.31
3335354,-84.8141,15.401,75.7652,0,0,0,3.74361,-2.08129,-500,0,0,14,-500,800,2086.61
3335365,-84.8738,15.4433,75.8254,0,0,0,0.583379,0.724382,-500,0,0,16,-500,800,2087.71
3335376,-84.8895,15.4632,75.8425,0,0,0,-2.83711,0.816062,-500,0,0,18,-500,800,2088.81
3335381,-84.8938,15.4718,75.8667,0,0,0,-0.17492,0.345422,-500,0,0,19,-500,800,2089.91
3335387,-84.8874,15.3403,75.7819,0,0,0,0.213772,-4.38294,-500,0,0,20,-500,800,2091.01
3335387,-84.8874,15.3403,75.7819,0,0,0,0.213772,-4.38294,-500,0,0,20,-500,800,2092.11
3335387,-84.8874,15.3403,75.7819,0,0,0,0.213772,-4.38294,-500,0,0,20,-500,800,2093.21
3335387,-84.8874,15.3403,75.7819,0,0,0,0.213772,-4.38294,-500,0,0,20,-500,800,2094.42
3335387,-84.8874,15.3403,75.7819,0,0,0,0.213772,-4.38294,-500,0,0,20,-500,800,2095
3335387,-84.8874,15.3403,75.7819,0,0,0,0.213772,-4.38294,-500,0,0,20,-500,800,2095
3335387,-84.8874,15.3403,75.7819,0,0,0,0.213772,-4.38294,-500,0,0,20,-500,800,2095
3335387,-84.8874,15.3403,75.7819,0,0,0,0.213772,-4.38294,-500,0,0,20,-500,800,2095
3335387,-84.8874,15.3403,75.7819,0,0,0,0.213772,-4.38294,-500,0,0,20,-500,800,2095
3335387,-84.8874,15.3403,75.7819,0,0,0,0.213772,-4.38294,-500,0,0,20,-500,800,2095
3335388,-84.9238,15.3364,75.7614,-30,-870,247370,-7.27857,-0.781324,-500,-62,45,21,-500,800,2049
3335509,-84.8122,15.2679,75.5514,-20,-890,248330,1.91993,0.761631,-500,-60,26,23,-500,800,2068
3335514,-84.8105,15.3134,75.5571,10,-850,249400,0.0661154,1.81899,-500,-62,9,24,-500,800,2085
3335525,-84.8088,15.2899,75.5407,30,-770,250420,1.49816,-1.66936,-500,-64,-2,26,-500,800,2096
3335536,-84.7842,15.2515,75.5369,0,-750,251490,-0.968495,-0.526779,-500,-68,-14,28,-500,800,2100
3335546,-84.7745,15.2383,75.5155,-10,-730,252520,-1.2299,-0.938643,-500,-82,-29,30,-500,800,2100
3335568,-84.7685,15.2171,75.5126,-20,-680,254310,-0.541937,-2.12749,-500,-95,-42,33,-500,800,2100
3335579,-84.7687,15.2067,75.5412,-20,-670,255040,-0.779972,-0.328548,-500,-96,-43,35,-500,800,2100
3335590,-84.7722,15.2608,75.526,-50,-660,255650,0.030636,1.65563,-500,-93,-42,37,-500,800,2100
3335595,-84.8246,15.2682,75.5475,-40,-610,256180,-2.09893,0.298521,-500,-97,-43,38,-500,800,2100
3335612,-84.7898,15.2652,75.5345,-60,-570,256900,0.783974,-0.237817,-500,-109,-46,41,-500,800,2100
3335624,-84.7799,15.2574,75.5308,10,-300,246510,0.139015,0.944876,-500,0,0,43,-500,800,2100
3335635,-84.8322,15.2627,75.5365,20,-370,252850,-0.920426,-0.0474785,-500,3,-14,45,-500,800,2100
3335663,-84.3559,15.0932,75.4522,50,-380,245380,12.4686,27.2768,-500,14,-51,49,-500,800,2100
3335675,-84.5233,14.8573,74.9403,70,-490,245900,5.89344,16.9321,-500,-38,-100,51,-500,800,2100
3335687,-84.2449,15.3934,75.2714,100,-550,246420,-8.15623,-2.43766,-500,-77,-140,53,-500,800,2100
3335698,-84.3368,15.1964,75.4056,160,-590,246890,15.7536,29.2321,-500,-100,-167,55,-500,800,2100
3335704,-84.716,14.4219,74.5942,190,-590,247330,-12.6401,-25.8152,-500,-138,-203,56,-500,800,2100
3335715,-84.6919,14.3774,74.6661,1290,890,247640,-12.492,-25.7337,-500,-180,-217,58,-500,800,2100
3335727,-86.0839,12.7529,81.2516,5360,5560,248510,-45.4158,-39.0957,-500,24,37,60,-500,800,2066
3335739,-83.3193,15.7074,107.719,5710,8490,250710,46.5744,156.974,-500,263,725,62,-500,800,1600
3335745,-84.8847,21.3449,154.297,3650,8020,252710,-52.1811,187.915,-500,302,1000,63,-500,800,1600
3335755,-81.8034,36.3343,262.362,4370,8420,254870,184.73,288.531,-500,405,1272,65,-500,800,1600
3335766,-75.8323,45.5522,408.989,5670,8420,256070,105.29,121.49,-500,537,1333,67,-500,800,1600
3335776,-71.5349,47.3739,554.967,5740,7120,256960,73.4924,22.7976,-500,699,1287,69,-500,800,1600
3335799,-61.4905,38.5883,875.692,6080,7070,257790,100.846,-105.229,-500,1015,959,72,-500,800,1600
3335810,-50.8501,30.4581,994.083,6670,8730,257930,176.79,-161.528,-500,1136,743,74,-500,800,1600
3335816,-47.2831,24.643,1048.51,6970,9270,257970,118.899,-193.839,-500,1232,569,75,-500,800,1600
3335840,-36.6596,-2.45273,1207.06,6640,7830,258190,74.7825,-201.133,-500,1386,357,78,-500,797,1600
3335846,-34.7123,-7.97432,1237.07,6680,8700,258910,64.9127,-184.053,-500,1439,266,79,-500,800,1600
3335858,-32.866,-19.7925,1287.42,6320,9220,260130,11.565,-193.367,-500,1458,245,81,-500,800,1600
3335880,-39.865,-38.5831,1379.81,4860,7280,262260,-105.119,-156.528,-500,1542,293,84,-500,800,1600
3335892,-45.7292,-48.647,1431.16,4240,6290,262680,-108.738,-186.643,-500,1613,212,86,-500,800,1600
3335898,-47.3486,-54.081,1452.26,4420,5660,263460,-53.9792,-181.133,-500,1684,182,87,-500,800,1600
3335909,-48.3252,-61.3638,1486.14,3950,4270,263930,-2.65474,-120.08,-500,1720,81,89,-500,800,1600
3335932,-43.553,-78.8033,1512.28,4140,3420,264690,42.0196,-171.031,-500,1765,-155,92,-500,800,1753
3335943,-44.9073,-89.144,1507.04,4710,4440,264930,-42.6935,-196.023,-500,1752,-181,94,-500,800,1785
3335949,-45.4106,-94.9297,1503.65,4630,5370,265030,-16.7751,-192.854,-500,1766,-136,95,-500,800,1741
3335960,-49.3186,-106.33,1500.8,4470,5590,265000,-86.9524,-201.552,-500,1749,-95,97,-500,785,1702
3335971,-52.8502,-117.399,1502.31,3900,4820,265010,-40.8215,-187.156,-500,1743,-93,99,-500,800,1698
3335993,-58.1726,-136.733,1505.21,3290,4840,265310,-62.6101,-191.641,-500,1745,-137,102,-500,800,1737
3336004,-60.9936,-147.196,1503.93,3220,5420,265550,-39.634,-183.429,-500,1471,-279,104,-500,798,1878.07
3336010,-62.1053,-153.274,1504.57,3000,5780,265590,-37.0583,-202.597,-500,1188,-407,105,-500,785,1999.66
3336021,-65.1873,-166.686,1506.66,2650,5550,265330,-61.8005,-259.202,-500,921,-524,107,-500,671,2100
3336032,-69.4355,-182.618,1510.08,2290,5090,265050,-87.0182,-291.186,-500,712,-639,109,-500,607,2100
3336044,-71.7819,-201.808,1512.13,2240,4690,265070,-28.1107,-327.235,-500,528,-737,111,-500,539,2100
3336055,-74.0936,-218.725,1511.71,2350,4480,265300,-38.7843,-298.546,-500,382,-794,113,-500,596,2100
3336065,-77.2958,-234.399,1511.18,2840,4390,265220,-88.6013,-303.935,-500,273,-846,115,-500,584,2100
3336071,-78.8658,-244.167,1509.6,2750,4050,265310,-52.3326,-325.598,-500,161,-873,116,-500,541,2100
3336095,-89.8361,-280.756,1506.44,1880,3230,266770,-96.8102,-243.396,-500,-21,-903,119,-500,700,2100
3336101,-92.4642,-287.477,1505.45,1750,2610,267510,-87.6035,-224.019,-500,-82,-878,120,-500,737,2100
3336113,-96.7437,-300.09,1506.56,1740,2610,267420,-49.1186,-213.648,-500,-108,-875,122,-500,756,2100
3336135,-98.9081,-322.07,1509.32,2270,2400,267410,-12.8145,-222.012,-500,-177,-856,125,-500,743,2100
3336146,-97.7553,-332.754,1507.04,2810,2460,267720,38.3397,-178.789,-500,-188,-805,127,-500,800,2100
3336152,-95.239,-338.282,1508.47,3260,2970,267560,83.8742,-184.266,-500,-182,-794,128,-500,800,2100
3336163,-89.8745,-348.123,1507.49,4050,3290,267450,116.807,-181.597,-500,-214,-779,130,-500,800,2100
3336173,-83.3304,-357.251,1507.13,4270,3570,267340,159.316,-181.002,-500,-234,-771,132,-500,800,2100
3336207,-69.7585,-384.936,1505.31,4750,5150,266800,22.6418,-132.847,-500,-241,-682,136,-500,800,2100
3336213,-68.6901,-389.53,1503.65,4220,5710,266720,35.6144,-153.154,-500,-244,-659,137,-500,800,2100
3336225,-68.8347,-398.707,1501.97,3790,5470,266960,-17.6619,-152.086,-500,-237,-615,139,-500,800,2100
3336237,-73.1701,-404.99,1500.25,2880,5040,267050,-88.0232,-89.9403,-500,-216,-586,141,-500,800,2100
3336248,-77.2949,-410.094,1499.35,2380,4800,266910,-69.0328,-81.2865,-500,-208,-548,143,-500,800,2100
3336259,-79.6073,-415.847,1497.32,2450,4690,266630,-44.7741,-102.894,-500,-195,-517,145,-500,800,2100
3336264,-79.5086,-419.155,1496.88,2860,4930,266350,3.94796,-132.325,-500,-199,-490,146,-500,800,2100
3336276,-80.2989,-426.713,1494.99,3390,4830,266030,-4.45865,-153.662,-500,-198,-467,148,-500,800,2100
3336287,-81.0731,-436.588,1492.35,4040,4870,265480,-24.4781,-184.419,-500,-203,-457,150,-500,800,2100
3336298,-82.4018,-446.889,1489.04,4540,5510,264750,-23.93,-207.079,-500,-183,-423,152,-500,786,2080
3336309,-81.8045,-458.584,1485.23,5120,6260,263940,50.3702,-229.472,-500,-181,-386,154,-500,743,2046
3336320,-80.9989,-469.744,1481.96,5620,6910,263540,1.29829,-195.518,-500,-182,-358,156,-500,800,2016
3336325,-81.0484,-474.565,1480.65,5960,7810,263370,-1.98235,-192.86,-500,-178,-332,157,-500,800,1990
3336337,-80.8462,-484.823,1477.49,6060,8350,263160,5.83303,-164.891,-500,-154,-300,159,-500,800,1957
3336349,-80.6185,-494.265,1474.1,5890,8940,262960,7.88865,-158.108,-500,-155,-284,161,-500,800,1940
3336360,-81.0807,-502.721,1470.26,5550,9970,262780,-13.9904,-146.509,-500,-138,-263,163,-500,800,1918
3336370,-83.2917,-510.353,1465.23,5140,10800,262680,-30.6459,-179.968,-500,-144,-246,165,-500,800,1902
3336382,-85.9336,-520.487,1460.23,4820,11180,262640,-45.8596,-201.462,-500,-129,-221,167,-500,800,1874.99
3336388,-86.862,-526.425,1457.27,4130,11600,262980,-30.9477,-197.937,-500,-155,-218,168,-500,800,1871.97
3336399,-89.4468,-540.425,1451.78,3130,11860,263490,-54.5384,-275.168,-500,-174,-226,170,-500,664,1882
3336411,-92.5389,-561.476,1444.03,2110,11210,263910,-46.0551,-362.082,-500,-200,-222,172,-500,485,1877
3336417,-92.4754,-575.12,1440.7,1220,9820,264880,2.11615,-454.783,-500,-202,-203,173,-500,299,1863.99
3336429,-92.6194,-603.796,1433.62,560,7750,266610,-4.16538,-482.402,-500,-177,-192,175,-500,240,1850.86
3336439,-92.5873,-629.584,1426.7,-540,4620,268620,19.2786,-535.417,500,-181,-160,177,500,-800,1822.67
3336453,-91.4949,-665.43,1418.89,-1250,1450,269810,15.5474,-498.288,500,-151,-149,179,500,-800,1800.27
3336458,-89.9692,-675.734,1415.41,-1030,-170,270040,61.0297,-412.126,500,-119,-116,180,500,-800,1769.8
3336469,-83.0838,-691.694,1408.61,-180,-1840,269480,132.018,-246.995,500,-99,-77,182,500,-800,1732.16
3336493,-68.0153,-688.235,1400.38,1160,-4660,265390,162.536,228.283,500,-93,-61,185,500,-543,1712.56
3336504,-54.9859,-667.524,1396.37,2100,-2610,262050,239.403,423.352,500,-65,-71,187,500,-370,1720.77
3336510,-46.7918,-652.629,1392.55,2850,780,258490,273.137,496.481,500,-51,-95,188,500,-31,1745.1
3336533,-26.6746,-586.838,1364.92,2990,7560,254890,100.743,563.143,500,-58,-132,191,500,122,1780.09
3336544,-24.4833,-560.287,1347.41,870,8650,253860,-2.03897,457.021,500,-71,-105,193,500,-61,1756.6
3336550,-24.6627,-550.382,1338.67,-1500,6970,253370,-5.97771,330.162,500,-98,-84,194,500,-310,1732.95
3336561,-24.4622,-540.261,1324.94,-3590,2710,252940,22.6372,123.016,500,-121,-62,196,500,-728,1709.12
3336573,-20.4253,-534.819,1312.56,-4250,-2660,252410,76.6607,101.65,500,-145,-72,198,500,-798,1717.35
3336594,1.49123,-514.615,1283.42,150,-9340,248400,244.462,321.697,500,-187,-206,201,500,-451,1850.62
3336606,11.401,-482.405,1257.95,2330,-5480,246100,133.334,600.799,500,-202,-202,203,500,-158,1848.57
3336611,13.4412,-464.602,1247.75,3990,1660,244500,81.6073,712.103,500,-212,-198,204,500,330,1843.46
3336622,11.3093,-422.13,1225.11,4450,7720,243400,-91.3892,773.439,500,-234,-206,206,500,517,1848.35
3336633,2.57406,-387.749,1201.44,2470,8420,242370,-178.2,555,-500,-277,-194,208,-500,800,1841.27
3336645,-9.05437,-371.295,1176.45,2650,11730,242200,-180.1,156.325,-500,-299,-186,210,-500,800,1830.09
3336657,-17.1778,-381.339,1153.01,3570,15130,242390,-115.327,-276.823,-500,-335,-174,212,-500,800,1819.91
3336663,-18.5895,-398.733,1141.71,2800,13650,242090,-47.054,-579.81,-500,-384,-178,213,-500,-59,1822.66
3336674,-17.6731,-454.709,1121.27,-1280,780,241550,24.765,-1145.82,-500,-414,-166,215,-500,-755,1810.4
3336685,-11.8309,-532.832,1099.85,-3620,-7950,241760,124.272,-1473.09,-500,-433,-192,217,-500,-799,1836.21
3336707,-3.61305,-664.871,1056.31,-3070,-10860,241900,5.32143,-925.078,-500,-464,-170,220,-500,-752,1828.73
3336713,-3.4852,-685.874,1045.93,-3160,-9840,241770,4.26178,-700.109,-500,-484,-162,221,-500,-425,1829.87
3336725,-9.14036,-707.381,1026.01,-840,-2020,241250,-127.612,-249.335,-500,-486,-139,223,-500,450,1821.62
3336736,-17.3135,-708.01,1010.15,2590,9350,241050,-172.028,25.2321,-500,-510,-149,225,-500,800,1843.16
3336747,-24.5701,-708.264,993.904,4820,14230,240970,-143.752,-59.4606,-500,-529,-132,227,-500,800,1841.06
3336758,-27.1683,-730.404,979.492,4200,14040,240190,1.80462,-477.382,-500,-564,-119,229,-500,39,1843.48
3336769,-22.7485,-783.111,965.955,1030,5470,239180,83.422,-1098.15,-500,-601,-97,231,-500,-761,1827.1
3336774,-21.0927,-815.185,960.683,-2680,-6000,238940,66.2321,-1282.95,-500,-603,-92,232,-500,-749,1827.13
3336785,-11.8881,-889.849,950.471,-3610,-9580,238870,157.599,-1346.91,-500,-603,-78,234,-500,-794,1820.1
3336808,-3.07509,-993.707,933.619,-3150,-10410,238980,16.7414,-558.047,-500,-620,-63,237,-500,-216,1819.17
3336819,-5.46767,-1007.48,928.324,-360,-2510,239070,-46.7201,-125.761,-500,-615,-56,239,-500,572,1815.18
3336830,-12.5488,-1003.19,923.492,3720,8920,239850,-116.783,110.839,-500,-629,-70,241,-500,800,1830.83
3336835,-15.7974,-1001.62,920.097,5640,14280,240820,-129.942,62.7916,500,-643,-65,242,500,-679,1831.42
3336847,-19.7256,-1011.19,914.098,-1560,1930,240250,-49.8017,-254.771,500,-644,-3,244,500,-720,1769.9
3336870,-10.9331,-1079.61,899.36,-5000,-9170,241340,117.348,-511.029,500,-684,-112,247,500,-786,1893.55
3336881,-3.0914,-1090.05,887.715,-3490,-9500,241150,140.261,-94.7297,500,-712,-92,249,500,-800,1883.01
3336887,0.661557,-1086.28,882.569,-2520,-9740,240890,125.099,125.686,500,-725,-75,250,500,-799,1870.2
3336899,7.24683,-1057.62,874.428,-780,-6950,240670,84.919,583.263,500,-725,-57,252,500,-29,1858.74
3336921,8.83452,-949.761,864.43,5770,11030,241420,-18.469,1062.58,500,-685,-32,255,500,800,1841.56
3336927,7.66765,-920.708,861.125,6670,14480,241860,-38.8957,968.449,500,-688,-33,256,500,762,1844.11
3336939,7.49176,-885.252,854.933,4690,11890,241620,10.5653,457.879,500,-710,-25,258,500,-171,1843.01
3336951,12.1885,-884.314,848.464,-540,-150,241210,96.3476,-129.774,500,-719,-16,260,500,-793,1836.05
3336962,18.3757,-901.467,842.506,-2930,-8550,241570,137.608,-337.209,500,-739,-60,262,500,-800,1881.82
3336968,21.9696,-908.14,837.996,-2730,-10040,241720,119.795,-222.412,500,-767,-54,263,500,-800,1884.6
3336979,26.5886,-906.102,830.6,-2350,-10240,241840,85.5685,139.163,500,-791,-50,265,500,-798,1886.63
3337003,22.6484,-821.31,821.891,740,750,241940,-64.2848,995.554,500,-791,-20,268,500,770,1863.73
3337009,18.8228,-788.043,820.334,4060,9490,242440,-127.52,1108.89,500,-758,-8,269,500,800,1852.94
3337020,14.4558,-728.825,817.359,5670,14610,243000,-85.3832,1017.99,500,-754,1,271,500,800,1847.25
3337031,13.8115,-687.334,815.058,5170,15050,242910,21.2858,647.929,500,-756,12,273,500,164,1836.99
3337054,22.126,-691.91,812.414,5160,8090,242330,114.756,-362.274,-500,-742,34,276,-500,131,1814.63
3337065,28.4892,-720.511,810.858,4630,5430,242210,96.0255,-574.219,-500,-755,42,278,-500,-46,1807.53
3337071,30.1956,-742.857,810.779,1710,-330,242050,56.8789,-744.848,-500,-760,30,279,-500,-539,1821.48
3337082,29.7984,-791.153,807.687,-2350,-6540,242220,-22.3889,-893.692,-500,-741,28,281,-500,-758,1825.77
3337105,19.9514,-867.717,798.466,-4730,-7610,242060,-93.3492,-419.623,-500,-747,37,284,-500,81,1823.85
3337116,14.3517,-871.923,795.094,-540,1060,241500,-103.072,3.38884,-500,-749,38,286,-500,800,1825.37
3337121,12.4034,-869.226,793.484,4350,11010,241800,-77.9323,107.876,-500,-761,28,287,-500,800,1836.52
3337133,10.1683,-864.113,789.57,6160,14710,242020,3.31375,39.9666,-500,-790,16,289,-500,800,1849.57
3337145,8.85043,-885.802,785.527,5570,14610,241690,-10.9905,-548.156,-500,-821,22,291,-500,-121,1849.78
3337157,12.735,-940.31,783.724,240,4200,240700,92.3544,-1021.82,-500,-826,58,293,-500,-587,1814.78
3337163,16.0164,-978.637,783.155,-3640,-6980,240680,109.379,-1277.59,-500,-817,34,294,-500,-800,1837.36
3337174,23.3277,-1049.34,780.304,-4080,-10290,240650,135.747,-1242.83,-500,-811,38,296,-500,-800,1837.53
3337185,29.9399,-1102.24,777.203,-3220,-10980,240450,100.508,-853.068,-500,-822,32,298,-500,-796,1844.92
3337196,30.9231,-1128.47,773.756,-2090,-8700,240220,7.72465,-350.19,-500,-826,43,300,-500,130,1836.6
3337207,28.4916,-1129.47,772.061,1560,1550,240010,-62.7786,104.96,-500,-803,63,302,-500,562,1816.53
3337213,25.3455,-1123.23,771.368,5230,11100,240590,-104.871,208.062,-500,-792,61,303,-500,800,1821.14
3337225,17.1535,-1113.52,769.623,5540,14400,240910,-113.199,178.653,-500,-794,76,305,-500,800,1806.3
3337248,11.5351,-1172.8,768.374,80,6400,240640,-6.51811,-932.395,500,-823,76,308,500,-743,1810.83
3337258,16.1176,-1227.12,767.972,-4370,-6650,241190,79.6993,-1142.54,500,-799,64,310,500,-789,1816.89
3337269,23.2688,-1283.35,764.864,-4220,-10620,241850,123.881,-934.524,500,-783,52,312,500,-800,1833.65
3337274,26.4529,-1301.76,763.435,-2910,-11470,242270,127.366,-736.291,500,-772,43,313,500,-800,1843.25
3337286,31.9242,-1320.32,757.473,-1920,-11390,242620,65.1463,-140.901,500,-770,31,315,500,-799,1860
3337309,23.4049,-1258.15,741.434,-1620,-5680,243060,-178.773,917.708,500,-768,38,318,500,672,1865.95
3337320,13.6284,-1191.98,732.664,1690,5650,243130,-195.484,1260.8,500,-754,33,320,500,800,1877.03
3337330,5.11597,-1126.88,724.795,4410,13350,243550,-157.831,1282.88,500,-749,60,322,500,800,1858.24
3337336,1.32407,-1093.81,719.463,5290,16270,243680,-126.397,1102.34,500,-733,89,323,500,800,1832.58
3337347,-1.35951,-1054.17,714.902,4890,15930,243480,-35.4721,580.217,500,-752,91,325,500,97,1835.12
3337357,-0.0649311,-1045.77,713.034,840,4110,242910,48.3306,31.1835,500,-756,116,327,500,-788,1807.41
3337369,6.92705,-1063.31,710.563,-1900,-7480,243160,115.704,-357.881,500,-759,75,329,500,-800,1851.26
3337391,14.2965,-1075.82,702.129,-1970,-10200,243580,-4.97351,161.276,500,-784,87,332,500,-767,1848.01
3337397,13.0076,-1063.32,700.503,-2410,-9160,243850,-42.9614,416.889,500,-782,86,333,500,-290,1850.27
3337408,7.01816,-1022.19,698.472,-230,-30,243960,-125.588,866.79,500,-782,88,335,500,573,1849.86
3337419,-0.432769,-961.394,696.492,3010,10830,244490,-160.731,1153.08,500,-771,83,337,500,800,1856.43
3337431,-4.36334,-897.047,693.738,4360,15100,244720,-34.2574,1046.56,500,-784,89,339,500,800,1853.62
3337443,-2.78936,-858.904,693.217,4780,15530,244460,35.2772,501.821,500,-810,97,341,500,403,1849.34
3337448,-0.00174103,-854.172,693.847,5170,12980,244060,111.505,189.272,-500,-818,124,342,-500,794,1819.4
3337459,9.51551,-865.914,698.493,6680,12780,244160,185.2,-351.809,-500,-816,122,344,-500,140,1814.47
3337483,26.3667,-979.986,710.968,330,-7210,243680,73.1379,-1217.21,-500,-787,115,347,-500,-800,1811.92
3337494,25.2262,-1041.69,713.536,-1710,-10730,244020,-61.7015,-1083.23,-500,-788,98,349,-500,-800,1827.64
3337499,22.3913,-1064.22,714.429,-3550,-11110,244580,-113.395,-901.26,-500,-811,76,350,-500,-746,1846.91
3337510,10.3235,-1094.12,715.701,-4400,-7340,244970,-245.872,-408.413,-500,-834,68,352,-500,139,1854.88
3337522,-5.09047,-1097.14,717.353,-1580,4700,245230,-247.995,73.6469,-500,-838,75,354,-500,800,1846.53
3337533,-15.3639,-1085.13,719.189,1660,12990,246010,-129.238,228.132,-500,-856,64,356,-500,800,1856.03
3337545,-18.2519,-1081.74,720.072,3080,15600,246610,3.08797,-46.6327,-500,-870,65,358,-500,800,1854.71
3337551,-15.4485,-1090.66,720.852,4120,16230,246830,93.4478,-297.379,-500,-893,63,359,-500,305,1856.7
3337563,-4.95188,-1134.67,723.979,2640,6980,246210,203.123,-877.988,-500,-890,102,361,-500,-800,1816.1
3337574,8.60052,-1199.98,728.131,-50,-6430,245760,220.829,-1247.79,-500,-857,87,363,-500,-800,1822.57
3337585,19.4636,-1265.45,729.875,-1090,-10790,245520,195.929,-1140.08,-500,-837,68,365,-500,-800,1842.06
3337591,23.0883,-1292.89,730.184,-1300,-11750,245350,120.823,-914.792,-500,-822,61,366,-500,-800,1848.77
3337603,23.6189,-1322.33,728.669,-1070,-8910,245370,-16.3781,-333.794,-500,-825,54,368,-500,182,1858
3337614,17.5454,-1319.21,726.237,2190,4190,245190,-130.76,172.596,-500,-801,57,370,-500,800,1854.94
3337635,0.166606,-1290.87,719.154,4780,15350,245070,-149.023,110.319,-500,-781,62,373,-500,800,1858.67
3337641,-3.37734,-1294.15,716.357,4360,15810,244610,-118.132,-109.226,-500,-794,52,374,-500,741,1867.94
3337653,-8.1293,-1326.04,711.47,460,8170,243850,-48.5661,-671.908,500,-828,67,376,500,-755,1865.97
3337665,-7.23788,-1383.32,706.068,-1480,-4810,245890,63.4151,-998.804,500,-814,-16,378,500,-800,1933.42
3337675,3.48789,-1407.43,693.749,890,-8750,249210,264.215,-232.754,500,-813,-37,380,500,-800,1991.97
3337697,21.8934,-1347.23,671.792,4540,-6170,250350,22.4762,861.747,500,-810,89,383,500,510,1871.03
3337708,11.194,-1288.01,668.962,4630,4260,249320,-258.193,1143.98,500,-786,103,385,500,800,1857.8
3337714,1.1579,-1253.58,668.893,3350,12590,247500,-334.535,1147.64,500,-763,125,386,500,800,1836.32
3337725,-24.0243,-1201.69,668.051,1150,15210,245250,-462.148,842.313,500,-775,115,388,500,699,1844.9
3337736,-45.4063,-1176.72,667.435,-2130,12380,243060,-334.279,302.691,500,-787,125,390,500,-324,1838.34
3337768,-55.2221,-1199.74,667.031,-5550,-8640,241180,148.226,-1.4323,500,-810,92,394,500,-794,1871.6
3337779,-46.0626,-1184.26,667.073,-3430,-9370,240880,159.977,388.82,500,-816,98,396,500,-800,1865.57
3337785,-40.8811,-1165.96,667.701,-410,-6110,240710,172.719,610.201,500,-788,106,397,500,-1,1856.15
3337808,-33.8179,-1056.83,668.367,5910,10830,241770,14.0641,1002.44,500,-753,107,400,500,796,1854.6
3337819,-36.8889,-1012.71,668.084,5540,13240,241940,-41.5725,727.367,500,-764,104,402,500,342,1857.84
3337825,-39.5186,-999.853,667.981,2080,9130,241480,-87.6557,428.404,500,-773,123,403,500,-176,1839.88
3337837,-44.2853,-999.488,669.17,-3120,-2400,241220,-73.7423,-121.688,500,-785,107,405,500,-709,1850.86
3337848,-47.1593,-1014.02,670.166,-5700,-8340,241510,-30.5011,-280.354,-500,-803,82,407,-500,292,1877.14
3337859,-47.961,-1018.94,671.62,-650,280,241460,-0.646013,-18.6798,-500,-801,125,409,-500,764,1836.01
3337871,-47.8084,-1006.51,678.652,4560,11030,242320,10.6426,242.898,-500,-795,109,411,-500,800,1845.43
3337876,-48.1947,-1002.97,680.878,5930,14880,242880,-15.4518,141.592,-500,-802,101,412,-500,800,1848.44
3337887,-45.8426,-1009.92,686.441,5580,15500,242900,17.7189,-277.689,-500,-823,92,414,-500,351,1854.98
3337911,-37.1932,-1128.24,698.759,-3500,-5770,242150,89.2415,-1321.84,-500,-821,101,417,-500,-784,1835.93
3337917,-33.2033,-1168.7,701.03,-4290,-10310,242370,132.999,-1348.76,-500,-808,96,418,-500,-800,1839.03
3337928,-26.4757,-1229.47,706.667,-3490,-11360,242260,118.897,-1013.86,-500,-793,92,420,-500,-800,1837.42
3337939,-22.3452,-1264.85,711.245,-2510,-9770,242010,59.904,-523.45,-500,-790,82,422,-500,-204,1844.7
3337951,-22.0941,-1270.51,717.613,760,-190,241650,0.706198,11.6569,-500,-775,86,424,-500,800,1834.5
3337963,-25.4606,-1255.54,722.479,4350,11280,241950,-53.8471,281.576,-500,-765,75,426,-500,800,1844.11
3337968,-26.8053,-1250.25,724.401,5020,14940,241920,-53.7859,211.559,-500,-781,72,427,-500,800,1843.94
3337979,-28.7374,-1254.24,728.852,4620,15720,241470,-6.56186,-192.257,-500,-799,76,429,-500,506,1840.31
3337990,-25.9488,-1285.51,733.348,1990,8990,240550,53.0245,-706.151,-500,-812,91,431,-500,-451,1817.55
3338013,-3.72725,-1391.76,735.549,-310,-9190,245210,321.915,-574.44,-500,-780,-112,434,-500,-369,2019.2
3338019,6.46014,-1389.16,725.679,4720,-6920,247730,339.58,86.8095,-500,-795,-8,435,-500,727,1923.67
3338031,22.5957,-1357.59,715.039,9400,7930,249090,223.056,613.388,-500,-805,42,437,-500,791,1883.39
3338054,2.97144,-1304.83,719.698,4610,15480,247830,-338.842,105.788,500,-810,94,440,500,-635,1826.57
3338065,-17.3817,-1325.85,726.127,-3610,3490,246070,-380.317,-498.123,500,-804,147,442,500,-687,1769.55
3338071,-27.5094,-1346.61,730.138,-8220,-7060,246780,-337.591,-691.963,500,-767,41,443,500,-666,1863.74
3338083,-35.9035,-1374.31,727.948,-7590,-8840,248570,-58.0356,-292.013,500,-759,-25,445,500,-763,1936.76
3338095,-26.5463,-1351.52,718.357,-3960,-9760,248770,201.676,580.388,500,-782,30,447,500,-17,1891.77
3338101,-18.5204,-1326.93,716.825,2330,-2970,247470,267.53,819.687,500,-788,56,448,500,421,1867.08
3338125,-0.30818,-1199.73,720.754,9260,14260,245110,25.9046,945.536,500,-744,95,451,500,756,1824.9
3338135,-6.53183,-1173.81,724.42,6750,13550,242710,-160.21,366.605,500,-737,101,453,500,-226,1816.8
3338146,-20.3342,-1179.34,727.063,-1920,1480,240490,-287.373,-227.883,500,-728,94,455,500,-627,1818.48
3338152,-28.6462,-1192.07,727.714,-8040,-6630,240700,-277.069,-424.322,500,-720,55,456,500,-624,1858.89
3338162,-40.4659,-1214.43,726.682,-9290,-8130,241290,-210.22,-405.03,500,-735,47,458,500,-638,1868.77
3338174,-47.3904,-1222.97,725.836,-8550,-8110,241840,-85.9405,-39.0494,500,-751,50,460,500,-695,1865.5
3338184,-46.5027,-1209.16,726.834,-6200,-7950,242250,57.2225,376.196,500,-759,54,462,500,-370,1859.73
3338207,-30.566,-1117,733.068,3740,4240,243440,128.042,962.025,500,-744,56,465,500,679,1854.77
3338213,-26.2784,-1088.74,734.855,5950,9840,244220,142.92,941.993,500,-713,60,466,500,652,1848.31
3338224,-24.0459,-1047.71,736.538,5390,10410,244250,7.9976,641.486,500,-700,71,468,500,159,1835.88
3338235,-27.6096,-1030.49,737.929,790,3260,243590,-99.9279,192.707,500,-704,75,470,500,-632,1829.64
3338246,-35.5874,-1035.11,738.603,-4600,-5990,243450,-154.31,-158.171,500,-672,51,472,500,-703,1853.03
3338257,-44.0784,-1042.75,736.191,-6580,-8200,243280,-143.502,-104.057,-500,-674,43,474,-500,663,1863.99
3338268,-51.601,-1037.19,734.249,-6250,20,242820,-118.452,191.192,-500,-676,265,476,-500,800,1678.29
3338279,-54.286,-1016.12,758.832,-60,10410,243330,-37.337,405.565,-500,-643,247,478,-500,800,1633.79
3338285,-51.7324,-1005.08,770.119,2650,12820,243700,85.1194,367.99,-500,-634,194,479,-500,800,1701.51
3338295,-42.3852,-994.528,781.646,4760,13170,244810,243.535,191.808,-500,-625,216,481,-500,777,1651.21
3338318,-12.9171,-1015.24,811.492,5940,9850,246960,232.804,-463.102,-500,-598,210,484,-500,-11,1631.3
3338329,-5.5165,-1044.88,825.041,4330,5400,247590,93.0503,-584.097,-500,-572,137,486,-500,-194,1687.42
3338339,-4.02757,-1072.27,828.696,-400,0,247010,-9.36467,-570.763,-500,-563,135,488,-500,-140,1696.76
3338350,-8.14008,-1099.09,834.117,-5260,-3030,246970,-104.886,-488.429,-500,-552,212,490,-500,47,1609.38
3338356,-12.6584,-1110.34,840.7,-7530,-2620,246830,-150.612,-375.101,-500,-531,264,491,-500,282,1600
3338367,-17.8165,-1117.76,858.017,-6360,1810,246880,-98.2762,-23.8888,-500,-510,353,493,-500,800,1600
3338379,-13.8094,-1105.94,887.086,-2840,7110,248770,101.546,285.266,-500,-477,446,495,-500,800,1600
3338389,-4.20551,-1083.16,919.978,440,10480,251170,248.845,463.387,-500,-436,454,497,-500,800,1600
3338410,15.3686,-1040.55,986.223,1940,11940,253350,141.471,277.406,-500,-373,375,500,-500,800,1600
3338422,17.2869,-1033.38,1015.87,1150,11790,252970,-7.48679,22.3335,-500,-346,330,502,-500,800,1600
3338428,15.9675,-1036.98,1028.61,-150,11100,252710,-43.9809,-120.045,-500,-324,280,503,-500,800,1600
3338439,10.4942,-1051.65,1046.59,-750,10380,253590,-110.545,-330.507,-500,-312,236,505,-500,538,1600
3338450,4.5521,-1074.15,1060.64,-810,8590,255330,-105.104,-439.084,-500,-300,154,507,-500,327,1600
3338459,-1.13475,-1095.18,1064.59,-1390,6760,256880,-174.189,-461.825,500,-284,73,509,500,-800,1600
3338473,-7.60134,-1122.01,1055.34,-2720,380,257990,-101.864,-334.647,500,-288,-34,511,500,-800,1644.94
3338479,-9.30637,-1130.01,1045.31,-6030,-1170,258800,-56.8343,-266.601,500,-330,52,512,500,-800,1600
3338491,-12.3113,-1140.23,1034.15,-5490,-3930,258480,-55.6653,-131.079,500,-350,60,514,500,-800,1600
3338502,-15.4221,-1142.66,1029.91,-5460,-5820,258530,-66.4134,-17.5906,500,-363,12,516,500,-800,1629.07
3338513,-18.008,-1140.7,1022.78,-6250,-5910,258400,-41.7867,23.6057,500,-371,82,518,500,-800,1600
3338519,-20.9337,-1140.18,1022.93,-6260,-5870,257290,-97.5232,17.1895,500,-371,62,519,500,-800,1600
3338530,-24.2441,-1131.14,1021.79,-7180,-5140,256110,-49.3319,196.746,500,-393,68,521,500,-595,1600
3338541,-24.9597,-1114.24,1023.07,-7030,-4330,254410,-6.87616,326.628,500,-389,57,523,500,-348,1600
3338552,-24.9071,-1094.12,1023.7,-7040,-3330,252860,3.39268,376.917,500,-381,27,525,500,-250,1619.04
3338573,-27.2941,-1048.29,1018.28,-7330,-2120,246560,-49.3337,436.793,500,-365,10,528,500,-119,1637.38
3338585,-31.6729,-1024.11,1007.95,-14350,-2310,235940,-89.1747,386.018,500,-387,-331,530,500,-150,1942.32
3338590,-34.8965,-1015.54,991.067,-28740,-2170,229010,-128.943,343.026,500,-469,-579,531,500,-275,2100
3338601,-50.0973,-1000.68,931.865,-36700,-3570,233230,-369.733,228.262,500,-575,-655,533,500,-402,2100
3338624,-108.947,-986.965,796.539,-50670,-6320,312400,-640.266,45.463,500,-831,-691,536,500,-453,2100
3338636,-161.467,-987.046,730.098,-65980,-5780,312900,-961.194,-31.1441,500,-985,-692,538,500,-292,2100
3338642,-193.98,-989.191,701.647,-79760,-1380,310590,-1083.75,-71.499,500,-1152,-587,539,500,-156,2100
3338653,-251.487,-987.397,663.952,-84450,580,310320,-988.237,62.8426,500,-1294,-479,541,500,250,2100
3338663,-286.492,-977.618,646.6,-82390,1870,315080,-573.464,256.048,-500,-1415,-423,543,-500,800,2100
3338675,-300.222,-962.396,636.366,-79380,3110,314230,-132.411,280.356,-500,-1510,-420,545,-500,800,2100
3338685,-293.181,-948.465,631.318,-75290,9030,309700,216.858,296.417,-500,-1592,-459,547,-500,767,2100
3338707,-226.437,-915.831,606.932,-65670,9290,309980,840.448,288.134,-500,-1701,-617,550,-500,608,2100
3338718,-170.118,-893.417,582.277,-61410,10450,308660,1067.02,462.32,-500,-1731,-692,552,-500,577,2100
3338724,-133.382,-876.761,563.036,-56560,10020,308410,1224.51,555.221,-500,-1777,-798,553,-500,573,2100
3338735,-56.5049,-839.838,520.215,-47990,7440,308570,1417.39,768.462,-500,-1810,-814,555,-500,590,2100
3338747,28.1399,-797.193,463.315,-38180,5580,309290,1417.7,738.885,-500,-1821,-883,557,-500,594,2100
3338758,97.9856,-754.766,399.63,-27050,3690,309690,1172.42,785.339,-500,-1836,-992,559,-500,605,2100
