timestamp,x,y,z,pitch,roll,yaw,vx,vy,vz,battery,cpu_load,vicon_count,set_position,set_velocity,calc_thrust
0,0,0,0,0,0,0,0,0,0,0,0,0,0,0,0
3355310,-305.694,-497.547,70.3597,810,-950,248910,-12.6501,1.80157,440,133,76,2118,440,-260,1947
3363023,-115.963,-74.8086,73.4327,810,-940,248910,-1.48301,-1.29726,119.694,140,79,2121,119.694,-230,1945.5
3363032,-115.981,-74.7876,73.4259,780,-940,248820,0.122895,0.582482,119.66,138,76,2124,119.66,-229,1947
3363043,-115.974,-74.7799,73.436,790,-950,248720,-0.423236,0.616982,119.648,133,73,2128,119.648,-229,1948
3363054,-115.998,-74.8019,73.4564,810,-940,248620,-2.18196,-0.640413,119.668,115,64,2132,119.668,-230,1952.5
3363064,-115.988,-74.7833,73.4283,800,-900,248510,-0.585723,-1.14788,119.635,107,59,2136,119.635,-229,1955
3363074,-115.97,-74.7897,73.4281,740,-860,248410,-0.148775,0.664441,119.679,103,55,2140,119.679,-230,1957.5
3363082,-115.983,-74.7972,73.4331,730,-890,248310,-0.176511,-0.821263,119.676,111,59,2143,119.676,-230,1955.5
3363093,-115.979,-74.7996,73.4195,700,-890,248210,1.74942,-1.69391,119.679,109,58,2147,119.679,-230,1956
3363103,-115.965,-74.7944,73.4294,750,-920,248100,0.521166,0.496452,119.671,99,52,2151,119.671,-229,1959
3363114,-115.944,-74.7955,73.4178,810,-890,248020,0.703329,-0.583629,119.673,89,46,2155,119.673,-230,1962
3363125,-115.945,-74.7816,73.4227,860,-910,248080,1.34987,1.19345,119.679,90,48,2159,119.679,-230,1961
3363135,-115.943,-74.7842,73.4201,880,-920,248180,1.86902,0.467207,119.655,96,50,2163,119.655,-229,1960
3363145,-115.985,-74.8046,73.4223,930,-930,248190,-1.2049,-0.585649,119.687,103,52,2167,119.687,-230,1959.5
3363156,-115.981,-74.7929,73.4283,930,-940,248230,-0.614238,-0.339739,119.663,114,57,2171,119.663,-230,1956.5
3363165,-115.996,-74.8123,73.4304,980,-960,248220,-1.50791,-1.15436,119.7,120,57,2174,119.7,-230,1957
3363175,-115.979,-74.788,73.4158,970,-950,248210,0.690195,0.32487,119.661,122,57,2178,119.661,-229,1956.5
3363186,-115.963,-74.7082,73.403,910,-1000,247070,-0.0708552,7.31189,119.533,13,-6,2182,119.533,-227,1988
3363196,-116.139,-74.5561,73.713,930,-980,249130,-20.1109,9.69154,119.29,21,-19,2186,119.29,-226,1994.5
3363205,-115.968,-74.7015,73.4218,990,-930,245990,-18.1235,23.4116,119.522,19,-34,2190,119.522,-223,2002
3363225,-115.953,-74.5918,73.5981,1020,-890,247650,3.27169,3.52927,119.347,-8,-85,2197,119.347,-228,2027
3363247,-115.812,-74.6015,73.7342,1120,-910,252100,9.15428,1.23401,119.362,-34,-128,2204,119.362,-229,2048.5
3363257,-116.025,-74.6227,73.5886,1160,-980,248590,8.35194,1.09616,119.396,-48,-148,2208,119.396,-229,2058.5
3363268,-116.008,-74.6701,73.5405,1220,-1030,246590,8.04607,-5.73744,119.335,-59,-165,2212,119.335,-238,2067
3363279,-115.992,-74.7099,73.8431,-220,-1620,246900,13.6096,-27.2164,119.536,-281,98,2216,119.536,-237,1936
3363309,-119.779,-68.4293,194.578,-490,-1610,247270,-9.39965,101.237,109.487,-213,274,2224,109.487,-197,1848.9
3363318,-119.206,-63.9246,251.858,-540,-1550,247340,36.3678,102.99,102.279,-79,278,2227,102.279,-194,1845.6
3363328,-118.051,-56.2093,314.654,-870,-1280,247260,44.8233,165.131,89.9348,51,292,2231,89.9348,-169,1838.27
3363338,-114.975,-47.0705,376.036,-610,-730,246990,80.4319,196.099,75.3128,154,274,2235,75.3128,-152,1846.45
3363347,-110.744,-37.7852,428.829,-160,-240,246380,103.935,219.546,60.4563,245,247,2238,60.4563,-132,1859.25
3363358,-104.264,-26.6767,489.069,330,170,245650,113.907,207.633,42.6827,349,234,2242,42.6827,-123,1866.15
3363379,-94.7301,-10.6958,594.996,250,250,244730,63.6375,98.6052,17.1133,496,191,2249,17.1133,-132,1858.99
3363400,-92.8755,-2.74529,686.706,80,350,244590,-15.747,64.7383,4.39246,644,122,2256,4.39246,-128,1857.52
3363411,-93.5396,-1.99144,726.515,-160,490,244730,-33.4169,6.79665,3.34943,707,82,2260,3.34943,-143,1865.18
3363418,-94.4763,-2.74509,749.03,-540,420,245030,-29.9076,-44.9144,4.39214,760,68,2263,4.39214,-159,1859.35
3363430,-95.3175,-5.46921,784.875,-950,-10,245380,6.18039,-76.8379,8.75074,827,67,2267,8.75074,-175,1845.3
3363452,-90.4043,-15.2882,843.275,-790,-810,245770,73.8848,-71.2061,23.3218,937,42,2274,23.3218,-202,1834.7
3363461,-86.0259,-18.6962,862.733,-460,-790,245680,98.1188,-60.0558,29.914,962,4,2278,29.914,-193,1843.63
3363481,-73.5224,-24.3619,897.249,-30,-1020,245260,127.797,-43.2673,38.979,987,-31,2284,38.979,-198,1847.32
3363492,-66.2299,-25.7193,913.897,-230,-1130,245020,135.782,-13.4625,41.1508,996,-35,2288,41.1508,-193,1842.87
3363502,-59.9957,-25.5546,928.057,-410,-1040,244760,115.163,-3.30406,40.8874,1017,-46,2292,40.8874,-189,1842.42
3363512,-53.209,-23.9294,940.467,-70,-710,244510,130.465,33.3879,38.2871,1047,-44,2296,38.2871,-178,1836.65
3363522,-45.4023,-20.8191,951.305,50,-480,244430,175.364,61.5735,33.3106,1073,-63,2300,33.3106,-168,1840.99
3363533,-36.3868,-17.1917,959.485,140,-330,244500,158.845,40.9306,28.1615,1086,-79,2304,28.1615,-163,1845.4
3363543,-28.1439,-13.6827,964.53,30,-330,244690,145.018,76.4413,21.8924,1084,-104,2308,21.8924,-159,1855.25
3363552,-21.5777,-11.1745,967.541,-320,-120,244870,145.768,46.0711,17.8791,1084,-128,2311,17.8791,-165,1866.47
3363593,2.76013,-2.13067,971.161,-670,-1070,245310,109.328,75.8984,3.40907,1085,-88,2324,3.40907,-150,1844.62
3363605,9.79255,4.78255,975.561,-340,-840,245310,131.54,132.48,-7.65207,1098,-75,2328,-7.65207,-127,1836.07
3363623,23.3825,20.3189,981.537,810,-260,245280,157.066,202.342,-32.5103,1116,-77,2333,-32.5103,-86,1833.48
3363634,32.193,31.8114,983.634,1220,480,245180,143.939,193.418,-50.8982,1109,-66,2338,-50.8982,-73,1827.27
3363655,46.884,52.9518,990.473,1210,1220,244830,128.035,129.519,-84.7229,1091,-70,2345,-84.7229,-60,1825.18
3363666,51.1842,60.8972,994.17,930,1490,244470,79.2791,114.765,-94.6812,1092,-81,2349,-94.6812,-46,1829.09
3363686,56.5919,64.3613,996.64,940,1420,243990,65.1282,-12.4417,-103.277,1124,-81,2355,-103.277,-73,1827.61
3363705,58.488,56.0436,991.632,710,770,244420,5.60835,-127.965,-89.6697,1155,-103,2361,-89.6697,-109,1839.95
3363717,58.3404,46.95,984.357,480,400,244960,-61.1521,-104.599,-75.12,1140,-115,2366,-75.12,-108,1848.67
3363726,57.9533,38.458,977.515,860,160,245540,-29.9165,-151.851,-61.5327,1126,-118,2369,-61.5327,-132,1852.77
3363732,57.7974,32.2692,972.315,1250,-230,246110,9.26043,-214.827,-51.6307,1125,-106,2371,-51.6307,-162,1848.72
3363756,51.2623,6.75619,953.323,1180,-850,247040,-100.81,-210.228,-10.8099,1114,-97,2377,-10.8099,-187,1852.04
3363778,36.3514,-13.6686,933.478,610,-980,247640,-162.942,-149.704,18.2769,1084,-93,2384,18.2769,-207,1856.74
3363799,15.1307,-27.7805,915.283,140,-860,248080,-239.046,-120.414,44.4488,1067,-83,2391,44.4488,-206,1859.47
3363806,7.30269,-31.5463,908.98,80,-880,248230,-206.268,-109.05,50.4741,1052,-89,2394,50.4741,-212,1864.99
3363819,-7.32405,-37.114,896.574,-120,-1070,248440,-222.208,-76.8449,59.3824,1056,-74,2399,59.3824,-211,1862.96
3363829,-18.8265,-40.17,887.263,-240,-1170,248690,-233.223,-57.8855,64.272,1048,-60,2403,64.272,-210,1859.66
3363840,-31.0742,-41.2774,878.408,-520,-1090,248840,-218.339,17.1362,66.318,1042,-56,2407,66.318,-207,1860.04
3363848,-39.7875,-41.218,871.603,-620,-840,248920,-219.214,11.7841,65.9487,1040,-52,2410,65.9487,-197,1861.84
3363859,-50.3852,-39.1833,861.658,-780,-460,248910,-205.792,46.4845,62.6933,1035,-44,2414,62.6933,-188,1861.29
3363889,-70.0764,-28.7528,834.767,-440,120,248100,-93.7022,78.6661,46.0045,1057,-2,2423,46.0045,-169,1851.86
3363900,-74.6072,-24.2695,825.434,-340,280,247900,-45.6418,34.9525,38.8312,1050,6,2427,38.8312,-177,1851.46
3363911,-77.5637,-20.9768,816.089,-640,310,247770,-17.4726,-2.31419,33.563,1055,21,2431,33.563,-185,1846.53
3363921,-78.7836,-18.8715,807.926,-830,110,247660,-3.56154,40.4915,30.1945,1069,45,2435,30.1945,-170,1837.58
3363931,-79.7453,-17.5809,800.519,-890,-320,247450,-14.2334,-0.589171,28.1294,1110,57,2439,28.1294,-180,1834.27
3363941,-78.9169,-17.1909,790.49,-1030,-480,247210,15.2534,11.4404,27.5055,1125,40,2443,27.5055,-177,1845.54
3363950,-78.0263,-16.681,779.624,-890,-620,247190,13.4306,5.80127,26.6897,1125,28,2446,26.6897,-179,1856.8
3363961,-76.7386,-16.0681,764.01,-300,-670,247260,22.0971,8.19193,25.709,1136,24,2450,25.709,-178,1864.52
3363972,-74.9577,-15.4167,746.698,410,-410,247130,18.9895,12.2888,24.8633,1146,37,2454,24.8633,-178,1864.65
3363992,-75.1563,-13.9507,719.554,370,-110,246330,-16.7159,2.3625,22.3211,1170,68,2460,22.3211,-175,1860.75
3364002,-77.0022,-14.0728,705.661,-240,-20,245940,-36.798,-3.99096,22.5164,1186,67,2464,22.5164,-177,1866.82
3364023,-82.8285,-17.9823,673.339,-1010,410,245120,-49.2368,-55.9886,28.7717,1175,36,2471,28.7717,-193,1895.61
3364033,-84.6076,-22.4643,655.812,-940,310,245020,-34.9533,-98.1784,35.9429,1170,31,2475,35.9429,-212,1905.99
3364042,-85.2599,-27.4502,640.024,-640,0,245070,-10.637,-125.418,43.9203,1155,40,2478,43.9203,-224,1908.75
3364052,-84.3231,-34.4206,623.448,-450,-280,245140,23.4208,-142.924,55.0729,1141,64,2482,55.0729,-234,1903.8
3364073,-79.009,-49.6022,598.142,-220,-570,245020,71.4624,-141.213,79.3636,1123,98,2489,79.3636,-242,1897.63
3364083,-75.3193,-55.2473,589.404,-160,-510,244790,87.3592,-85.4935,88.3958,1094,110,2493,88.3958,-228,1894.92
3364093,-71.2082,-60.6166,583.618,-60,-430,244550,57.985,-96.7393,96.9866,1069,116,2497,96.9866,-233,1894.53
3364104,-66.2681,-65.917,579.985,-360,-300,244370,77.8156,-99.8068,105.467,1060,128,2501,105.467,-236,1889.77
3364114,-61.748,-69.724,579.61,-810,-780,244380,90.4,-69.9174,111.558,1041,124,2505,111.558,-229,1892.18
3364124,-55.6179,-72.5925,580.577,-1060,-1170,244680,139.41,-48.6679,116.148,1026,122,2509,116.148,-228,1893.04
3364135,-46.2232,-73.1329,582.604,-660,-1480,245300,227.387,4.5208,117.013,1016,120,2513,117.013,-217,1893.52
3364145,-36.2282,-70.4286,586.288,510,-1450,246030,192.425,79.7336,112.686,1025,160,2517,112.686,-195,1872.7
3364155,-25.4008,-64.3946,593.258,1110,-870,246860,219.897,138.059,103.031,1036,160,2521,103.031,-178,1869.44
3364165,-16.2848,-56.1357,600.901,1230,-460,247450,181.59,158.507,89.8171,1054,167,2525,89.8171,-166,1863.89
3364175,-9.92994,-45.0635,610.25,1230,-350,247850,121.939,214.573,72.1017,1078,162,2529,72.1017,-140,1860.08
3364186,-5.27481,-32.3025,619.111,780,-440,247930,55.6917,249.066,55.6691,1107,149,2533,55.6691,-121,1865.03
3364205,-1.54323,-7.50668,631.585,670,220,247460,47.8596,236.18,12.0107,1099,141,2539,12.0107,-88,1863.45
3364216,-1.00695,9.8707,641.124,800,750,246870,-3.73012,313.058,-15.7931,1065,128,2543,-15.7931,-41,1866.12
3364237,-0.654179,41.4257,662.07,1030,2050,245380,-25.114,311.496,-66.2812,1045,100,2549,-66.2812,4,1871.24
3364246,-1.52672,52.3443,670.776,830,2260,244860,-29.1548,219.116,-83.7509,1035,84,2552,-83.7509,-3,1876.36
3364256,-2.97895,61.4051,679.906,460,2150,244530,-32.7879,164.41,-98.2482,1030,71,2556,-98.2482,-2,1878.81
3364288,-5.35654,67.4527,704.134,430,2040,244560,-0.621183,-60.191,-109.369,1009,36,2564,-109.369,-31,1888.52
3364298,-5.01451,62.9375,709.782,450,1800,244810,16.9516,-130.431,-100.7,1006,25,2568,-100.7,-69,1890.11
3364309,-5.71712,56.0847,715.492,300,1440,245080,-14.9177,-144.248,-89.7355,1002,22,2572,-89.7355,-78,1891.61
3364329,-7.50771,35.503,724.8,-180,830,245700,-43.8356,-191.5,-56.8047,1020,28,2577,-56.8047,-111,1884.3
3364349,-8.30834,9.13061,732.876,160,60,245680,-9.27815,-284.296,-14.609,1004,29,2583,-14.609,-171,1880.82
3364358,-9.0797,-2.7265,737.079,70,-310,245370,-9.93564,-273.638,4.3624,1002,43,2586,4.3624,-183,1872.72
3364378,-10.1471,-28.0558,748.878,-160,-780,244300,28.2746,-250.224,44.8893,1006,69,2593,44.8893,-208,1854.36
3364389,-10.5528,-38.9218,757.433,-620,-1100,243850,15.9952,-184.232,62.275,1009,63,2597,62.275,-202,1852.77
3364401,-9.63079,-47.4061,764.972,-950,-1390,243690,37.4715,-118.738,73,1011,53,2601,73,-194,1856.32
3364411,-6.71331,-51.4421,769.991,-490,-1390,243710,78.7668,-62.4166,82.3074,1012,60,2605,82.3074,-190,1849.97
3364420,-3.45759,-51.2701,774.984,-60,-1220,243820,83.465,8.19359,82.0322,1020,75,2607,82.0322,-174,1840.25
3364451,5.25544,-35.7878,791.501,50,200,244020,24.2056,133.717,57.2604,1039,51,2617,57.2604,-125,1844.84
3364462,5.73541,-28.0174,793.608,-260,650,244220,8.30945,142.546,48.2489,1052,33,2621,48.2489,-118,1851.92
3364471,6.2577,-21.8711,793.027,-410,770,244490,30.8022,131.877,37.1038,1063,23,2625,37.1038,-113,1857.33
3364482,8.00031,-15.2074,790.694,-250,630,244960,34.7592,111.884,27.017,1073,23,2629,27.017,-112,1858.46
3364492,10.7035,-10.1298,787.074,230,350,245520,63.2811,103.518,17.864,1048,17,2633,17.864,-114,1863.86
3364503,14.0703,-5.51138,784.245,810,220,245950,61.3966,65.0721,10.3799,1047,38,2637,10.3799,-112,1853.51
3364511,16.5736,-2.24179,783.287,1350,430,246150,61.6683,79.799,3.58687,1040,41,2640,3.58687,-112,1852.47
3364523,18.7935,1.74096,782.215,1330,470,246220,36.7367,89.6565,-2.78554,1035,45,2645,-2.78554,-104,1850.74
3364543,15.3664,4.75339,780.881,400,620,245760,-65.546,9.87435,-7.60543,1031,38,2651,-7.60543,-119,1853.97
3364553,12.0677,3.92467,778.339,-230,810,245370,-75.592,-77.2429,-6.27947,1032,17,2655,-6.27947,-142,1865.43
3364573,5.06305,-0.556862,767.628,0,370,245290,-51.5449,-63.882,0.89098,1018,8,2660,0.89098,-144,1875.87
3364604,-3.78294,-17.265,748.99,0,-780,246750,-66.4617,-94.7709,27.624,986,-1,2669,27.624,-178,1887.63
3364613,-7.44405,-21.6804,742.804,100,-820,247040,-94.3824,-98.2267,34.6887,981,20,2673,34.6887,-187,1879.29
3364623,-11.5207,-26.2404,736.307,90,-790,247040,-88.2511,-76.6227,41.9846,970,16,2677,41.9846,-188,1884.56
3364634,-17.6055,-29.1123,730.062,-140,-680,246850,-107.003,-54.0587,46.5797,991,36,2681,46.5797,-186,1876.68
3364654,-29.0741,-32.3803,717.772,-510,-840,246150,-134.511,26.1486,51.8084,1003,29,2688,51.8084,-166,1884.85
3364665,-35.5783,-32.0136,709.014,-300,-470,245960,-131.418,52.6341,51.2218,1039,51,2692,51.2218,-158,1879.52
3364696,-53.528,-28.1479,677.576,-520,530,246040,-116.128,13.99,45.0366,1090,49,2701,45.0366,-168,1893.08
3364707,-60.6777,-27.8061,664.579,-140,110,245970,-124.379,2.43324,44.5482,1107,95,2705,44.5482,-175,1875.1
3364717,-67.2586,-28.2097,656.464,-320,-620,245880,-155.672,-6.91192,45.1356,1114,131,2709,45.1356,-174,1859.66
3364725,-72.523,-28.929,652.008,-700,-570,245840,-132.632,-28.115,46.2865,1099,130,2712,46.2865,-184,1861.38
3364746,-85.5306,-26.9666,643.769,-780,-90,245310,-105.714,44.7049,43.1466,1087,143,2719,43.1466,-162,1858.04
3364758,-91.5902,-24.463,641.407,-1190,40,245140,-106.689,47.8846,40.29,1086,135,2723,40.29,-157,1862.68
3364767,-94.5832,-22.29,640.059,-1200,0,245130,-51.5412,43.5036,35.6639,1082,135,2726,35.6639,-160,1864.42
3364776,-96.0915,-19.7499,639.204,-820,-280,245340,-18.36,62.4099,31.5998,1079,141,2729,31.5998,-155,1861.2
3364799,-95.0866,-12.2893,639.188,-790,-100,246290,2.36535,58.6308,21.0701,1081,118,2737,21.0701,-144,1872.68
3364809,-91.6146,-8.28399,637.729,-520,-30,246750,53.2402,69.7409,14.3702,1099,119,2741,14.3702,-146,1873.23
3364817,-87.6089,-5.11512,636.311,150,-270,247030,101.618,116.925,8.18419,1095,119,2744,8.18419,-134,1873.47
3364839,-76.2537,4.02641,632.647,410,540,247020,96.618,75.7019,-6.44226,1127,105,2751,-6.44226,-137,1882.1
3364850,-71.0791,7.57239,628.714,200,900,246790,99.3649,48.7059,-10.9469,1130,87,2755,-10.9469,-124,1891.77
3364858,-66.975,9.03244,624.885,690,1060,246290,91.7703,56.8508,-14.4519,1128,82,2758,-14.4519,-134,1897.69
3364868,-61.0082,8.7467,619.945,1140,680,245740,140.894,-35.7861,-13.9947,1157,117,2762,-13.9947,-162,1882.9
3364879,-54.4047,6.0657,617.999,810,360,245160,123.006,-81.4624,-9.70512,1170,146,2766,-9.70512,-177,1868.72
3364891,-47.4459,0.903916,619.762,490,-30,244750,126.393,-128.643,-4.53371,1167,178,2770,-4.53371,-180,1852.2
3364910,-37.7733,-7.5081,632.753,670,-320,245130,113.272,-88.5065,12.013,1149,173,2775,12.013,-195,1847.77
3364951,-25.053,-23.1636,648.317,-110,-380,247020,66.4846,-87.8808,37.0618,1138,60,2787,37.0618,-220,1898.74
3364954,-24.524,-23.1193,648.329,760,-600,247510,35.265,2.95286,36.991,1133,66,2788,36.991,-193,1896.53
3364970,-19.6101,-25.7593,647.257,1130,-960,247990,51.1713,-34.6163,41.215,1135,73,2791,41.215,-207,1893.21
3364992,-17.879,-22.7481,650.577,1360,-760,248440,-26.1501,57.3098,36.397,1120,74,2798,36.397,-179,1891.85
3365003,-20.3225,-19.0281,653.002,460,-390,248370,-50.4711,47.3092,31.5805,1105,62,2802,31.5805,-166,1896.28
3365021,-27.9176,-9.0861,656.874,-280,40,247640,-95.8763,118.966,14.5378,1048,37,2808,14.5378,-142,1908.82
3365032,-31.152,-2.86498,659.606,-150,440,246900,-49.6907,104.347,4.58397,1037,46,2812,4.58397,-137,1903.59
3365042,-32.5801,3.1593,663.6,-110,830,246100,-20.5094,111.947,-5.05489,1038,58,2816,-5.05489,-126,1896.28
3365052,-33.7027,8.44624,669.005,120,1080,245700,-4.42957,92.0265,-13.514,1028,72,2820,-13.514,-122,1887.32
3365063,-33.3231,12.3622,677.083,210,1030,245730,14.4159,51.6204,-19.7796,1022,79,2824,-19.7796,-129,1880.72
3365072,-32.0686,13.8131,684.659,240,1190,245990,13.5402,12.4638,-22.101,1037,78,2827,-22.101,-138,1878.27
3365082,-29.578,13.4441,692.597,390,1050,246270,56.0281,-18.3347,-21.5105,1049,63,2831,-21.5105,-149,1882.19
3365094,-25.6167,9.62046,699.651,240,450,246710,68.5067,-71.1958,-15.3927,1051,52,2835,-15.3927,-171,1884.49
3365104,-22.3905,5.51866,705.151,460,130,246970,75.8296,-100.906,-8.82985,1040,40,2839,-8.82985,-185,1889.46
3365125,-13.683,-7.81911,714.844,550,-790,247270,84.5827,-128.212,12.5106,1046,47,2846,12.5106,-212,1882.4
3365135,-10.17,-14.3572,719.715,870,-960,247460,60.7976,-123.48,22.9715,1052,60,2850,22.9715,-219,1874.02
3365144,-7.53737,-19.6396,724.357,560,-900,247600,46.6004,-111.386,31.4234,1072,53,2853,31.4234,-225,1875.69
3365155,-5.63503,-25.0153,729.027,500,-790,247760,30.9673,-91.8875,40.0245,1096,48,2857,40.0245,-224,1876.37
3365186,-6.64397,-33.2052,733.749,1720,-820,248290,-43.1687,-18.7899,53.1283,1106,45,2867,53.1283,-205,1876.71
3365206,-18.4556,-31.9009,738.553,890,-370,248450,-171.966,21.0927,51.0415,1097,29,2873,51.0415,-189,1881.35
3365217,-28.1271,-30.497,739.779,100,-520,248500,-174.562,-1.73068,48.7537,1097,29,2877,48.7537,-184,1881.49
3365236,-46.1381,-23.2159,741.465,-590,-260,249140,-194.303,157.295,37.1454,1094,30,2882,37.1454,-142,1881.02
3365246,-52.9994,-17.9212,741.679,-340,20,249340,-119.722,85.1161,28.6738,1104,33,2886,28.6738,-159,1879.51
3365256,-58.3429,-10.6791,742.112,50,250,249420,-58.5145,119.761,17.0865,1108,33,2890,17.0865,-142,1879.39
3365256,-58.3429,-10.6791,742.112,170,320,249420,-58.5145,119.761,17.0865,1112,34,2890,17.0865,-137,1879.46
3365256,-58.3429,-10.6791,742.112,-150,740,249380,-58.5145,119.761,17.0865,1103,37,2890,17.0865,-133,1878.02
3365256,-58.3429,-10.6791,742.112,-600,660,249300,-58.5145,119.761,17.0865,1095,47,2890,17.0865,-129,1873.05
3365256,-58.3429,-10.6791,742.112,-820,310,249230,-58.5145,119.761,17.0865,1093,64,2890,17.0865,-125,1865
3365256,-58.3429,-10.6791,742.112,-740,-160,249280,-58.5145,119.761,17.0865,1094,80,2890,17.0865,-121,1856.38
3365256,-58.3429,-10.6791,742.112,-700,-420,249440,-58.5145,119.761,17.0865,1101,75,2890,17.0865,-116,1858.21
3365256,-58.3429,-10.6791,742.112,-720,-70,249720,-58.5145,119.761,17.0865,1092,53,2890,17.0865,-112,1869.62
3365256,-58.3429,-10.6791,742.112,-50,440,250030,-58.5145,119.761,17.0865,1095,59,2890,17.0865,-108,1866.09
3365256,-58.3429,-10.6791,742.112,-180,960,250260,-58.5145,119.761,17.0865,1127,73,2890,17.0865,-104,1858.47
3365259,-60.1331,-7.7622,742.311,-30,1030,250510,-119.341,194.459,12.4195,1145,63,2891,12.4195,-76,1863.79
3365259,-60.1331,-7.7622,742.311,-160,1160,250620,-119.341,194.459,12.4195,1163,64,2891,12.4195,-68,1863.21
3365259,-60.1331,-7.7622,742.311,-500,1170,250510,-119.341,194.459,12.4195,1162,70,2891,12.4195,-61,1860.11
3365259,-60.1331,-7.7622,742.311,-630,1090,250330,-119.341,194.459,12.4195,1152,78,2891,12.4195,-54,1855.97
3365259,-60.1331,-7.7622,742.311,-560,980,250130,-119.341,194.459,12.4195,1158,80,2891,12.4195,-47,1854.8
3365259,-60.1331,-7.7622,742.311,-140,1360,249850,-119.341,194.459,12.4195,1161,69,2891,12.4195,-39,1859.16
3365259,-60.1331,-7.7622,742.311,10,1700,249470,-119.341,194.459,12.4195,1152,64,2891,12.4195,-32,1862.56
3365259,-60.1331,-7.7622,742.311,190,1680,249050,-119.341,194.459,12.4195,1142,74,2891,12.4195,-24,1857.44
3365259,-60.1331,-7.7622,742.311,-30,1750,248710,-119.341,194.459,12.4195,1146,67,2891,12.4195,-17,1860.81
3365259,-60.1331,-7.7622,742.311,-120,1930,248360,-119.341,194.459,12.4195,1170,72,2891,12.4195,-10,1858.19
3365259,-60.1331,-7.7622,742.311,-180,2050,247970,-119.341,194.459,12.4195,1150,51,2891,12.4195,-2,1868.13
3365259,-60.1331,-7.7622,742.311,-300,2050,247610,-119.341,194.459,12.4195,1151,54,2891,12.4195,4,1867.09
3365259,-60.1331,-7.7622,742.311,-460,2370,247200,-119.341,194.459,12.4195,1142,47,2891,12.4195,11,1870.07
3365259,-60.1331,-7.7622,742.311,-450,2680,246730,-119.341,194.459,12.4195,1151,45,2891,12.4195,18,1871.57
3365259,-60.1331,-7.7622,742.311,-380,2880,246210,-119.341,194.459,12.4195,1156,28,2891,12.4195,26,1879.11
3365259,-60.1331,-7.7622,742.311,-610,3050,245750,-119.341,194.459,12.4195,1150,24,2891,12.4195,33,1882.73
3365259,-60.1331,-7.7622,742.311,-680,3260,245340,-119.341,194.459,12.4195,1130,24,2891,12.4195,40,1882.85
3365259,-60.1331,-7.7622,742.311,-760,3370,244950,-119.341,194.459,12.4195,1123,33,2891,12.4195,48,1877.95
3365259,-60.1331,-7.7622,742.311,-960,3280,244670,-119.341,194.459,12.4195,1109,31,2892,12.4195,55,1879
3365553,476.834,-262.202,799.17,690,-650,244430,797.817,-1123.74,419.523,1108,45,2897,419.523,-542,1848.59
3365563,516.974,-318.846,800.742,2700,-5280,244030,777.787,-1093.59,440,1102,17,2901,440,-608,1861.8
3365574,558.477,-376.764,800.878,3580,-6990,243530,701.818,-996.132,440,1086,2,2905,440,-653,1869.21
3365584,589.578,-419.612,800.536,3730,-7330,243130,550.881,-748.957,440,1076,11,2909,440,-580,1865.8
3365594,612.458,-451.453,802.398,3530,-6560,242800,413.761,-558.609,440,1061,19,2913,440,-537,1861.17
3365605,628.189,-474.834,805.676,3150,-5070,242480,240.36,-361.941,440,1047,23,2917,440,-474,1857.27
3365614,635.065,-486.8,808.937,2910,-3620,242190,115.563,-222.741,440,1058,41,2921,440,-416,1847.06
3365624,636.634,-494.759,812.812,2560,-2750,242000,0.0916763,-142.233,440,1069,32,2925,440,-388,1848.78
3365645,624.669,-501.301,816.849,2390,-2160,242220,-196.337,-21.7324,440,1089,16,2932,440,-343,1855.29
3365664,598.241,-501.28,816.324,1880,-1760,242890,-329.387,10.5423,440,1100,9,2938,440,-325,1858.72
3365675,577.049,-499.419,814.487,1620,-1570,243220,-412.525,38.4095,440,1098,14,2942,440,-310,1856.33
3365686,552.813,-496.964,811.373,1390,-1410,243570,-473.441,56.4752,440,1085,3,2946,440,-300,1862.99
3365696,528.375,-494.005,807.926,1060,-1420,244060,-507.927,76.005,440,1063,0,2950,440,-291,1866.32
3365717,471.095,-484.174,802.905,440,-1520,245290,-571.289,120.871,440,1042,25,2957,440,-274,1855.56
3365727,442.234,-477.275,801.604,300,-1660,246080,-582.29,153.417,440,1064,24,2961,440,-264,1855.84
3365737,412.716,-468.267,798.127,240,-1630,246960,-605.588,197.168,440,1074,16,2965,440,-248,1861.83
3365746,385.267,-457.928,793.791,10,-1380,247800,-607.259,236.267,440,1067,-6,2968,440,-236,1874.56
3365758,347.663,-441.636,785.295,-410,-1140,248580,-626.665,294.735,440,1060,-21,2973,440,-223,1884.59
3365768,316.128,-426.095,776.739,-1120,-830,249240,-621.651,304.303,440,1054,-9,2977,440,-211,1882.63
3365776,291.944,-411.994,770.702,-1610,-690,249640,-591.964,355.675,440,1042,4,2980,440,-203,1879.67
3365797,236.614,-371.422,758.119,-1600,-510,250060,-440.223,402.18,440,1041,20,2987,440,-193,1876.4
3365808,213.491,-348.472,752.398,-1820,-450,250020,-391.771,419.28,440,1047,27,2991,440,-189,1875.75
3365819,194.717,-324.306,747.134,-1900,-370,249770,-308.537,440.246,440,1048,30,2996,440,-181,1875.56
3365829,181.251,-301.469,741.675,-2060,-350,249430,-236.96,465.476,440,1049,25,3000,440,-176,1880.26
3365848,168.011,-255.903,730.717,-1380,20,249300,-56.5877,480.942,409.445,1030,12,3006,409.445,-158,1891.86
3365858,167.169,-231.682,724.319,-980,10,249540,17.3046,483.087,370.692,1028,16,3010,370.692,-145,1892.64
3365870,170.264,-203.195,716.544,-660,-180,249710,58.2188,502.856,325.111,1033,19,3014,325.111,-122,1894.48
3365880,175.393,-179.733,709.685,-270,-140,249690,120.502,468.835,287.573,1043,28,3018,287.573,-117,1892.95
3365909,204.529,-114.238,685.55,400,500,249150,240.196,442.227,182.781,1057,22,3027,182.781,-71,1906.98
3365940,245.011,-53.0398,654.567,1860,700,248810,223.58,358.957,84.8637,1044,13,3037,84.8637,-37,1924.67
3365960,268.936,-25.3035,633.437,2110,1170,248600,210.968,221.826,40.4856,1019,55,3043,40.4856,-50,1913.11
3365971,278.876,-15.4496,626.817,2190,910,248610,166.053,142.431,24.7193,1011,80,3047,24.7193,-62,1904.09
3365980,285.31,-11.3309,623.914,1880,520,248570,120.531,56.7625,18.1294,1008,100,3051,18.1294,-83,1895
3366002,294.063,-12.851,621.809,1400,220,248270,52.7164,-62.9578,20.5617,1025,113,3058,20.5617,-122,1890.19
3366011,295.808,-17.4869,620.873,1400,-460,247980,29.7127,-119.171,27.9791,1021,90,3061,27.9791,-146,1900.65
3366033,296.067,-33.2345,613.981,1720,-1320,247910,-12.0056,-154.053,49.478,1030,89,3068,49.478,-175,1904.5
3366063,281.969,-50.3589,607.289,970,-1360,248700,-161.095,-60.304,80.5743,1038,107,3077,80.5743,-177,1898.58
3366074,271.828,-53.6381,606.844,690,-1360,249040,-201.778,-44.3906,84.7556,1040,95,3081,84.7556,-183,1904.22
3366082,263.097,-55.1022,605.95,550,-1150,249300,-239.621,-28.2672,88.1636,1031,92,3084,88.1636,-179,1906.12
3366103,237.889,-55.2618,607.539,390,-940,249490,-264.899,9.50839,88.4188,991,94,3091,88.4188,-174,1903.98
3366114,224.398,-54.57,610.388,560,-1220,249310,-241.865,8.90858,87.3121,973,85,3095,87.3121,-177,1907.84
3366125,210.024,-52.6846,613.902,620,-1120,249120,-263.795,58.7697,85.7059,975,99,3099,85.7059,-171,1901.45
3366135,196.108,-49.6936,619.07,510,-960,248860,-310.899,123.088,81.4791,981,108,3103,81.4791,-177,1893.43
3366176,140.624,-29.3286,643.461,-1240,-510,247910,-192.9,98.4583,49.2887,1001,100,3115,49.2887,-127,1888.85
3366206,122.061,-5.10524,663.943,-610,330,247750,-68.3677,144.242,8.16838,985,55,3124,8.16838,-91,1901.42
3366237,119.223,20.2022,681.735,-380,870,248490,34.9561,77.7271,-32.3235,989,37,3134,-32.3235,-81,1901.81
3366248,120.604,25.959,688.058,-320,1000,248450,21.3058,79.6604,-41.5343,995,39,3138,-41.5343,-72,1900.78
3366258,123.709,28.6013,694.437,-240,910,248260,87.304,46.5176,-45.762,1002,47,3142,-45.762,-79,1893.73
3366268,127.486,29.1225,701.853,-170,880,247890,84.6796,9.38846,-46.5959,1011,56,3146,-46.5959,-88,1886.26
3366277,132.343,27.752,708.908,70,880,247320,127.442,-48.657,-44.4032,1010,67,3149,-44.4032,-106,1878.44
3366288,138.173,24.5458,720.36,480,640,246750,107.942,-54.8625,-39.2732,1021,66,3153,-39.2732,-110,1874.36
3366307,148.737,15.1434,739.224,1290,500,246100,98.357,-112.248,-24.2294,1070,67,3159,-24.2294,-137,1865.16
3366318,152.906,8.23954,749.194,1430,450,246050,78.8403,-125.514,-13.1833,1082,55,3163,-13.1833,-148,1867.59
3366348,149.808,-20.2049,770.939,710,-380,246360,-82.5814,-230.042,32.3278,1096,22,3170,32.3278,-211,1875.24
3366359,143.599,-33.2311,777.529,-20,-980,246620,-117.421,-237.959,53.1698,1097,14,3174,53.1698,-229,1876.62
3366370,136.401,-45.5787,783.109,-310,-1490,246630,-134.195,-199.993,69.726,1103,0,3178,69.726,-244,1881.81
3366391,124.031,-62.5093,792.998,-830,-1590,245990,-120.812,-100.699,98.4036,1125,19,3185,98.4036,-240,1868.49
3366410,118.363,-67.515,803.918,140,-1620,245310,-12.6428,-17.6359,108.024,1155,34,3191,108.024,-226,1855.79
3366421,116.289,-65.6389,810.218,390,-1220,245110,-16.8716,40.7706,106.001,1175,30,3195,106.001,-209,1856.13
3366441,113.787,-55.4903,818.03,360,-1000,244840,-35.5254,132.497,91.9644,1188,13,3201,91.9644,-182,1858.84
3366460,111.159,-39.9787,820.11,460,-220,244450,-55.2935,165.118,63.9659,1180,0,3207,63.9659,-151,1865.57
3366472,108.79,-28.304,821.715,460,-210,244380,-37.6933,192.513,45.2864,1202,21,3211,45.2864,-132,1854.3
3366482,106.597,-18.2117,824.012,740,-90,244540,-47.8463,207.583,29.1388,1222,13,3215,29.1388,-116,1857.19
3366493,103.266,-6.6266,824.123,800,210,244880,-56.4282,208.401,15.6042,1240,-7,3219,15.6042,-99,1865.86
3366511,96.0836,12.4566,817.381,720,1000,245750,-79.8724,208.602,-19.9305,1228,-46,3225,-19.9305,-76,1889.34
3366523,89.6292,22.5049,810.176,1020,1040,246090,-112.286,146.933,-32.4815,1221,-41,3229,-32.4815,-74,1889.22
3366543,78.2996,30.0996,802.199,650,300,246110,-130.698,31.0976,-47.4131,1223,9,3236,-47.4131,-98,1869.11
3366554,71.3404,30.0695,801.787,660,290,245900,-136.905,-10.983,-48.1111,1229,38,3240,-48.1111,-108,1854.25
3366562,66.1651,28.5807,803.392,680,400,245660,-83.0816,-73.2505,-45.7291,1230,52,3243,-45.7291,-128,1845.87
3366574,56.7225,24.484,808.095,550,150,245390,-186.957,-44.7382,-39.1745,1244,71,3247,-39.1745,-117,1834.15
3366584,47.8772,19.0508,812.714,190,-240,245060,-182.499,-101.79,-30.4813,1250,62,3251,-30.4813,-138,1835.91
3366593,39.4632,12.8221,816.041,-450,-630,244790,-177.746,-142.139,-20.5154,1250,40,3254,-20.5154,-154,1845.27
3366604,29.5592,5.10545,818.039,-1080,-610,244600,-160.548,-152.351,-8.16872,1238,27,3258,-8.16872,-165,1850.74
3366615,19.5702,-1.03669,820.834,-1360,-370,244610,-217.091,-126.555,-1.37863,1224,10,3262,-1.37863,-159,1858.02
3366635,11.5117,-8.09708,818.641,-410,-470,244720,-57.6907,-77.68,12.9553,1202,0,3268,12.9553,-162,1865.25
3366644,9.49488,-11.4205,818.924,-90,-1140,244840,-45.2814,-67.7184,18.2729,1216,30,3271,18.2729,-165,1849.98
3366656,7.98045,-16.4828,821.941,-360,-1580,245040,-19.9755,-77.5521,26.3726,1210,35,3275,26.3726,-176,1844.99
3366665,7.06275,-19.3603,825.79,-640,-1370,245370,-30.3554,-69.0898,30.9765,1212,60,3278,30.9765,-179,1830.62
3366676,6.75521,-20.2542,833.87,-550,-1480,245630,-6.13744,-5.44348,32.4067,1228,79,3282,32.4067,-164,1817.41
3366686,7.85307,-19.6343,841.974,-800,-1580,246110,39.4267,-11.5993,31.4149,1246,66,3286,31.4149,-170,1819.13
3366707,12.2107,-7.86834,853.029,280,-480,247260,78.0618,159.968,12.5893,1218,-52,3293,12.5893,-106,1874.03
3366726,20.8859,10.3856,849.538,170,-210,247250,116.33,190.95,-16.617,1215,-22,3297,-16.617,-82,1861.42
3366746,31.839,28.1866,852.877,110,60,247150,99.6995,133.066,-45.0985,1195,-17,3303,-45.0985,-75,1856.85
3366746,31.839,28.1866,852.877,360,100,247200,99.6995,133.066,-45.0985,1205,-9,3303,-45.0985,-68,1852.19
3366766,43.6954,42.1386,860.261,900,410,247400,117.01,103.43,-67.4218,1218,-15,3307,-67.4218,-64,1852.06
3366769,45.1542,44.011,861.603,1370,750,247500,97.2501,124.825,-70.4176,1192,-41,3308,-70.4176,-49,1864.42
3366769,45.1542,44.011,861.603,1360,870,247510,97.2501,124.825,-70.4176,1187,-49,3308,-70.4176,-42,1868.41
3366798,54.0643,50.0769,868.806,990,730,247480,-23.312,-1.45065,-80.1231,1183,-37,3311,-80.1231,-66,1860
3366800,54.1189,49.4168,869.234,360,130,247440,5.46077,-66.0143,-79.0668,1172,-35,3312,-79.0668,-86,1856.7
3366816,52.3316,41.1728,876.097,70,430,247330,-41.7988,-106.44,-65.8764,1183,-48,3314,-65.8764,-101,1861.88
3366828,50.6534,32.6132,879.633,130,570,247160,-18.3116,-150.795,-52.1811,1186,-63,3318,-52.1811,-122,1867.42
3366831,50.6325,29.5431,879.757,400,120,247070,-1.39249,-204.671,-47.269,1185,-78,3319,-47.269,-147,1874.91
3366833,50.0393,28.5023,880.362,790,-540,246980,-59.3152,-104.085,-45.6037,1200,-83,3320,-45.6037,-119,1877.25
3366847,49.0977,14.7977,879.935,730,-820,247110,-13.4527,-195.78,-23.6763,1214,-90,3321,-23.6763,-157,1881.55
3366870,46.6754,-12.726,873.399,310,-1640,247360,-26.7606,-238.767,20.3617,1226,-90,3325,20.3617,-193,1884.33
3366879,45.6732,-22.7413,869.118,0,-2280,247380,-32.6771,-207.404,36.386,1258,-74,3328,36.386,-198,1878.16
3366900,45.1984,-37.2466,857.115,-180,-1570,247180,16.4303,-79.7438,59.5945,1259,-70,3334,59.5945,-185,1881.19
3366909,47.032,-40.0637,851.791,-320,-1370,247020,48.1282,-68.5656,64.1019,1252,-72,3337,64.1019,-190,1883.95
3366920,51.3898,-41.4409,844.795,170,-1170,246970,93.9376,-13.5517,66.3055,1228,-80,3341,66.3055,-180,1891.94
3366931,57.238,-41.8811,837.522,790,-1050,247000,118.962,-0.555616,67.0098,1230,-57,3344,67.0098,-181,1884.54
3366941,63.0485,-42.0455,831.912,1110,-1040,247050,132.469,-15.6204,67.2727,1214,-53,3348,67.2727,-189,1883.41
3366952,68.0897,-41.4417,827.314,1130,-990,247020,44.3109,0.516684,66.315,1188,-56,3352,66.315,-179,1887.23
3366962,72.6917,-40.4746,823.393,1060,-1190,247060,46.6857,19.8229,64.7593,1182,-47,3356,64.7593,-181,1884.65
3366972,76.4814,-39.4233,819.92,780,-1330,247190,63.6717,30.3813,63.0773,1192,-38,3360,63.0773,-180,1881.17
3366982,79.3774,-37.5682,816.708,980,-1350,247100,59.2273,49.3693,60.1091,1192,-23,3364,60.1091,-175,1875.02
3366991,81.4188,-35.4572,814.596,1090,-1200,246820,49.0635,37.9256,56.7315,1185,-29,3367,56.7315,-178,1878.93
3367002,83.1446,-31.2112,811.841,1430,-1010,246260,23.6507,69.5683,49.9379,1200,-15,3371,49.9379,-164,1873.61
3367033,82.5387,-17.9141,799.932,1370,-490,244510,-33.34,72.5146,28.6626,1243,-27,3380,28.6626,-148,1884.1
3367042,80.7076,-14.5494,794.345,1170,-410,244170,-46.5345,109.445,23.279,1232,-26,3384,23.279,-133,1885.99
3367054,77.1576,-10.7885,787.069,1160,-430,243990,-78.488,58.7237,18.6709,1221,-13,3388,18.6709,-146,1882.79
3367062,73.9319,-9.16269,783.409,810,-550,243980,-90.5438,38.4352,14.6603,1195,-9,3391,14.6603,-144,1882.12
3367075,67.7349,-7.90558,779.524,370,-570,244100,-81.5263,4.20775,12.7163,1199,2,3396,12.7163,-152,1878.52
3367084,62.7311,-8.37837,777.172,110,-610,244180,-121.641,-28.6913,13.4054,1173,-13,3400,13.4054,-161,1886.81
3367094,58.3979,-9.46583,774.023,170,-390,244120,-91.6948,-10.8921,15.1453,1140,-15,3404,15.1453,-159,1889.25
3367105,53.9754,-12.1594,772.58,450,-250,244030,-68.723,-56.9139,18.089,1117,-19,3408,18.089,-173,1891.36
3367113,51.8663,-15.1746,772.102,690,-380,243840,-52.4232,-81.7875,24.2794,1111,-17,3411,24.2794,-189,1891.42
3367135,46.3658,-29.1412,773.101,400,-1160,243680,-57.2865,-152.847,46.6259,1114,0,3417,46.6259,-228,1882.8
3367143,44.187,-35.5322,774.326,-50,-1520,243700,-59.4803,-170.268,56.8515,1108,2,3420,56.8515,-244,1880.89
3367155,41.1361,-43.6137,777.966,30,-1460,243590,-54.1733,-131.956,69.782,1098,11,3424,69.782,-244,1875.5
3367165,39.4428,-49.1435,782.374,300,-1410,243450,-34.2121,-97.1932,78.6297,1092,9,3428,78.6297,-236,1874.77
3367187,37.3757,-59.3345,793.028,640,-1510,243280,-16.483,-70.8866,94.9351,1118,28,3435,94.9351,-234,1861.45
3367197,35.7247,-63.0753,799.113,750,-1480,243410,-37.8422,-76.5346,100.92,1132,41,3439,100.92,-236,1851.36
3367217,29.2927,-68.9786,812.417,570,-1620,243910,-75.0591,-36.3301,110.366,1149,29,3445,110.366,-225,1852.13
3367226,24.5078,-70.2699,817.658,600,-1660,244210,-113.895,-10.7582,112.432,1157,15,3448,112.432,-216,1856.36
3367238,17.4278,-71.8693,824.346,0,-1900,244380,-114.017,-25.4389,114.38,1163,5,3452,114.38,-217,1860.11
3367247,11.8481,-72.4047,828.329,-900,-2180,244240,-145.782,38.014,116.456,1176,8,3456,116.456,-222,1855.79
3367258,5.24449,-69.2549,832.882,-920,-1940,244140,-137.117,69.3878,112.473,1171,-1,3460,112.473,-189,1858.33
3367268,0.983816,-63.5998,836.495,-920,-1800,244270,-80.0604,132.635,101.76,1150,-4,3464,101.76,-168,1858.29
3367279,-2.20806,-54.2458,841.578,-790,-1100,244530,-26.5439,194.348,86.7933,1140,-12,3468,86.7933,-146,1860.14
3367298,-3.82965,-34.4579,847.261,80,-490,244830,13.3693,219.582,55.1327,1167,-30,3473,55.1327,-121,1866.79
3367307,-3.31107,-25.226,848.529,440,-410,245060,23.0312,200.088,40.3615,1183,-30,3476,40.3615,-117,1865.73
3367329,-0.634068,-5.79491,847.723,420,-380,245360,-30.719,188.546,9.27185,1216,-25,3483,9.27185,-98,1864.44
3367339,0.831687,0.963348,846.364,530,-250,245200,20.7516,121.901,-1.54136,1215,-23,3487,-1.54136,-111,1863.92
3367350,1.55295,6.50263,845.678,500,-140,244900,-37.1429,83.331,-8.40427,1210,-17,3491,-8.40427,-111,1861.21
3367381,4.25674,12.1689,843.763,150,210,244150,12.2666,-20.4371,-19.7973,1207,-32,3501,-19.7973,-121,1868.22
3367390,6.20708,10.6949,842.337,410,260,244080,24.1838,-31.6531,-17.1118,1228,-20,3505,-17.1118,-139,1863.21
3367401,9.9512,4.986,839.873,550,0,244090,90.1908,-148.173,-7.9776,1240,-23,3509,-7.9776,-183,1865.13
3367421,15.7415,-11.4848,833.16,710,-540,243770,55.5522,-188.731,18.3757,1232,-47,3515,18.3757,-215,1879.89
3367429,18.1695,-20.6927,828.828,490,-1060,243540,87.9863,-246.458,33.1082,1224,-44,3518,33.1082,-248,1881.23
3367440,20.7032,-34.5086,822.905,470,-1660,243300,25.4119,-259.717,55.2138,1206,-31,3522,55.2138,-266,1877.17
3367462,22.4603,-60.6737,816.763,-50,-2340,243050,-10.3257,-198.226,92.3205,1209,3,3529,92.3205,-272,1862.52
3367473,21.7068,-69.575,816.499,20,-2020,243040,-29.3018,-150.626,111.32,1197,24,3533,111.32,-258,1851.58
3367481,20.2805,-73.8507,818.72,290,-1800,243190,-4.72975,-92.7262,118.161,1192,34,3536,118.161,-245,1845.48
3367503,13.7918,-82.0814,829.12,410,-1690,244100,-86.2678,-65.5704,131.33,1231,48,3543,131.33,-236,1833.67
3367533,0.319002,-89.1376,831.292,-110,-1460,245070,-107.726,-27.2468,142.62,1260,4,3552,142.62,-228,1853.55
3367544,-5.61911,-90.2536,828.438,-490,-1270,245060,-124.802,-24.9265,143.807,1264,-13,3556,143.807,-219,1863.7
3367564,-13.623,-91.0875,820.138,60,-1370,245180,-51.6562,-5.29023,145.613,1293,14,3562,145.613,-223,1853.83
3367584,-20.5206,-92.043,812.584,-200,-1470,245460,-88.4012,-1.62081,147.269,1294,7,3568,147.269,-221,1859.46
3367595,-24.3521,-91.9534,807.833,-250,-1500,245380,-71.7375,10.8495,147.125,1287,8,3572,147.125,-217,1861.29
3367604,-27.4291,-90.8768,804.781,-310,-1410,245160,-54.9378,27.5829,145.403,1261,7,3575,145.403,-211,1862.45
3367625,-35.8085,-85.6738,801.464,-100,-1270,245130,-75.2956,52.7641,137.078,1255,9,3582,137.078,-199,1862.63
3367634,-39.5982,-82.0177,800.437,-150,-1250,245270,-108.157,116.795,131.228,1253,16,3586,131.228,-175,1859.99
3367666,-53.0694,-64.9713,798.928,820,-500,245300,-92.2358,123.39,106.915,1285,35,3596,106.915,-167,1850.3
3367686,-63.5341,-53.3922,801.321,330,-530,245280,-111.227,113.965,85.4275,1332,61,3603,85.4275,-157,1835.76
3367697,-68.9789,-48.386,802.593,60,-450,245380,-70.6629,70.6433,77.4176,1344,50,3607,77.4176,-167,1840.45
3367707,-75.0346,-43.5766,802.794,30,-240,245510,-106.71,69.8601,69.7225,1337,35,3611,69.7225,-162,1847.66
3367727,-84.8065,-37.3182,802.266,60,-450,245770,-88.5702,43.711,59.7091,1369,54,3617,59.7091,-167,1838.43
3367768,-106.201,-34.3864,788.854,-670,-1290,246640,-108.38,30.3441,55.7464,1339,-26,3629,55.7464,-177,1880.9
3367777,-110.582,-32.0455,782.596,-1170,-1060,246480,-110.65,74.9875,51.2728,1309,-73,3632,51.2728,-157,1909.37
3367788,-115.636,-27.7929,772.084,-1350,-920,246110,-81.5789,92.196,44.4687,1283,-92,3635,44.4687,-148,1923.6
3367808,-120.617,-16.5858,751.475,-880,-50,245390,-21.5978,115.905,26.5373,1265,-52,3641,26.5373,-127,1913.98
3367818,-121.62,-10.895,744.488,-350,300,245170,-17.732,113.56,17.4321,1245,-19,3645,17.4321,-121,1901.16
3367830,-121.521,-5.92043,741.02,-340,560,245170,-7.7178,61.3616,10.4545,1223,0,3650,10.4545,-125,1891.73
3367838,-121.613,-4.69913,740.971,-1230,200,245150,-1.46579,17.3327,7.5186,1204,-16,3653,7.5186,-142,1899.09
3367850,-120.812,-4.99339,740.356,-1920,-270,245120,46.2653,-45.8904,7.25517,1177,-43,3658,7.25517,-150,1914.08
3367860,-117.429,-5.89581,739.04,-2400,-410,244890,96.4665,-16.9161,9.16264,1156,-64,3662,9.16264,-159,1924.69
3367869,-111.316,-6.85407,737.302,-1950,-450,244680,162.24,-25.5299,10.9665,1134,-57,3665,10.9665,-166,1924
3367881,-97.6867,-8.06534,736.979,-1160,-470,244440,265.952,-17.1766,12.9045,1121,-46,3669,12.9045,-171,1919.19
3367891,-82.9819,-9.61843,737.505,-110,-440,244210,342.627,-23.5188,15.3895,1115,-26,3673,15.3895,-182,1908.91
3367901,-67.1161,-11.5731,740.272,240,-700,244130,313.203,-46.8708,18.5169,1118,1,3677,18.5169,-193,1895.11
3367920,-37.7204,-16.9953,749.14,-150,-1820,244600,293.509,-46.0585,27.1925,1124,2,3683,27.1925,-205,1891
3367931,-22.107,-18.3289,754.492,20,-1770,245200,280.219,2.17428,29.3262,1137,15,3687,29.3262,-195,1883.02
3367941,-8.55419,-17.982,760.532,80,-1620,245610,275.08,21.0238,28.7712,1153,10,3691,28.7712,-192,1882.2
3367952,5.05689,-15.188,765.604,380,-1400,245590,251.948,76.9976,26.1488,1165,5,3695,26.1488,-184,1884.29
3367962,15.4783,-10.909,769.051,480,-1040,245120,213.684,95.5837,20.513,1162,-6,3698,20.513,-168,1886.98
3367972,25.2081,-5.28937,771.637,610,-530,244410,180.684,125.089,8.463,1145,-24,3702,8.463,-148,1895.2
3367982,33.9625,0.609382,773.481,470,-180,243620,160.055,113.125,-0.975012,1153,-32,3706,-0.975012,-144,1899.24
3367993,42.9804,6.84418,774.475,420,-60,243010,164.461,98.0894,-10.9507,1155,-39,3710,-10.9507,-141,1902.62
3368002,49.9389,11.2669,774.175,400,-160,242600,158.062,57.5876,-18.0271,1162,-31,3714,-18.0271,-148,1899.02
3368013,57.9557,16.5401,774.319,430,-220,242430,134.705,96.0741,-26.4642,1154,-24,3718,-26.4642,-129,1895.7
3368023,64.6786,20.8405,775.372,510,-210,242530,140.938,104.829,-33.3447,1150,-4,3722,-33.3447,-122,1885.95
3368034,71.092,24.8296,778.834,700,-270,242860,108.654,67.9388,-38.0968,1156,23,3726,-38.0968,-125,1871.59
3368044,76.1957,27.7523,783.799,970,-310,243330,101.921,41.0764,-43.4179,1151,22,3730,-43.4179,-121,1869.75
3368052,79.6307,29.4884,788.115,880,-200,243690,73.9014,39.0633,-47.1814,1144,14,3733,-47.1814,-125,1870.81
3368063,83.5461,30.3462,792.935,620,-380,243800,62.809,-4.5391,-48.5538,1152,17,3737,-48.5538,-136,1867.34
3368074,86.0779,30.7028,797.631,630,-430,243820,23.7772,-0.239337,-49.1245,1152,9,3741,-49.1245,-130,1869.41
3368085,87.4748,30.3933,800.981,500,-390,243770,22.4796,-8.45418,-48.6293,1155,-4,3745,-48.6293,-131,1875.06
3368094,87.5718,30.1169,802.65,300,-230,243710,-1.7014,6.39942,-48.187,1167,-11,3747,-48.187,-124,1877.92
3368103,86.7545,29.8008,802.801,420,30,243580,-26.2623,-7.20684,-47.6813,1174,-15,3750,-47.6813,-126,1879.92
3368114,84.8994,28.8142,801.832,570,50,243490,-46.9306,-22.8847,-46.1028,1193,5,3754,-46.1028,-128,1870.83
3368125,81.702,27.0878,801.843,730,-320,243560,-57.1698,-26.8946,-43.3405,1190,18,3758,-43.3405,-128,1863.75
3368156,62.9325,18.3707,803.916,-800,-860,244290,-159.663,-15.7983,-29.7723,1193,10,3767,-29.7723,-131,1865.58
3368207,27.5272,23.7736,798.634,-330,300,244030,-109.206,10.1427,-38.0377,1232,23,3780,-38.0377,-102,1861.31
3368226,19.1018,24.4375,794.3,-460,380,243280,-73.4,-22.8068,-39.1001,1228,22,3786,-39.1001,-107,1863.9
3368258,13.1289,12.9173,787.693,-20,-120,243630,-23.2125,-129.517,-23.776,1242,27,3796,-23.776,-144,1863.47
3368269,12.2161,5.10155,784.8,-50,-410,243700,-19.3195,-157.788,-11.9494,1227,27,3800,-11.9494,-160,1864.51
3368279,11.5353,-3.07967,782.915,-80,-1010,243710,-27.7751,-175.271,0.720974,1203,32,3804,0.720974,-180,1862.79
3368289,10.0801,-11.3302,782.589,-210,-1450,243680,-32.2002,-158.579,18.1283,1191,43,3808,18.1283,-188,1857.47
3368299,7.90518,-18.5329,783.953,-590,-1650,243600,-48.1634,-114.863,29.6526,1197,44,3812,29.6526,-183,1855.77
3368308,5.43763,-23.2813,785.027,-620,-1520,243460,-62.7822,-86.0703,37.2502,1186,37,3815,37.2502,-181,1859.21
3368320,2.6793,-25.8685,787.525,-670,-1380,243270,-43.7741,-30.1237,41.3896,1192,56,3820,41.3896,-169,1848.52
3368330,0.408141,-25.495,792.052,-870,-1070,243130,-75.3513,-3.76448,40.7318,1183,61,3824,40.7318,-153,1844.48
3368340,-1.43998,-23.0141,797.684,-900,-770,243010,-80.5025,92.8458,39.0509,1175,64,3828,39.0509,-162,1841.36
3368359,-2.59114,-13.7211,811.125,-650,-190,242930,2.81483,99.9764,21.9537,1177,51,3834,21.9537,-124,1840.45
3368370,-1.98042,-6.22713,819.118,-620,-190,242770,25.8763,136.561,9.96342,1206,48,3838,9.96342,-107,1837.93
3368378,-0.514556,-0.453375,823.987,-370,-50,242600,44.4216,148.215,0.725401,1223,24,3841,0.725401,-97,1847.21
3368400,6.77665,14.6379,828.327,-30,190,242610,86.7597,113.44,-23.4206,1226,-40,3847,-23.4206,-92,1878.33
3368411,11.8651,21.3797,825.164,180,320,242800,100.033,120.693,-34.2076,1224,-45,3852,-34.2076,-83,1882.22
3368421,16.402,26.4944,822.48,360,310,243000,75.1837,102.095,-42.3911,1225,-24,3856,-42.3911,-80,1872.86
3368431,21.0879,30.4847,820.631,470,290,243130,100.575,75.6845,-48.7754,1222,-27,3860,-48.7754,-83,1875.15
3368440,24.1727,32.5159,819.527,410,320,243270,61.2382,28.2808,-52.0254,1223,-19,3863,-52.0254,-91,1871.62
3368461,32.5346,33.4887,817.039,540,230,243760,75.765,-16.4055,-53.582,1234,-38,3870,-53.582,-101,1883.26
3368492,45.2877,24.1111,812.374,780,210,244260,84.8381,-108.773,-38.5777,1236,-17,3879,-38.5777,-138,1873.85
3368513,52.1715,7.70488,811.828,50,-160,243740,54.0158,-189.388,-12.3278,1244,-3,3886,-12.3278,-178,1867.05
3368523,55.6854,-2.17906,811.685,130,-530,243460,61.9563,-241.823,3.4865,1244,-13,3890,3.4865,-207,1871.59
3368533,59.288,-11.9407,811.065,-10,-1180,243490,62.7016,-195.277,19.1052,1247,-19,3894,19.1052,-207,1875.38
3368543,63.4581,-21.1016,809.285,-270,-1330,243870,95.7619,-189.924,33.7626,1228,-39,3898,33.7626,-221,1885.7
3368554,66.9942,-27.7299,806.647,-70,-1630,244450,82.292,-93.3427,42.8744,1231,-39,3902,42.8744,-213,1887.21
3368565,72.0111,-31.9611,802.646,640,-1520,245170,91.501,-49.7534,50.3417,1216,-66,3906,50.3417,-206,1901.39
3368604,77.4188,-34.3508,787.607,1020,-440,246120,-48.5529,-22.2655,54.9613,1204,17,3918,54.9613,-199,1868.77
3368613,74.518,-35.7443,790.616,1160,-510,245900,-78.704,-37.4082,57.1909,1203,40,3921,57.1909,-206,1855.47
3368624,68.956,-38.0355,796.638,1330,-640,245650,-146.099,-37.1338,60.8568,1195,43,3925,60.8568,-206,1850.86
3368636,60.8037,-41.3532,804.798,1570,-780,245490,-156.364,-61.0466,64.7,1205,41,3929,64.7,-217,1849.18
3368645,51.4239,-43.3041,811.03,1570,-880,245510,-230.614,-50.795,69.2865,1230,35,3932,69.2865,-214,1849.18
3368665,21.1769,-48.0154,819.68,730,-710,245820,-361.051,-37.9337,76.8246,1231,7,3939,76.8246,-201,1858.93
3368676,-0.807921,-49.8443,822.718,0,-660,246300,-397.678,-6.93051,79.7509,1242,-9,3943,79.7509,-189,1865.13
3368687,-24.0316,-51.391,823.378,-540,-730,246690,-422.994,-33.2956,81.4266,1234,-3,3947,81.4266,-190,1864.34
3368706,-63.2062,-51.2241,827.126,-1420,-1160,247400,-394.604,42.6916,81.9586,1269,8,3953,81.9586,-171,1855.52
3368715,-80.764,-49.2452,827.735,-1560,-1180,247640,-399.028,91.0866,78.7923,1291,-3,3956,78.7923,-153,1860.65
3368727,-100.859,-44.0018,825.798,-1550,-1140,247810,-314.092,112.766,70.4029,1295,1,3960,70.4029,-147,1859.33
3368757,-137.601,-18.9024,816.333,-2140,-240,247650,-149.628,144.643,30.2438,1294,-33,3970,30.2438,-113,1879.6
3368766,-143.841,-8.69911,811.887,-1480,-70,247460,-112.742,241.807,13.9186,1285,-18,3973,13.9186,-72,1875.47
3368808,-145.406,34.5961,805.815,350,1780,245460,71.3144,132.34,-55.3538,1303,6,3984,-55.3538,-46,1864.14
3368819,-141.374,38.2355,803.924,600,1470,245070,77.9374,27.5348,-61.1768,1327,-6,3988,-61.1768,-69,1870.37
3368830,-137.502,36.1879,798.539,300,1000,244810,68.3729,-67.6317,-59.5237,1340,-29,3992,-59.5237,-88,1883.81
3368839,-135.173,30.7188,792.84,10,1110,244700,48.8213,-136.772,-49.1501,1366,-26,3995,-49.1501,-117,1885.53
3368860,-131.594,8.67702,776.271,-230,690,245030,27.2926,-254.667,-19.9952,1339,-49,4001,-19.9952,-167,1904.23
3368871,-129.248,-6.52617,767.844,-350,430,245100,32.7444,-290.786,3.46301,1350,-15,4005,3.46301,-199,1891.49
3368901,-121.284,-51.4403,764.559,-660,-1430,246050,47.8224,-244.894,82.3045,1343,66,4012,82.3045,-256,1852.03
3368921,-116.168,-72.701,773.445,-340,-1710,246630,55.4945,-169.889,116.322,1365,62,4018,116.322,-247,1849.61
3368931,-113.352,-78.9956,778.656,-130,-1730,246830,34.1029,-114.662,126.393,1377,83,4022,126.393,-234,1837.77
3368952,-108.515,-83.3264,793.026,-220,-1490,246510,38.3051,-4.33673,133.218,1375,64,4028,133.218,-207,1841.65
3368972,-102.126,-79.0311,807.288,-500,-490,246500,80.251,87.6471,126.45,1377,43,4034,126.45,-175,1843.65
3368992,-91.5957,-69.1389,817.332,550,-390,246730,101.756,117.032,110.622,1417,26,4041,110.622,-164,1847.7
3369001,-86.747,-63.9254,819.639,1080,-470,246400,127.317,109.097,102.281,1415,10,4044,102.281,-167,1855.6
3369023,-80.508,-51.0948,821.757,-150,340,245570,27.2652,123.421,81.7516,1430,-28,4051,81.7516,-146,1873.19
3369034,-79.7219,-45.4337,819.219,-100,600,245670,12.7555,92.0344,74.9027,1439,-39,4055,74.9027,-150,1879.97
3369042,-78.4106,-42.3485,815.544,-130,620,245820,50.1435,55.5404,67.7576,1435,-47,4058,67.7576,-162,1885.91
3369053,-76.4642,-39.3802,809.988,-220,410,246030,33.3971,42.6162,63.0083,1442,-27,4062,63.0083,-165,1878.77
3369064,-73.99,-38.1711,805.763,-830,0,246080,44.0383,5.11727,61.0738,1467,-20,4066,61.0738,-179,1877.55
3369075,-70.9596,-38.3765,801.248,-940,-230,245130,49.5869,-20.9397,61.4024,1481,-30,4070,61.4024,-187,1884.57
3369093,-61.3221,-37.6357,791.943,-470,-10,244730,149.565,38.391,60.2171,1501,-8,4074,60.2171,-174,1877.92
3369105,-51.364,-36.4209,786.315,-190,310,244370,179.407,28.4543,58.2734,1510,-17,4078,58.2734,-178,1883.27
3369115,-41.4057,-34.8432,780.746,580,200,243990,192.989,45.9543,55.7491,1482,-34,4082,55.7491,-173,1894.2
3369124,-31.8936,-33.674,775.146,500,30,243800,208.72,14.7858,53.8784,1483,-33,4085,53.8784,-184,1896.2
3369134,-22.2042,-32.1089,768.73,1040,-40,244040,189.788,40.0437,51.3742,1491,-41,4089,51.3742,-176,1903.07
3369145,-12.7023,-30.5379,760.542,1250,-60,244280,158.476,34.4434,48.8607,1507,-14,4093,48.8607,-178,1893.63
3369156,-5.68314,-28.8197,754.025,1350,-40,244580,116.308,34.1002,46.9299,1512,-10,4097,46.9299,-179,1893.29
3369166,-1.18042,-26.8566,748.056,1360,120,245110,70.3767,41.165,43.9585,1506,-18,4101,43.9585,-173,1900.91
3369175,1.08285,-25.1506,742.308,1430,350,245520,50.8594,33.1325,40.2409,1502,-5,4104,40.2409,-175,1897.2
3369187,2.45093,-22.8841,736.722,1640,650,245750,28.9571,13.6562,36.9423,1474,-3,4108,36.9423,-171,1898.08
3369237,-32.054,-14.9305,751.669,-440,-520,246380,-225.952,34.9818,23.8888,1365,47,4123,23.8888,-151,1867.87
3369248,-43.7635,-11.43,764.001,-450,-470,246430,-205.644,83.6156,20.2947,1356,63,4127,20.2947,-139,1856.34
3369278,-68.8743,7.59037,804.498,-1110,1180,245880,-154.279,177.243,-12.1446,1314,13,4135,-12.1446,-78,1863.82
3369289,-72.8533,13.5126,818.018,-890,990,245790,-41.7561,85.2254,-19.5747,1322,6,4139,-19.5747,-92,1862.16
3369309,-72.6325,21.7158,841.017,-1630,150,246930,59.8018,71.7155,-34.7453,1304,-17,4145,-34.7453,-99,1863.45
3369320,-67.5925,26.2978,852.378,-1220,200,247700,118.513,99.8489,-42.0765,1278,-41,4149,-42.0765,-91,1870.36
3369330,-59.4313,31.6843,862.294,-420,810,248140,191.826,124.945,-47.6961,1266,-37,4153,-47.6961,-85,1866.11
3369339,-49.7786,35.7267,871.785,40,1320,248210,259.193,83.1991,-57.1627,1268,-15,4156,-57.1627,-90,1849.93
3369370,-14.9028,42.7231,908.86,1350,1060,247850,238.268,-27.7504,-68.357,1323,-42,4166,-68.357,-109,1846.96
3369381,-3.62982,40.3759,916.87,1180,710,247730,196.373,-37.9539,-65.5124,1346,-70,4170,-65.5124,-125,1857.33
3369391,4.66652,36.5781,920.295,460,720,247670,152.962,-89.83,-60.6809,1342,-87,4174,-60.6809,-114,1865.27
3369399,10.6446,32.8043,921.735,340,720,247700,171.53,-106.528,-52.4868,1342,-85,4176,-52.4868,-139,1864.02
3369420,25.3559,17.9496,926.55,640,-220,248240,121.817,-150.297,-28.7193,1358,-40,4181,-28.7193,-166,1839.22
3369432,32.5204,7.61493,931.589,540,-590,248640,116.532,-188.436,-12.1839,1346,-40,4185,-12.1839,-190,1836.87
3369442,37.6007,-0.677296,935.921,720,-880,248910,115.816,-183.132,-3.3115,1318,-54,4189,-3.3115,-190,1841.72
3369462,42.996,-11.2733,945.364,1240,-880,248690,22.4195,-94.0937,18.0374,1324,-49,4195,18.0374,-185,1834.95
3369482,38.7062,-15.8937,951.076,1270,-1120,248050,-75.2452,-10.3563,25.4299,1299,-61,4201,25.4299,-162,1837.55
3369502,22.9984,-14.4631,956.981,340,-960,247960,-198.372,44.2786,23.141,1295,-43,4208,23.141,-138,1826.52
3369514,11.0186,-10.4459,961.941,-300,-770,248220,-212.374,90.4713,16.7134,1278,-48,4212,16.7134,-119,1826.08
3369524,1.18492,-5.86158,965.654,-760,-610,248500,-220.289,111.865,12.0633,1278,-53,4216,12.0633,-120,1827.22
3369534,-7.50567,-0.581656,968.639,-980,-260,248710,-158.181,111.206,3.5996,1286,-41,4220,3.5996,-106,1819.4
3369543,-13.5595,4.28018,971.334,-930,30,248960,-121.185,103.172,-6.84829,1270,-64,4223,-6.84829,-101,1829.08
3369554,-18.2315,9.29861,972.165,-700,180,249240,-72.1455,74.5329,-13.6852,1271,-83,4228,-13.6852,-86,1837.47
3369574,-22.1014,19.1336,966.368,-900,400,249950,-4.65876,93.7624,-30.6137,1261,-108,4234,-30.6137,-90,1851.88
3369605,-13.8439,30.0823,947.26,620,100,250390,89.5635,32.9385,-47.3411,1305,-68,4244,-47.3411,-92,1839.79
3369614,-10.305,31.1382,941.491,700,50,250370,66.7754,10.3079,-49.8212,1310,-60,4247,-49.8212,-99,1837.63
3369626,-6.75589,30.2817,933.443,620,320,250320,69.9223,-53.3969,-49.7323,1329,-49,4251,-49.7323,-100,1834.61
3369636,-6.09869,28.9953,926.518,610,490,250310,14.067,-41.3828,-47.0546,1341,-62,4255,-47.0546,-105,1843.35
3369655,-6.76497,19.0837,906.257,450,470,250140,-38.8906,-161.358,-30.5338,1340,-77,4261,-30.5338,-155,1860.01
3369667,-8.38767,9.14389,891.019,330,110,250220,-16.5868,-189.959,-19.1892,1338,-78,4265,-19.1892,-166,1864.43
3369677,-10.2377,-1.43007,877.457,280,-260,250510,-45.1963,-211.982,-1.10359,1320,-73,4268,-1.10359,-195,1868.46
3369686,-12.4011,-11.6202,865.86,190,-870,250900,-55.3815,-223.714,18.5923,1311,-54,4270,18.5923,-211,1865.22
3369696,-15.4723,-23.4101,854.574,-70,-1350,251420,-62.6833,-244.398,37.4561,1315,-37,4274,37.4561,-234,1859.7
3369707,-19.6557,-35.6488,843.299,-150,-1500,251830,-83.466,-217.684,51.8136,1308,-31,4278,51.8136,-242,1860.93
3369717,-23.582,-45.094,833.881,-380,-1380,252070,-71.8068,-174.045,72.1504,1292,-29,4282,72.1504,-248,1864.46
3369725,-26.4378,-51.4984,826.233,-280,-1400,252160,-58.3258,-150.883,82.3974,1291,-16,4285,82.3974,-254,1861.02
3369736,-30.0849,-59.1162,816.916,-500,-1640,251910,-59.6366,-139.762,94.586,1293,-8,4289,94.586,-256,1860.72
3369767,-33.9465,-69.5578,794.78,-150,-1940,250940,-2.28381,12.2584,111.292,1277,23,4299,111.292,-211,1853.9
3369779,-33.7489,-67.6912,789.507,-140,-1750,251000,19.0258,26.1751,108.934,1274,23,4303,108.934,-208,1855.34
3369789,-32.9093,-63.6778,784.264,-430,-1550,251230,11.8334,61.0735,103.35,1266,-2,4307,103.35,-188,1868.69
3369797,-30.7209,-58.1093,778.957,-760,-1040,251460,64.2407,142.151,92.9749,1262,-16,4310,92.9749,-170,1878.24
3369809,-26.0824,-49.0979,767.855,-620,-790,251690,103.072,168.743,78.5567,1252,-27,4315,78.5567,-156,1889.9
3369839,-5.97821,-19.4969,742.05,640,-780,252200,135.702,193.799,31.1951,1191,-4,4325,31.1951,-121,1889.5
3369870,10.0528,10.6429,720.679,470,-150,252190,85.7568,184.978,-17.0286,1158,3,4335,-17.0286,-86,1895.47
3369880,14.4854,20.8543,715.303,550,130,251800,90.4458,203.441,-33.3669,1141,8,4339,-33.3669,-67,1895.93
3369911,24.4806,44.2919,708.641,400,340,249440,47.1432,118.253,-70.867,1103,48,4348,-70.867,-52,1878.71
3369920,25.2836,50.1112,711.115,550,560,248580,7.61908,111.328,-80.1779,1106,50,4351,-80.1779,-40,1876.85
3369931,26.2785,54.7739,713.816,700,670,247910,-10.4479,62.7798,-87.6383,1114,44,4355,-87.6383,-43,1878.38
3369942,27.7345,57.0567,715.555,590,960,247430,4.36654,23.3425,-90.7305,1121,35,4359,-90.7305,-48,1883.02
3369951,28.4078,56.2371,716.4,210,1020,247080,13.145,-49.0673,-89.9794,1127,48,4362,-89.9794,-65,1876.11
3369961,28.5676,53.0396,718.769,-20,770,246810,-3.76593,-108.527,-84.8633,1123,56,4366,-84.8633,-82,1871.75
3369973,29.7438,45.1882,722.963,-230,530,246710,21.6783,-162.031,-76.1898,1137,70,4370,-76.1898,-94,1863.07
3369982,31.1181,37.137,726.945,-330,380,246860,29.8357,-195.361,-59.4192,1158,85,4372,-59.4192,-123,1853.38
3369993,34.0823,24.89,731.668,-210,-150,247200,54.106,-246.622,-39.8239,1170,68,4376,-39.8239,-152,1858.88
3370010,39.352,3.24787,735.457,450,-1390,247870,47.4717,-256.135,-5.19659,1181,63,4381,-5.19659,-186,1861.29
3370023,42.4168,-14.4807,737.182,620,-1850,248080,29.4106,-254.724,23.1691,1184,63,4384,23.1691,-205,1860.03
3370033,42.3039,-27.2043,739.009,130,-2090,248200,-38.9026,-241.312,43.5269,1163,54,4388,43.5269,-217,1863.75
3370042,40.5555,-37.6282,740.096,-10,-1920,248090,-48.9408,-228.334,60.2052,1138,42,4391,60.2052,-229,1869.33
3370054,35.7828,-48.9924,742.648,10,-2410,247990,-109.678,-190.95,78.3878,1147,56,4396,78.3878,-231,1861.8
3370075,23.0697,-62.5443,749.075,-790,-2230,248350,-133.124,-74.5295,95.8178,1150,41,4402,95.8178,-228,1866.25
3370092,10.8863,-64.6482,749.6,-1100,-1410,248850,-153.704,-12.9158,103.437,1131,0,4407,103.437,-212,1886.64
3370105,4.26263,-62.6786,746.812,-1290,-1530,248670,-87.9621,51.7757,100.286,1124,4,4409,100.286,-194,1886.45
3370115,0.9843,-59.9956,745.74,-1290,-1420,248290,-51.6311,45.5033,97.0851,1126,26,4413,97.0851,-190,1876.52
3370124,0.00933111,-56.4992,746.059,-1130,-1310,247940,-2.86494,88.1086,90.3987,1132,37,4417,90.3987,-180,1869.96
3370132,-0.0464758,-7.66412e-29,2.4292e+29,-750,-870,247610,2.38975e-30,2.30281e+23,1.22626e-28,1137,42,4420,1.22626e-28,800,1735.51
3370156,4.87918,-38.0676,750.445,-340,5370,247560,77.5041,22.0052,61.4364,1145,34,4427,61.4364,217,1869.48
3370166,9.05449,-41.9053,751.51,-130,4810,247760,96.3186,-124.203,67.0485,1143,28,4431,67.0485,150,1871.98
3370176,14.381,-55.0333,752.384,120,3740,248110,143.897,-346.865,88.0533,1151,39,4435,88.0533,62,1866.66
3370186,20.5643,-75.7207,753.867,500,2470,248430,106.774,-457.822,121.153,1152,55,4439,121.153,0,1858.03
3370195,26.4725,-99.0057,756.811,680,1380,248490,140.491,-542.866,158.409,1155,70,4442,158.409,-64,1849.72
3370205,31.4523,-129.073,761.984,1120,440,248390,100.87,-623.228,206.516,1174,83,4446,206.516,-133,1839.92
3370227,35.786,-201.021,774.907,640,-1120,247780,-32.647,-657.185,321.634,1193,64,4453,321.634,-249,1843.73
3370238,33.4053,-236.681,780.755,200,-2040,247360,-82.6648,-608.59,378.69,1203,76,4457,378.69,-288,1834.63
3370258,22.3481,-292.638,793.255,-400,-2860,247000,-162.477,-480.216,440,1218,61,4463,440,-340,1836.53
3370267,16.2549,-312.164,798.197,-740,-2760,247020,-133.551,-394.315,440,1211,57,4466,440,-350,1836.77
3370309,-19.9793,-356.747,820.342,-1300,-3120,247370,-166.071,-61.6772,440,1259,-21,4480,440,-318,1862.95
3370319,-28.1186,-357.199,818.811,-1630,-2840,247830,-147.239,23.1972,440,1246,-61,4484,440,-295,1885.19
3370330,-35.378,-352.212,813.973,-1800,-2600,248260,-109.956,129.003,440,1237,-87,4488,440,-266,1901.94
3370349,-42.3327,-332.349,800.715,-1330,-1930,248740,-55.63,257.858,440,1200,-87,4494,440,-230,1908.17
3370360,-41.5698,-314.153,794.987,-1020,-1690,248760,30.8925,363.985,440,1184,-49,4498,440,-203,1892.81
3370370,-40.0911,-294.553,793.078,-930,-1770,248690,48.0775,420.911,440,1191,-25,4502,440,-186,1881.28
3370381,-36.6097,-269.633,792.965,-660,-1760,248570,80.4013,484.226,431.412,1188,-9,4506,431.412,-165,1873.44
3370390,-33.2662,-246.701,794.309,-100,-1760,248190,59.1003,528.001,394.722,1187,4,4508,394.722,-137,1865.43
3370410,-23.2814,-188.606,798.686,-290,-970,247360,123.394,618.607,301.769,1200,17,4515,301.769,-66,1857.65
3370441,-1.71675,-86.772,805.747,500,1060,245080,125.617,673.581,138.835,1210,5,4525,138.835,52,1861.09
3370452,7.22471,-53.5565,806.243,780,1370,244180,148.092,594.036,85.6904,1205,9,4530,85.6904,63,1858.33
3370471,21.8765,-3.45104,809.165,1230,2510,242840,167.512,467.108,5.52167,1183,7,4536,5.52167,85,1858.05
3370482,29.5601,19.7487,812.768,1230,2910,242500,131.822,387.398,-31.5979,1182,21,4540,-31.5979,91,1849.5
3370493,36.9306,36.635,818.13,1390,2860,242620,128.126,246.355,-52.7035,1188,28,4544,-52.7035,87,1844.79
3370512,46.5428,49.7752,828.771,1200,2120,243530,81.0795,48.2848,-79.6404,1220,13,4549,-79.6404,38,1844.96
3370523,49.7152,48.8272,832.386,1220,1810,244170,41.2215,-51.4507,-78.1236,1239,-20,4553,-78.1236,12,1859.4
3370533,51.2813,44.023,831.42,1130,1360,245000,33.964,-123.571,-70.4369,1258,-36,4557,-70.4369,-12,1869.81
3370554,48.3613,25.9612,822.746,460,310,247200,-39.2939,-200.789,-41.5379,1278,-35,4564,-41.5379,-52,1872.94
3370564,44.9283,14.596,817.429,70,-150,248250,-65.9411,-227.378,-23.3536,1286,-30,4568,-23.3536,-73,1872.63
3370595,31.6873,-19.7473,792.208,-660,-910,250560,-84.0076,-177.478,31.5956,1250,-64,4577,31.5956,-106,1900.47
3370604,28.4359,-27.9681,784.036,-520,-890,250850,-57.1712,-173.372,44.749,1237,-64,4580,44.749,-119,1904.61
3370646,12.1705,-53.0633,752.095,-230,-1020,250600,-113.456,-57.8961,84.9013,1190,-29,4593,84.9013,-125,1901.36
