timestamp,x,y,z,pitch,roll,yaw,vx,vy,vz,battery,cpu_load,vicon_count,set_position,set_velocity,calc_thrust
0,0,0,0,0,0,0,0,0,0,0,0,0,0,0,0
0,0,0,0,1620,-250,251380,0,0,-500,-18,35,0,-500,500,2060
766663,-36.4239,3.78984,75.3122,1560,-290,252400,-0.1488,-0.354449,-500,0,33,2,-500,499,2062
766669,-36.4711,3.917,75.2174,1610,-330,253420,-1.57202,4.23891,-500,21,34,3,-500,504,2060
766680,-36.5395,3.93387,75.3012,1630,-370,254410,-2.43124,4.82775,-500,25,26,5,-500,504,2069
766691,-36.4536,3.82356,75.4055,1620,-360,255300,0.146291,0.791935,-500,45,29,7,-500,500,2066
766714,-36.3823,3.73783,75.4006,1870,-310,250890,1.74549,-1.90104,-500,3,-6,10,-500,498,2100
766724,-36.8129,3.31438,75.5311,1890,-260,251060,-13.5115,-9.29941,-500,4,-21,12,-500,490,2100
766735,-37.0627,2.71922,74.8777,1940,-320,252760,-19.4806,-28.1249,-500,-4,-40,14,-500,503,2100
766752,-36.8854,3.2318,75.4311,1870,-380,248880,1.88171,-16.8413,-500,30,-42,17,-500,483,2100
766763,-36.605,3.47137,75.9062,1870,-360,249650,-0.687923,-3.45342,-500,32,-59,19,-500,513,2100
766780,-36.9453,3.73462,75.2178,1960,-410,250930,-9.20479,4.10137,-500,0,-105,22,-500,504,2100
766791,-36.9589,3.77748,75.2264,2020,-440,251660,-14.7762,18.6366,-500,-10,-125,24,-500,518,2100
766797,-36.124,3.52059,75.7828,3770,1150,252210,27.8278,-8.56291,-500,-16,-68,25,-500,491,2100
766809,-37.7301,2.06547,82.4716,6040,3810,253070,-30.8335,-43.7201,-500,88,-3,27,-500,456,2098
766831,-38.7167,8.98127,192.534,6350,5530,260390,-97.7709,183.126,-500,293,989,30,-500,683,1600
766842,-39.9062,17.959,317.834,6120,5950,264170,-90.8153,157.27,-500,392,1230,32,-500,657,1600
766853,-51.1525,19.0702,470.029,4640,5310,265740,-213.231,15.4728,-500,552,1232,34,-500,524,1600
766859,-59.2132,17.4378,554.006,2380,3820,266620,-268.691,-54.4139,-500,695,1164,35,-500,445,1600
766871,-75.0305,8.54758,716.614,930,2250,267580,-240.491,-161.323,-500,836,1010,37,-500,338,1600
766893,-94.1223,-23.0736,953.904,780,-710,267420,-143.478,-342.742,-500,1062,553,40,-500,157,1600
766903,-101.463,-41.9407,1030.48,1000,-800,267090,-126.611,-358.355,-500,1149,402,42,-500,141,1600
766914,-107.14,-59.8124,1097.66,1210,-30,267000,-108.669,-309.025,-500,1222,211,44,-500,161,1600
766920,-111.054,-68.696,1125.52,1340,690,267800,-130.44,-296.121,-500,1245,149,45,-500,203,1600
766932,-116.911,-81.5943,1175.84,1940,1310,268780,-93.0801,-221.39,-500,1299,146,47,-500,278,1600
766954,-122.906,-97.1505,1266.66,2590,2500,269720,-40.2291,-110.562,-500,1395,158,50,-500,389,1600
766960,-124.929,-100.175,1292.27,2610,2800,270390,-67.422,-100.802,-500,1454,139,51,-500,399,1600
766972,-131.211,-105.07,1342.24,2770,3360,270470,-120.685,-66.8173,-500,1534,76,53,-500,433,1600
766996,-142.327,-120.952,1415.56,2610,4510,270430,-73.3829,-133.464,-500,1600,-15,57,-500,368,1620
767001,-143.947,-125.095,1428.1,2530,5280,270520,-64.7915,-165.731,-500,1630,-46,58,-500,334,1651
767013,-145.877,-135.668,1453.6,2650,5470,270450,-15.7098,-212.83,-500,1649,-98,60,-500,287,1702
767023,-145.109,-147.967,1469.24,2940,5180,270750,36.5641,-268.881,-500,1662,-122,62,-500,231,1726
767056,-142.318,-204.406,1492.4,2860,3670,269360,-2.23843,-427.275,-500,1698,-213,66,-500,72,1821.02
767062,-142.056,-218.132,1492.8,2480,2790,269810,8.74311,-457.544,-500,1715,-184,67,-500,42,1793
767074,-146.651,-246.726,1495.04,1740,2120,271000,-52.6785,-480.709,-500,1725,-192,69,-500,19,1797
767096,-162.506,-293.861,1499.8,440,1000,273400,-184.52,-371.557,-500,1791,-145,72,-500,128,1750
767107,-171.767,-314.108,1502.13,-510,820,274300,-149.53,-368.831,-500,1814,-116,74,-500,131,1722
767118,-181.78,-330.778,1506.05,-900,1550,274780,-139.58,-306.362,-500,1828,-132,76,-500,193,1739
767124,-185.182,-340.098,1506.97,-930,1760,275080,-113.386,-310.663,-500,1822,-139,77,-500,189,1739
767148,-195.755,-372.658,1508.54,400,2460,275260,-66.3031,-257.572,-500,1274,-430,80,-500,242,2031.83
767158,-198.414,-384.982,1508.83,1450,2520,275750,-66.8802,-222.247,-500,1027,-519,82,-500,229,2100
767164,-200.365,-391.72,1511.56,2000,2300,275640,-65.0346,-224.613,-500,845,-596,83,-500,275,2100
767176,-208.906,-406.957,1517.45,1630,2140,275580,-112.884,-261.405,-500,676,-613,85,-500,238,2100
767187,-217.802,-419.408,1527.48,1340,2130,275670,-158.14,-242.472,-500,530,-687,87,-500,257,2100
767209,-233.472,-439.515,1545.48,1250,1040,276230,-89.3982,-164.378,-500,280,-826,90,-500,335,2100
767220,-234.879,-446.613,1547.41,2080,760,276710,-25.9318,-126.452,-500,188,-877,92,-500,373,2100
767226,-234.627,-449.017,1547.14,3140,1430,276970,8.37585,-80.1163,-500,85,-896,93,-500,419,2100
767237,-233.444,-452.208,1545.16,3260,2180,277000,9.11544,-51.3383,-500,21,-887,95,-500,448,2100
767248,-234.888,-454.585,1544.04,3060,2780,277320,-31.0256,-53.3602,-500,-23,-865,97,-500,446,2100
767259,-236.703,-455.573,1543.23,3180,2790,277880,-31.0625,-11.1534,-500,-64,-833,99,-500,488,2100
767269,-237.948,-456.169,1544.63,3170,2590,278810,-27.8388,-14.0599,-500,-95,-813,101,-500,485,2100
767280,-238.123,-454.513,1545.21,3400,2540,279290,10.8426,53.3941,-500,-120,-785,103,-500,553,2100
767291,-238.048,-452.436,1545.57,4040,3190,279910,6.95599,30.9347,-500,-128,-759,105,-500,530,2100
767297,-237.423,-451.574,1545.33,4270,3790,280180,20.8131,28.7225,-500,-146,-731,106,-500,528,2100
767308,-236.555,-451.344,1544.64,4570,4240,280330,9.22416,7.49234,-500,-145,-695,108,-500,507,2100
767319,-235.658,-452.711,1544.38,4720,4070,280470,30.5677,-60.3966,-500,-134,-641,110,-500,439,2100
767341,-233.979,-458.121,1545.99,4830,3570,280410,23.0844,-47.6616,-500,-84,-554,113,-500,452,2100
767352,-234.189,-460.997,1545.84,4870,3550,280410,6.33004,-61.1247,-500,-66,-525,115,-500,438,2100
767358,-234.344,-462.694,1545.46,5000,3680,280390,-5.14124,-56.571,-500,-34,-477,116,-500,443,2100
767369,-234.592,-466.859,1544.77,4840,3810,280450,-6.66771,-70.4958,-500,-16,-437,118,-500,429,2097
767381,-235.537,-469.828,1543.97,4900,3920,280440,-7.41597,-54.0109,-500,7,-397,120,-500,445,2058
767402,-236.703,-475.683,1542.22,4860,4000,280570,-3.03309,-73.6879,-500,36,-328,123,-500,426,1983
767414,-237.666,-478.194,1541.23,4900,4020,280660,13.891,-65.595,-500,9,-312,125,-500,434,1967
767419,-237.702,-479.278,1541.16,4930,4210,280820,-1.44604,-43.3605,-500,25,-285,126,-500,456,1942
767431,-239.082,-481.764,1539.93,4420,4120,281010,0.550555,-62.6528,-500,47,-258,128,-500,437,1916
767454,-242.31,-486.866,1536.72,3720,4340,281480,-24.5695,-41.786,-500,90,-188,131,-500,458,1847.91
767460,-242.964,-487.64,1535.64,3530,4380,281640,-21.8063,-25.7945,-500,124,-148,132,-500,474,1805.66
767471,-244.303,-488.896,1534.5,3390,4420,281900,-19.2708,-37.2197,-500,118,-132,134,-500,462,1790.26
767494,-247.568,-491.407,1531.28,3410,4520,282430,-37.3344,-20.9929,-500,137,-86,137,-500,479,1739.06
767506,-249.923,-491.838,1530.03,3420,4490,282620,-42.4484,-11.1975,-500,131,-73,139,-500,488,1725.36
767511,-250.128,-492.182,1529.1,3680,4610,282790,-8.19636,-13.7865,-500,143,-43,140,-500,486,1695.55
767523,-251.179,-493.678,1528.17,3660,4660,282950,-12.9572,-34.9947,-500,144,-30,142,-500,465,1680.63
767546,-253.236,-493.02,1526.56,3510,4490,283090,2.71143,33.6478,-500,145,-4,145,-500,533,1652.61
767552,-253.917,-493.287,1526.46,3740,4510,283180,-22.7193,-8.87302,-500,172,12,146,-500,491,1635.49
767563,-254.685,-491.189,1525.41,3670,4540,283210,-24.4348,57.052,-500,176,19,148,-500,557,1627.31
767574,-255.822,-489.325,1523.59,2840,3430,283100,10.0275,23.4164,500,164,32,150,500,-476,1616.1
767596,-258.269,-481.421,1521.2,1630,1500,282650,-14.9991,60.613,500,181,56,153,500,-439,1600
767608,-258.832,-476.221,1519.94,1330,1200,282370,-3.17003,72.3208,500,197,38,155,500,-398,1601.99
767614,-258.906,-472.687,1517.55,1500,920,282000,-2.49266,117.793,500,199,55,156,500,-382,1600
767624,-257.489,-467.111,1513.78,1340,420,281600,28.9911,99.0127,500,207,44,158,500,-400,1600
767635,-255.329,-458.906,1508.13,1410,-930,280980,44.6891,195.611,500,209,25,160,500,-304,1611.03
767647,-252.396,-446.042,1497.38,1700,-2130,279950,68.6647,243.701,500,194,0,162,500,-256,1634.88
767658,-248.396,-431.449,1484.96,2660,-2430,279040,72.6327,297.949,500,180,-10,164,500,-261,1642.8
767664,-245.597,-422.088,1477.58,3640,-2770,277710,93.3199,312.033,500,162,-34,165,500,-187,1666.8
767676,-241.957,-399.836,1460.36,3730,-1940,275690,49.7248,390.273,500,158,-63,167,500,-109,1692.96
767699,-247.223,-343.46,1411.21,2050,1380,269490,-78.8041,509.643,500,148,-145,170,500,9,1775.74
767710,-253.642,-319.234,1378.68,820,1450,265590,-119.61,425.049,500,122,-163,172,500,-74,1794.42
767716,-257.26,-307.629,1359.92,-140,-30,261760,-120.598,386.839,500,99,-197,173,500,-113,1828.23
767727,-263.393,-288.141,1321.51,-760,-1260,258530,-109.153,345.142,500,87,-201,175,500,-154,1832.12
767738,-267.508,-267.424,1279.71,-730,-1630,256140,-57.4136,388.635,500,50,-219,177,500,-111,1850.07
767749,-269.278,-242.45,1235.69,90,-700,254580,-16.2613,481.652,500,34,-194,179,500,-18,1827.02
767761,-269.926,-210.679,1188.36,1150,440,253900,-6.38328,541.548,500,-4,-195,181,500,17,1825.88
767771,-270.796,-183.472,1148.65,1660,1310,253910,-9.14639,542.17,-500,-42,-204,183,-500,800,1833.76
767777,-272.077,-167.693,1123.75,1390,8770,254450,-42.721,525.964,-500,-82,-216,184,-500,800,1846.73
767789,-274.138,-143.188,1074.28,990,12370,255150,-29.764,352.738,-500,-131,-220,186,-500,800,1851.29
767821,-255.298,-195.016,944.22,3930,4980,257120,193.65,-815.814,-500,-305,-147,190,-500,-315,1883.74
767832,-247.941,-250.915,906.657,4470,-2270,257220,102.777,-1066.92,-500,-328,-109,192,-500,-566,1875.89
767838,-247.491,-283.62,887.883,3670,-6330,257260,14.9842,-1090.15,-500,-360,-85,193,-500,-590,1868.02
767850,-257.227,-343.098,853.293,1570,-6430,257400,-232.767,-931.146,-500,-395,-67,195,-500,-431,1876.82
767861,-277.705,-384.03,825.625,-950,-3820,257610,-411.33,-684.037,-500,-424,-50,197,-500,-184,1884.09
767873,-306.189,-414.266,798.568,-3360,-240,257600,-486.249,-450.912,-500,-455,-38,199,-500,-56,1881.39
767879,-320.315,-425.561,786.865,-4570,2340,257490,-470.886,-376.499,-500,-488,-17,200,-500,123,1880.4
767890,-341.125,-443.163,767.229,-4100,3950,257410,-345.418,-297.849,-500,-528,-7,202,-500,202,1886.27
767901,-352.25,-461.618,751.368,-2160,4240,257330,-149.909,-339.804,-500,-543,8,204,-500,160,1883.14
767912,-354.648,-484.382,737.391,640,3600,257180,-16.4499,-438.286,-500,-565,11,206,-500,61,1890.49
767924,-352.781,-515.808,724.051,2660,2170,256910,41.1912,-551.284,-500,-600,10,208,-500,-51,1903.39
767929,-352.129,-530.826,718.865,3500,730,256590,26.054,-600.739,-500,-617,33,209,-500,-100,1884.74
767940,-354.56,-566.932,710.205,3110,-320,256310,-72.0308,-675.936,-500,-614,51,211,-500,-175,1873.81
767951,-364.047,-604.547,704.276,1670,-860,256090,-211.927,-677.981,-500,-614,55,213,-500,-177,1874.66
767962,-380.893,-640.951,698.629,-200,-790,255970,-335.771,-648.515,-500,-631,57,215,-500,-148,1877.29
767973,-401.862,-674.197,693.993,-1960,-360,255950,-386.279,-596.44,500,-646,58,217,500,-800,1880.13
767984,-422.799,-704.413,690.918,-2660,-7130,256080,-374.921,-532.4,500,-654,75,219,500,-800,1864.66
767995,-441.994,-724.568,689.202,-2470,-9910,256150,-338.056,-322.184,500,-661,73,221,500,-800,1867.47
768006,-461.084,-724.87,688.768,-1920,-9910,256140,-354.891,91.1778,500,-677,77,223,500,-408,1865.54
768011,-469.426,-718.084,689.389,-2020,-5850,256240,-333.693,271.438,500,-681,85,224,500,-228,1857.07
768022,-490.445,-687.823,691.179,-2700,-460,256260,-385.223,623.398,500,-676,86,226,500,123,1854.64
768033,-510.276,-644.336,694.138,-3280,3870,256190,-348.497,828.933,500,-662,85,228,500,328,1853.27
768045,-523.972,-595.925,696.542,-2320,5890,256170,-189.545,783.312,500,-633,99,230,500,283,1837.3
768056,-527.303,-557.031,698.469,-160,5470,256130,-14.5029,651.131,500,-616,96,232,500,151,1839.7
768067,-524.463,-527.92,699.764,1890,3630,255920,69.3349,492.346,500,-597,80,234,500,60,1851.89
768073,-521.782,-515.597,699.137,3130,1460,255630,89.3387,410.77,500,-594,62,235,500,-89,1872.18
768084,-518.383,-497.962,696.79,3490,-490,255470,50.4683,301.874,500,-592,63,237,500,-198,1873.17
768106,-527.365,-465.128,692.14,1050,-1890,256000,-151.829,333.427,500,-576,72,240,500,-166,1868.04
768118,-539.146,-441.973,689.785,-370,-1390,256510,-199.146,414.418,500,-568,70,242,500,-85,1872
768123,-544.301,-430.796,688.665,-1600,-330,256890,-206.203,447.093,500,-548,77,243,500,-52,1865.98
768135,-554.884,-399.342,685.572,-1470,980,257110,-165.962,533.505,500,-538,85,245,500,33,1860.5
768158,-558.497,-336.547,679.789,1000,2230,257340,21.8191,530.432,500,-541,86,248,500,30,1863.16
768169,-557.003,-310.331,677.213,2100,1810,257410,19.4311,463.561,500,-565,81,250,500,-7,1869.22
768179,-557.024,-289.552,675.391,2230,2180,257350,-12.3134,393.46,-500,-577,67,252,-500,800,1885.13
768185,-557.919,-278.582,674.221,1780,10430,257270,-29.8286,365.67,-500,-586,72,253,-500,800,1883.97
768196,-561.444,-266.183,674.536,1100,13980,257130,-57.0834,170.54,-500,-593,80,255,-500,670,1875.84
768218,-561.476,-307.654,678.405,1660,8090,257600,55.7847,-731.326,-500,-626,60,258,-500,-231,1889.97
768230,-557.743,-367.235,678.939,3090,-100,258150,58.3934,-1073.8,-500,-627,50,260,-500,-573,1900.75
768236,-556.846,-401.56,678.17,3600,-6250,258510,29.9061,-1144.17,-500,-638,36,261,-500,-644,1916.64
768247,-562.173,-461.757,676.858,2720,-8170,258750,-142.332,-1051.64,-500,-649,49,263,-500,-551,1905.98
768269,-603.53,-539.704,681.289,-2210,-3210,259070,-483.497,-479.83,-500,-636,91,266,-500,20,1861.73
768280,-631.003,-557.479,687.463,-4560,760,258930,-492.167,-301.541,-500,-644,91,267,-500,198,1853.8
768290,-651.669,-566.67,694.415,-5050,3880,258730,-363.24,-180.139,-500,-619,97,269,-500,313,1845.3
768297,-662.031,-573.261,699.163,-3680,5820,258530,-296.054,-188.319,-500,-595,85,270,-500,311,1850.36
768308,-669.8,-586.668,704.358,-1050,5570,258260,-101.047,-270.225,-500,-575,83,272,-500,229,1849.19
768320,-670.298,-610.574,707.68,600,4640,257660,9.79851,-437.116,-500,-554,74,273,-500,62,1855.51
768331,-668.148,-641.824,708.817,2070,1980,256900,35.887,-591.721,-500,-543,79,275,-500,-91,1848.58
768342,-667.447,-679.262,708.78,2950,-190,256330,-2.42314,-703.98,-500,-538,63,277,-500,-203,1864.63
768347,-668.587,-696.935,707.936,2530,-1060,256240,-45.6096,-706.903,-500,-539,55,278,-500,-206,1873.37
768359,-677.08,-738.379,705.268,1280,-1070,256440,-173.847,-688.854,-500,-545,50,280,-500,-188,1883.63
768382,-709.091,-808.623,698.183,-1130,-1710,257590,-299.363,-581.397,500,-585,32,283,500,-800,1909.66
768393,-725.822,-836.296,694.707,-1470,-7790,258160,-283.288,-492.073,500,-606,43,285,500,-800,1896.37
768399,-734.409,-847.26,693.948,-1520,-9660,258490,-286.237,-365.473,500,-601,65,286,500,-800,1879.43
768410,-749.798,-854.664,693.423,-1210,-9570,258740,-283.681,-40.0154,500,-599,77,288,500,-540,1864.91
768422,-767.055,-839.037,694.773,-970,-5390,259120,-289.595,357.272,500,-603,69,290,500,-142,1871.88
768434,-784.037,-802.98,695.863,-1080,90,259490,-291.131,661.102,500,-599,64,292,500,161,1876.11
768440,-791.532,-782.202,695.237,-1490,3590,259880,-249.819,692.611,500,-570,70,293,500,192,1870.7
768452,-804.588,-740.181,694.32,-1520,4700,260220,-196.84,681.081,500,-537,89,295,500,181,1854.46
768463,-811.61,-709.162,693.136,-1220,3710,260370,-107.41,515.327,500,-524,96,297,500,15,1846.37
768474,-813.81,-685.343,691.578,110,1440,260300,-23.0826,403.237,500,-528,87,299,500,-96,1854.57
768485,-812.193,-667.905,689.442,1620,-420,260120,41.9729,303.772,500,-557,76,301,500,-166,1868.31
768495,-811.469,-652.106,688.427,2610,-1540,259740,-9.46922,350.237,500,-554,79,303,500,-218,1867.12
768501,-812.076,-642.292,687.822,2430,-1530,259730,-20.2293,327.159,500,-543,88,304,500,-172,1863.73
768513,-810.209,-617.366,686.525,2180,-850,260450,128.013,470.43,500,-524,151,306,500,-29,1796.62
768535,-743.68,-552.253,704.762,3560,2020,261100,912.28,650.403,500,-485,328,309,500,150,1604.39
768546,-672.268,-517.202,724.755,7170,3600,261710,1390.79,613.031,500,-452,363,311,500,113,1600
768552,-627.42,-499.308,737.374,10580,4420,263440,1494.92,596.457,500,-437,444,312,500,96,1600
768563,-534.162,-472.481,766.719,12900,3720,265250,1736.6,453.993,500,-420,488,314,500,-46,1600
768574,-434.713,-454.258,801.937,14830,1230,265570,1822.54,285.022,500,-416,406,316,500,-214,1600
768585,-351.43,-444.844,830.365,17130,2290,264400,1404.5,115.236,-500,-419,219,318,-500,615,1600
768596,-296.118,-440.091,841.683,18970,9120,262870,871.424,59.692,-500,-443,61,320,-500,559,1737.88
768602,-281.03,-441.487,841.779,18860,9880,260990,502.937,-46.5347,-500,-482,7,321,-500,453,1802.49
768613,-280.464,-461.053,835.634,12400,6680,258140,-185.343,-483.038,-500,-505,21,323,-500,16,1795.17
768625,-321.128,-509.88,830.482,470,540,256040,-821.38,-908.375,-500,-510,5,325,-500,-408,1815.08
768636,-377.373,-569.88,824.444,-8890,-4320,255410,-1066.93,-1122.61,-500,-486,8,327,-500,-622,1817.79
768648,-432.834,-632.723,817.781,-10640,-6420,255020,-841.878,-982.354,-500,-473,15,329,-500,-482,1814.97
768654,-453.061,-657.808,815.534,-10770,-5210,254710,-674.24,-836.141,-500,-454,6,330,-500,-336,1825.65
768678,-474.661,-709.338,803.646,-2420,1630,254140,94.172,-242.835,-500,-427,14,333,-500,257,1826.95
768689,-462.555,-720.898,797.714,3220,4740,254090,238.272,-216.214,-500,-409,19,335,-500,297,1824.99
768695,-454.979,-729.081,794.347,6430,5930,254090,252.521,-272.77,-500,-388,17,336,-500,227,1832.24
768707,-444.054,-755.959,787.535,7030,4590,253930,132.333,-512.834,-500,-379,21,338,-500,-12,1834.64
768718,-445.07,-795.567,781.023,5350,1460,253650,-65.3263,-788.36,-500,-371,26,340,-500,-288,1832.79
768730,-459.651,-850.818,774.758,2210,-1740,253570,-304.894,-958.292,-500,-368,29,342,-500,-458,1832.73
768736,-470.928,-880.675,771.343,-580,-4120,253750,-375.907,-995.232,-500,-370,26,343,-500,-495,1840.44
768759,-524.867,-980.727,756.385,-4230,-4440,255330,-477.174,-740.283,-500,-359,22,346,-500,-240,1857.46
768770,-540.362,-1005.25,749.033,-4170,-1580,257720,-201.287,-312.117,-500,-368,65,348,-500,187,1820.31
768776,-542.222,-1010.74,746.841,-2090,3160,259680,-62.0144,-182.875,-500,-368,109,349,-500,317,1782.88
768787,-536.5,-1013.82,746.991,310,1370,261100,164.851,-36.372,500,-367,177,351,500,-536,1709.25
768810,-499.809,-1012.21,757.147,5000,-5660,260940,382.967,67.5877,500,-368,134,354,500,-432,1743.07
768821,-476.511,-998.341,760.085,6430,-5760,259050,437.716,332.413,500,-365,133,356,500,-167,1739.17
768832,-455.22,-969.34,763.342,6670,-3410,257310,373.389,576.501,500,-365,140,358,500,-31,1732.37
768838,-446.341,-947.916,765.974,5970,490,255910,295.97,714.121,500,-345,172,359,500,214,1695.31
768861,-419.74,-857.606,779.517,4420,6030,255740,280.518,743.66,500,-274,173,362,500,243,1682.91
768872,-401.895,-821.735,783.89,4220,6060,256450,347.812,632.939,500,-253,176,364,500,132,1674.6
768883,-380.728,-793.629,787.416,4560,4370,256920,405.965,471.155,500,-247,175,366,500,44,1672.35
768889,-368.028,-781.254,788.781,5120,2450,257120,423.357,412.5,500,-243,181,367,500,-87,1665.01
768901,-338.15,-759.923,793.347,6150,700,257130,527.695,334.635,500,-249,185,369,500,-165,1656.47
768923,-275.394,-721.793,805.373,7760,-230,257160,565.587,378.131,500,-268,168,372,500,-121,1660.93
768929,-259.017,-709.741,808.068,7850,-70,257070,545.916,401.731,500,-267,171,373,500,-98,1654.9
768940,-227.791,-686.234,813.139,8190,170,256950,562.257,421.026,500,-262,181,375,500,-78,1639.9
768951,-196.565,-660.82,820.098,8190,360,256900,561.322,452.071,500,-267,168,377,500,-47,1646.4
768974,-132.47,-609.971,833.123,8550,1430,258650,577.786,441.656,500,-273,143,380,500,-58,1661.22
768985,-101.739,-585.564,837.848,8710,1380,260190,579.352,434.486,-500,-269,155,382,-500,800,1643.84
768990,-87.1909,-574.654,840.393,8810,5610,261590,581.933,436.401,-500,-264,174,383,-500,800,1623.58
769002,-52.0753,-549.739,848.234,9020,10040,262620,547.87,409.217,-500,-268,150,385,-500,800,1633.28
769013,-25.6208,-532.844,855.72,9420,12170,263740,460.919,261.648,-500,-273,105,387,-500,761,1671.45
769023,-5.56962,-526.053,857.991,9460,13090,264990,378.543,96.6504,-500,-286,73,389,-500,596,1705.61
769034,11.6453,-530.086,859.02,9060,11650,265700,297.466,-99.0146,-500,-313,44,391,-500,400,1732.78
769046,23.8931,-545.379,857.628,8020,8670,265360,180.572,-294.765,-500,-329,31,393,-500,205,1746.9
769051,27.199,-555.689,856.114,5920,5170,264130,132.236,-412.399,-500,-335,18,394,-500,87,1762.11
769062,30.3471,-583.289,852.2,4150,2430,263290,57.114,-533.077,-500,-322,15,396,-500,-33,1766.24
769073,31.752,-614.199,846.973,2230,340,262760,20.6548,-566.223,-500,-312,18,398,-500,-66,1771.42
769083,31.5631,-640.257,841.34,920,-160,262550,-2.19007,-503.965,-500,-288,43,400,-500,-3,1749.93
769094,32.9293,-661.861,836.302,690,960,262450,32.3325,-350.482,-500,-274,36,402,-500,149,1760.96
769116,45.1771,-685.383,824.572,1540,3930,263500,148.72,-148.144,-500,-262,54,405,-500,351,1750.34
769127,54.0073,-694.277,819.248,2120,5100,264230,157.885,-173.313,-500,-284,47,407,-500,326,1762.6
769138,62.5245,-705.567,814.082,3230,5970,264910,170.939,-232.728,-500,-289,41,409,-500,267,1771.73
769144,66.5525,-713.28,811.325,4020,5870,265400,134.267,-257.117,-500,-307,28,410,-500,242,1786.94
769156,73.1712,-732.811,804.144,4110,5340,265460,102.03,-347.642,-500,-314,24,412,-500,152,1797.68
769178,81.2302,-777.449,792.099,3220,3400,265360,88.6057,-388.917,-500,-350,40,415,-500,111,1792.32
769189,85.945,-799.146,789.616,3020,3280,264820,87.8817,-403.054,500,-346,46,417,500,-800,1785.38
769195,87.2964,-810.859,788.821,3820,-3970,263960,45.046,-390.444,500,-337,31,418,500,-800,1795.94
769219,74.0379,-848.821,774.774,1460,-10400,260710,-199.978,-144.689,500,-395,-43,421,500,-800,1880.87
769229,58.3281,-841.838,769.215,-430,-8670,259170,-329.565,209.674,500,-401,-24,423,500,-290,1876.32
769235,47.3491,-830.157,767.099,-2580,-3540,257890,-365.965,389.357,500,-410,-10,424,500,-110,1862.22
769246,27.0189,-795.724,764.708,-3510,1750,256790,-369.58,678.62,500,-395,9,426,500,178,1846.28
769257,11.7241,-754.867,764.888,-3110,4920,256070,-263.501,742.584,500,-374,28,428,500,242,1826.18
769279,2.61243,-690.687,763.607,-140,3870,255750,5.21299,449.832,500,-354,-11,431,500,-50,1865.39
769290,5.55515,-672.569,758.852,1730,1050,255770,57.5404,287.909,500,-356,-12,433,500,-212,1872.4
769296,8.02326,-665.338,756.513,3080,-1300,255760,82.2704,241.051,500,-332,-4,434,500,-258,1865.48
769307,9.35401,-654.811,751.313,3050,-2600,255800,1.43629,191.854,500,-345,-23,436,500,-308,1886.88
769330,-6.98792,-624.88,738.737,270,-2480,256080,-215.729,318.979,500,-379,-30,439,500,-181,1906.67
769342,-22.0694,-600.633,733.754,-1450,-1010,256080,-254.708,424.01,500,-397,-20,441,500,-75,1901.04
769352,-33.2762,-576.251,731.774,-2400,440,255980,-201.893,493.785,500,-412,-5,443,500,-18,1888.37
769358,-38.717,-560.707,731.513,-1840,1630,255880,-181.36,518.123,500,-425,0,444,500,18,1883.44
769369,-42.6989,-533.129,731.873,-160,2220,255850,-61.7892,497.61,500,-442,-1,446,500,-2,1884.43
769392,-43.2589,-486.641,736.44,2370,1890,256110,-2.27112,333.298,-500,-444,16,449,-500,800,1863.23
769398,-44.4733,-478.352,738.569,2250,10250,256460,-40.4811,276.271,-500,-450,7,450,-500,776,1872.74
769410,-50.6758,-469.092,744.93,1390,13520,256670,-122.872,71.0713,-500,-458,23,452,-500,571,1850.8
769421,-58.8046,-481.779,753.662,530,11640,256780,-146.33,-339.724,-500,-471,17,454,-500,160,1847.91
769443,-74.7831,-574.841,769.778,260,-1290,256890,-145.92,-1037.92,-500,-445,5,457,-500,-537,1849.27
769453,-82.8803,-628.934,774.958,190,-5680,256760,-177.687,-1081.44,-500,-425,-2,459,-500,-581,1852.23
769464,-93.2801,-680.392,779.482,-210,-6430,256610,-191.943,-899.771,-500,-409,2,461,-500,-399,1844.72
769470,-100.042,-702.591,782.416,-660,-3820,256480,-225.385,-739.986,-500,-387,10,462,-500,-239,1834.41
769481,-113.02,-733.523,787.239,-1150,-150,256380,-237.481,-510.633,-500,-352,7,464,-500,-10,1832.56
769492,-125.571,-756.95,789.826,-1190,2750,256400,-218.052,-431.13,-500,-318,0,466,-500,68,1838.52
769503,-136.017,-779.189,789.033,-730,3950,256480,-191.759,-429.318,-500,-322,-12,468,-500,70,1850.21
769515,-143.638,-809.578,786.182,-160,3740,256620,-123.965,-538.16,-500,-318,-21,470,-500,25,1861.18
769520,-146.572,-825.146,784.4,440,2290,256750,-117.34,-622.705,-500,-313,-25,471,-500,-122,1867.23
769531,-151.933,-863.131,778.903,860,260,256910,-105.414,-715.683,-500,-324,-35,473,-500,-215,1882.87
769543,-158.449,-909.607,772.618,800,-1190,257090,-125.491,-783.669,-500,-326,-26,475,-500,-283,1879.16
769555,-167.832,-955.119,766.562,410,-1930,257320,-173.648,-737.245,-500,-317,-24,477,-500,-237,1882.25
769566,-178.403,-992.825,761.001,70,-1390,257630,-199.352,-667.775,-500,-306,-18,479,-500,-167,1880.94
769572,-184.935,-1011.1,758.076,-190,-220,258070,-217.742,-609.022,-500,-310,-22,480,-500,-109,1886.55
769596,-211.434,-1077.28,746.407,-650,570,258850,-213.547,-534.437,500,-311,-10,483,500,-800,1887.43
769606,-221.48,-1105.24,742.392,-440,-7040,259140,-193.512,-553.064,500,-306,4,485,500,-800,1873.84
769612,-226.76,-1119.46,740.072,-20,-9840,259380,-176.022,-473.749,500,-322,-6,486,500,-800,1884.93
769624,-237.606,-1135.43,736.195,290,-10670,259590,-184.251,-175.233,500,-349,-13,488,500,-675,1898.34
769636,-249.748,-1126.58,733.821,190,-8410,259920,-200.495,246.031,500,-360,-2,490,500,-253,1888.57
769647,-261.919,-1097.68,733.716,-60,-2560,260250,-230.983,610.801,500,-359,2,492,500,110,1884.91
769653,-267.993,-1075.45,734.772,-480,2730,260510,-202.487,741.152,500,-352,10,493,500,241,1876.31
769665,-279.8,-1029.38,736.581,-580,5290,260690,-190.558,757.848,500,-344,13,495,500,257,1873.06
769698,-299.382,-955.68,739.968,280,610,260720,-75.8339,242.626,500,-358,-9,499,500,-257,1892.04
769704,-300.639,-950.501,739.612,940,-1750,260580,-41.9021,172.618,500,-360,-14,500,500,-327,1896.62
769715,-302.626,-941.321,739.329,1610,-3130,260530,-41.6722,176.747,500,-371,-17,502,500,-323,1902.18
769726,-305.803,-929.146,738.847,1470,-3050,260550,-57.1316,247.958,500,-368,-6,504,500,-252,1890.86
769748,-320.887,-888.616,740.539,320,-570,260600,-172.489,428.233,500,-358,-3,507,500,-71,1887.09
769760,-331.205,-860.941,741.632,-370,670,260630,-177.463,459.823,500,-363,-11,509,500,-40,1894.49
769766,-336.7,-847.296,741.808,-780,1150,260540,-183.192,454.861,500,-362,-21,510,500,-45,1903.66
769777,-345.865,-823.705,741.267,-850,930,260390,-168.157,420.421,500,-350,-15,512,500,-79,1899.41
769800,-358.616,-782.466,738.396,-190,2820,260080,-80.3311,331.84,-500,-338,-14,515,-500,800,1901.38
769811,-362.367,-766.903,737.948,550,11070,260200,-57.4119,250.006,-500,-332,9,517,-500,800,1880.27
769817,-364.206,-763.541,739.293,1170,13640,260340,-61.2806,112.092,-500,-336,12,518,-500,612,1876.12
769828,-367.603,-775.747,742.152,1700,11180,260370,-71.1056,-351.652,-500,-330,27,520,-500,148,1857.97
769840,-374.604,-817.786,745.623,1510,4680,260170,-147.764,-817.417,-500,-312,21,522,-500,-317,1861.31
769852,-385.356,-879.204,747.013,600,-2680,259800,-197.48,-1063.71,-500,-306,13,524,-500,-563,1868.33
769858,-392.526,-911.126,747.046,-150,-6700,259550,-238.999,-1064.07,-500,-302,11,525,-500,-564,1870.47
769868,-405.705,-957.371,748.021,-1070,-6400,259440,-275.028,-868.849,-500,-283,24,527,-500,-368,1856.8
769880,-421.656,-996.571,750.216,-1540,-3260,259420,-265.168,-580.074,-500,-259,31,529,-500,-80,1847.09
769891,-434.012,-1016.79,752.111,-1370,1050,259510,-210.77,-331.498,-500,-258,14,531,-500,168,1863.66
769902,-442.926,-1031.06,751.742,-530,4010,259670,-142.507,-225.079,-500,-253,10,533,-500,274,1867.09
769913,-449.586,-1048.22,750.632,390,5330,259790,-118.376,-330.771,-500,-244,10,535,-500,210,1869.36
769923,-455.444,-1069.52,748.827,710,4560,259920,-117.807,-459.739,-500,-251,1,537,-500,107,1878.04
769929,-458.745,-1085.26,747.515,990,2670,260040,-110.051,-524.916,-500,-263,-2,538,-500,-24,1883.99
769939,-465.818,-1116.27,745.5,680,700,260060,-145.266,-637.231,-500,-282,-7,540,-500,-137,1890.87
769949,-474.614,-1148.71,743.446,480,-50,260070,-186.079,-663.535,-500,-303,-14,542,-500,-163,1899.78
769960,-485.843,-1183.99,742.755,130,-190,260070,-206.909,-614.804,-500,-320,-26,544,-500,-114,1912.68
769971,-497.886,-1216.75,741.627,-150,240,260090,-219.49,-571.825,-500,-331,-27,546,-500,-71,1914.95
769993,-518.126,-1273.71,740.803,140,2040,260120,-155.988,-493.651,-500,-345,-25,549,-500,6,1913.3
770005,-524.688,-1300.9,740.731,1140,-1140,260500,-89.4356,-436.23,500,-358,-26,551,500,-800,1918.59
770011,-526.471,-1312.34,739.949,2570,-7040,261300,-59.4234,-381.152,500,-354,-38,552,500,-800,1925.75
770023,-525.52,-1320.12,737.48,4080,-8730,262070,32.1714,-7.36661,500,-337,-34,554,500,-507,1929.17
770034,-523.248,-1302.2,735.086,4420,-5250,262370,18.3864,409.272,500,-332,-10,556,500,-90,1906.45
770046,-528.799,-1261.07,735.266,3360,850,262280,-122.177,771.888,500,-299,17,558,500,271,1879.57
770056,-539.523,-1219.47,736.674,1390,5770,261660,-235.737,813.849,500,-254,34,560,500,350,1861.13
770062,-548.489,-1196.08,737.249,-150,7210,260750,-298.838,779.822,500,-223,41,561,500,279,1853.17
770072,-564.238,-1164.9,737.645,-1360,5400,259900,-312.421,555.453,500,-207,41,563,500,55,1853.91
770083,-580.881,-1143.84,736.89,-1800,1970,259300,-294.363,325.429,500,-212,31,565,500,-174,1862.58
770106,-603.504,-1119.33,733.664,-1120,-2210,258240,-135.396,203.059,500,-203,26,568,500,-296,1870.43
770112,-605.802,-1111.2,732.773,-250,-2250,257740,-76.5971,271.045,500,-195,17,569,500,-228,1880.29
770123,-608.374,-1091.44,729.231,820,-920,257380,-17.4998,379.107,500,-206,18,571,500,-120,1884.33
770134,-609.358,-1064.77,726.029,1600,500,257180,-29.4482,524.673,500,-228,28,573,500,24,1877.07
770155,-611.482,-1007,725.337,1720,2160,256780,-53.9695,549.132,500,-255,20,576,500,49,1884.98
770163,-614.697,-986.39,725.363,1200,2030,256580,-80.3838,515.24,500,-271,21,577,500,15,1884.16
770175,-622.114,-956.928,726.326,690,1660,256440,-141.862,464.913,500,-289,25,579,500,-35,1879.58
770198,-638.77,-909.717,732.082,300,190,256530,-162.756,403.624,500,-251,16,582,500,-96,1884.26
770209,-648.047,-888.036,732.13,60,5730,256710,-174.414,389.459,-500,-248,9,584,-500,800,1890.24
770219,-657.122,-870.832,732.636,0,12250,256810,-178.533,313.437,-500,-257,14,586,-500,800,1887.56
770225,-662.35,-866.158,733.299,-170,14620,256840,-174.261,155.793,-500,-280,18,587,-500,655,1880.88
770249,-680.265,-922.49,740.863,-150,7130,257110,-121.703,-848.637,-500,-304,20,590,-500,-348,1874.12
770255,-683.699,-952.42,742.811,470,-430,257380,-114.465,-997.683,-500,-304,23,591,-500,-497,1869.71
770267,-689.453,-1020.19,745.521,1060,-6490,257520,-94.1566,-1126.76,-500,-299,8,593,-500,-626,1881.67
770289,-699.801,-1112.83,749.623,2340,-5980,258240,-95.5612,-569.718,-500,-294,5,596,-500,-69,1883.8
770300,-704.804,-1128.78,751.102,3010,90,259120,-79.1768,-201.456,-500,-281,-5,598,-500,298,1889.8
770306,-706.631,-1130.26,751.014,3510,6980,260150,-60.9068,-49.3978,-500,-274,-23,599,-500,450,1910.15
770317,-708.505,-1126.7,748.986,3720,10810,260860,2.28636,75.9602,-500,-267,-13,601,-500,575,1903.06
770328,-712.161,-1129.32,747.071,4140,10970,261480,-74.7115,-104.936,-500,-278,-24,603,-500,395,1910.88
770338,-714.715,-1142.91,744.529,4660,8510,262500,-45.3432,-309.8,-500,-297,-51,605,-500,190,1940.32
770350,-712.258,-1166.12,738.231,6050,6540,264040,96.4594,-385.598,-500,-321,-80,607,-500,114,1978.97
770361,-703.687,-1186.21,729.907,7620,5990,265200,174.57,-317.341,-500,-331,-66,609,-500,182,1972.27
770367,-699.955,-1196.31,725.742,8140,6470,265800,124.395,-336.57,-500,-326,-47,610,-500,163,1957.15
770379,-692.842,-1211.04,719.337,7720,7610,265940,108.834,-218.371,-500,-336,-51,612,-500,281,1967.84
770402,-692.091,-1222.53,704.711,6670,10280,265670,-30.0474,-62.7183,500,-336,-60,615,500,-562,1986.7
770408,-693.355,-1225,699.711,6060,2910,265650,-42.122,-82.4469,500,-330,-16,616,500,-582,1951.33
770419,-694.603,-1228.79,691.999,5460,-3230,265370,-21.6644,-61.5505,500,-321,-23,618,500,-561,1962
770430,-697.449,-1222.88,684.275,4580,-3920,264530,-67.9165,176.738,500,-323,-6,620,500,-323,1954.71
770453,-714.448,-1162.11,676.46,1450,1830,261490,-210.216,671.701,500,-321,62,623,500,171,1891.7
770464,-728.971,-1124.18,679.008,50,4190,259870,-273.986,691.358,500,-288,94,625,500,191,1857.75
770470,-736.62,-1104.89,681.601,-860,4660,258680,-254.943,642.809,500,-258,101,626,500,142,1848.65
770494,-761.657,-1050.51,688.76,-520,1730,258110,-159.263,348.916,500,-223,90,629,500,-151,1854.92
770505,-766.828,-1034.27,690.112,580,-210,258400,-90.2796,282.802,500,-208,80,631,500,-189,1862.15
770510,-768.729,-1027.04,689.593,760,-2220,258330,-76.0656,289.193,500,-198,93,632,500,-210,1860.33
770521,-767.999,-1006.46,689.011,770,-2700,257610,99.1145,455.087,500,-191,194,634,500,-44,1755.52
770532,-755.498,-970.643,697.66,3210,-3430,257520,234.138,677.674,500,-170,241,636,500,177,1701.96
770554,-689.953,-895.767,732.286,7580,-690,255970,821.943,852.546,500,-106,375,639,500,352,1600
770566,-628.707,-839.845,761.029,10550,1590,255140,1075.59,961.668,500,-68,480,641,500,461,1600
770572,-594.011,-806.927,780.615,13960,2880,254270,1156.54,1097.27,500,-14,529,642,500,597,1600
770583,-527.132,-741.343,819.4,16690,2860,253920,1245.96,1226.03,500,27,538,644,500,726,1600
770593,-464.419,-675.649,855.815,19150,3540,253830,1257.5,1336.08,500,67,500,646,500,800,1600
770616,-316.187,-521.281,928.442,19230,5090,254160,1241.78,1286.87,-500,143,449,649,-500,800,1600
770622,-281.071,-484.883,944.025,18420,5530,253570,1170.55,1213.24,-500,148,385,650,-500,800,1600
770633,-222.941,-425.052,966.812,17730,6440,253120,1017.3,1034.09,-500,140,325,652,-500,800,1600
770645,-166.544,-370.345,984.683,17470,7420,253000,911.038,876.546,-500,126,300,654,-500,800,1600
770656,-117.872,-325.805,998.788,17530,7950,252970,867.948,785.737,-500,126,306,656,-500,800,1600
770667,-71.7719,-286.793,1014.17,18610,8140,252820,849.001,687.567,-500,130,328,658,-500,800,1600
770673,-47.5341,-266.935,1023.57,19840,8030,252740,807.927,661.922,-500,132,323,659,-500,800,1600
770684,-8.90255,-232.461,1040.88,20790,8370,253100,695.134,613.246,-500,118,254,661,-500,800,1600
770695,21.554,-200.817,1054.01,20090,8930,253500,522.294,573.818,-500,115,181,663,-500,800,1600
770706,45.2351,-171.144,1057.88,18320,8890,254100,425.495,524.826,-500,113,113,665,-500,800,1600
770717,64.4319,-146.243,1053.83,14620,9110,255010,307.866,424.191,-500,112,95,667,-500,800,1600
770728,77.695,-128.853,1047.12,11410,9390,255640,216.362,290.619,-500,99,76,669,-500,790,1600
770734,83.5988,-121.206,1042.66,8740,8860,256060,196.794,254.909,-500,96,75,670,-500,754,1600
770745,93.1091,-111.221,1033.96,6960,8500,256410,165.971,162.454,-500,84,58,672,-500,662,1600
770756,102.434,-106.04,1023.88,5020,7980,256380,175.577,65.8527,-500,72,60,674,-500,565,1600
770767,112.754,-103.141,1013.9,3910,7250,256440,178.436,57.7711,-500,74,79,676,-500,557,1600
770779,124.745,-100.673,1005.11,3480,6950,256940,213.415,23.3193,-500,87,75,678,-500,523,1600
770790,137.187,-97.2907,997.169,3330,7080,257160,237.812,67.7479,-500,95,68,680,-500,567,1600
770801,150.495,-93.6983,988.072,3200,7520,257240,268.584,65.5117,-500,88,62,682,-500,565,1609.34
770811,164.36,-92.0717,980.21,3130,7380,257320,300.282,28.5259,500,75,72,684,500,-463,1606.94
770817,174.197,-91.3755,976.087,4720,1920,257690,327.918,23.2066,500,72,31,685,500,-476,1649.13
770828,194.455,-87.2603,965.397,7240,-2760,257040,336.956,120.605,500,66,-40,687,500,-379,1726.68
770839,213.535,-79.0686,946.444,7980,-4830,255810,310.206,200.377,500,45,-62,689,500,-299,1767.84
770850,222.259,-61.8055,925.65,8100,-2270,255350,98.8373,356.807,500,43,-110,691,500,-143,1832.48
770862,213.602,-36.9829,898.478,5220,30,255610,-238.772,440.67,500,64,-108,693,500,-59,1854.3
770868,202.869,-24.5631,883.543,690,1290,256050,-357.769,413.996,500,65,-121,694,500,-86,1879.47
770879,177.171,-4.35739,854.993,-2870,1350,256610,-491.548,343.026,500,61,-115,696,500,-156,1896.64
770890,151.873,11.0615,827.376,-4470,420,257310,-425.444,253.053,500,38,-105,698,500,-246,1910.13
770902,133.247,22.8583,800.012,-3400,-780,258010,-251.063,175.67,500,17,-99,700,500,-324,1924.46
770908,127.347,28.0696,787.088,-1080,-1570,258630,-196.672,173.711,500,0,-84,701,500,-326,1922.29
770920,122.844,38.3144,764.358,880,-1820,259090,-48.9921,194.145,500,-11,-67,703,500,-305,1924.96
770931,120.832,49.8013,745.848,2540,-1290,259220,-26.6431,216.505,500,-25,-66,705,500,-283,1936.27
770943,115.678,64.431,728.013,2910,-660,259100,-115.896,250.368,500,-50,-65,707,500,-262,1947.24
770949,110.981,72.6134,720.26,2110,-370,258690,-156.567,272.748,500,-48,-48,708,500,-227,1942.91
770961,96.5005,88.5491,706.871,680,-360,258070,-263.361,291.276,500,-54,-36,710,500,-208,1940.23
770972,79.2404,101.941,697.427,-760,-350,257530,-322.306,248.842,500,-76,-42,712,500,-251,1954.39
770983,61.8221,114.715,689.442,-1990,-760,257030,-303.738,234.221,500,-87,-26,714,500,-265,1946.39
770994,47.5066,128.229,685.615,-2170,-990,256650,-232.505,228.712,500,-67,5,716,500,-271,1919.95
771000,42.0653,136.077,685.209,-1040,-1020,256360,-181.377,261.6,500,-52,6,717,500,-238,1915.67
771012,34.0656,152.423,684.171,110,620,256160,-116.363,293.484,-500,-63,-14,719,-500,793,1936.99
771023,29.6038,168.646,683.123,1110,11320,256250,-83.3006,282.451,-500,-93,-22,721,-500,782,1949.42
771044,17.6244,160.368,690.414,1390,14870,255980,-130.647,-442.321,-500,-138,3,724,-500,57,1919.57
771056,7.76047,109.984,700.722,1200,8050,255450,-188.515,-990.552,-500,-155,28,726,-500,-188,1890.37
771061,3.10167,79.7257,705.875,960,-2300,254950,-186.352,-1210.33,-500,-152,20,727,-500,-710,1888.83
771072,-9.56235,6.36716,717.435,560,-8780,254650,-254.596,-1323.14,-500,-145,11,729,-500,-800,1889.87
771082,-23.6744,-54.685,728.163,-210,-10190,254570,-301.113,-1152.69,-500,-127,19,731,-500,-652,1871.5
771093,-43.2593,-101.986,741.641,-1190,-7600,254560,-377.041,-745.34,-500,-125,14,733,-500,-245,1867.89
771116,-85.238,-135.916,771.596,-2760,3460,254240,-334.446,-116.842,-500,-87,13,736,-500,383,1848.19
771122,-93.8384,-138.353,779.913,-2330,6980,254030,-286.682,-81.2553,-500,-52,13,737,-500,418,1837.56
771133,-104.685,-147.234,794.41,-850,7750,253930,-169.188,-199.342,-500,-39,-1,739,-500,300,1839.96
771144,-110.226,-166.517,805.999,350,6110,253760,-80.4269,-407.553,-500,-29,-21,741,-500,92,1850.75
771166,-115.473,-235.688,821.642,1580,740,252990,-54.9493,-702.969,-500,-25,-39,744,-500,-202,1857.49
771177,-119.8,-275.643,829.758,1640,-950,252670,-101.262,-701.142,-500,-19,-50,746,-500,-201,1862.12
771188,-127.296,-312.037,836.56,1090,-1200,252430,-145.989,-636.733,-500,-20,-41,748,-500,-136,1847.78
771194,-132.48,-329.745,841.126,520,-280,252320,-172.814,-590.258,-500,-14,-38,749,-500,-90,1841.17
771205,-143.747,-356.928,849.965,0,1450,252390,-212.107,-474.217,-500,-9,-58,751,-500,25,1852.14
771216,-155.644,-381.189,857.568,-650,300,252440,-215.196,-433.175,500,-10,-78,753,500,-800,1869.19
771239,-178.097,-419.492,869.412,-230,-9350,252720,-179.529,-187.423,500,-15,-76,756,500,-800,1862.63
771249,-187.192,-415.83,876.354,170,-8380,253010,-181.811,167.839,500,-34,-65,758,500,-521,1843.56
771254,-191.866,-407.305,881.196,250,-3770,253500,-186.959,340.992,500,-22,-59,759,500,-159,1831.58
771266,-204.568,-372.429,891.685,30,1570,254070,-225.945,644.627,500,9,-57,761,500,144,1820.12
771277,-216.026,-332.277,900.723,-370,5030,254630,-198.795,729.29,500,37,-57,763,500,229,1812.79
771288,-226.324,-294.874,907.756,-360,5660,255190,-172.889,646.506,500,68,-59,765,500,146,1809.03
771299,-233.874,-266.357,912.794,40,4240,255680,-125.443,470.319,500,77,-70,767,500,-29,1815.89
771310,-238.769,-246.414,915.967,650,1930,256210,-78.7408,345.207,500,98,-65,769,500,-154,1808.22
771321,-243.325,-231.489,917.641,1230,-10,256740,-80.6373,252.8,500,119,-76,771,500,-213,1817.94
771327,-246.011,-223.593,917.57,1560,-1150,257280,-89.5499,263.197,500,131,-92,772,500,-236,1832.78
771337,-251.996,-209.648,915.256,1510,-1130,257800,-125.563,301.068,500,150,-103,774,500,-198,1845.65
771360,-271.974,-167.219,902.682,1090,270,258820,-219.628,414.367,500,162,-108,777,500,-85,1860.86
771371,-284.727,-143.848,894.471,540,1360,259220,-239.262,430.55,500,172,-103,779,500,-69,1863.59
771376,-290.979,-133.676,890.624,90,1610,259400,-250.09,406.869,500,188,-96,780,500,-93,1859.79
771388,-307.523,-111.165,879.793,-80,1300,259310,-281.824,359.014,500,207,-83,782,500,-140,1855.57
771400,-323.673,-91.5566,867.858,-170,650,259070,-271.95,309.979,500,225,-76,784,500,-190,1859.23
771422,-352.015,-58.4959,843.175,-530,5420,258060,-229.272,306.091,-500,226,-76,787,-500,800,1878.24
771433,-364.638,-46.0263,831.385,-110,12640,257700,-221.588,184.559,-500,209,-61,789,-500,777,1868.94
771439,-370.921,-44.5415,826.211,380,14230,257610,-209.414,49.4933,-500,186,-55,790,-500,549,1871.16
771450,-382.456,-61.4005,817.51,740,11280,257620,-211.633,-421.939,-500,149,-54,792,-500,78,1877.31
771461,-394.51,-104.379,810.023,750,3970,257560,-217.918,-878.706,-500,141,-44,794,-500,-378,1872.49
771472,-407.602,-162.874,803.307,370,-3370,257430,-242.559,-1100.24,-500,134,-42,796,-500,-600,1877.08
771482,-420.389,-217.271,798.039,-180,-6610,257280,-246.165,-1055.75,-500,137,-22,798,-500,-555,1861.44
771494,-435.625,-269.333,794.295,-970,-5750,257130,-247.176,-789.68,-500,130,-30,800,-500,-289,1872.58
771500,-442.94,-287.997,792.169,-1310,-2300,256830,-243.82,-622.137,-500,121,-30,801,-500,-122,1873.45
771534,-464.149,-353.04,785.317,640,5130,255880,-65.6052,-393.339,-500,96,-26,805,-500,106,1875.48
771540,-465.586,-367.24,784.666,1400,4310,255510,-47.9173,-473.331,-500,77,-38,806,-500,26,1888.22
771552,-468.202,-402.387,783.126,1760,2550,255020,-43.5594,-630.761,-500,63,-41,808,-500,-130,1893.72
771585,-488.648,-519.578,784.834,760,-750,254380,-182.137,-708.351,-500,30,-31,812,-500,-208,1883.07
771595,-498.252,-551.426,788.096,230,-300,254470,-211.384,-640.054,-500,9,-28,814,-500,-140,1878.68
771606,-508.863,-582.751,793.148,-140,560,254800,-193.898,-559.403,-500,13,-24,816,-500,-59,1869.8
771611,-513.149,-596.194,795.269,-190,1370,255140,-171.438,-537.726,-500,21,-22,817,-500,-37,1867.25
771623,-522.001,-627.254,800.638,-140,-3630,255550,-136.216,-519.6,500,28,-5,819,500,-800,1845.03
771646,-532.387,-671.989,808.769,1000,-10460,256110,-67.2888,-207.22,500,27,-40,822,500,-707,1874.77
771652,-534.743,-671.247,810.505,1370,-9030,256220,-78.5279,24.7299,500,32,-28,823,500,-475,1860.52
771664,-539.936,-650.043,814.534,1390,-4160,256310,-93.4947,460.781,500,41,-24,825,500,-39,1853.37
771676,-546.844,-607.764,818.904,1240,2100,256320,-115.833,772.384,500,51,-27,827,500,272,1852.94
771687,-555.425,-562.83,822.285,1170,6190,256200,-175.313,796.774,500,78,-22,829,500,296,1845.28
771697,-563.703,-527.854,823.998,790,6980,255960,-169.718,645.926,500,106,-18,831,500,145,1838.9
771708,-573.623,-501.178,824.115,620,5030,255680,-186.417,423.952,500,115,-32,833,500,-76,1853.84
771714,-578.607,-491.997,822.987,530,1790,255530,-166.102,306.044,500,134,-31,834,500,-193,1853.82
771726,-588.112,-480.8,818.365,740,-1040,255630,-145.263,164.676,500,151,-40,836,500,-335,1867.62
771737,-598.13,-472.719,811.899,820,-2640,256060,-164.726,159.204,500,158,-41,838,500,-340,1871.93
771748,-606.985,-460.646,803.848,990,-2670,256740,-171.042,243.7,500,189,-34,840,500,-256,1872.52
771754,-612.282,-451.277,798.952,970,-1640,257640,-176.539,312.31,500,206,-40,841,500,-187,1881.6
771766,-621.594,-427.314,787.032,1000,-30,258590,-149.353,423.282,500,212,-31,843,500,-76,1884.36
771778,-630.539,-398.583,774.154,1030,1470,259440,-150.802,487.081,500,201,-30,845,500,-12,1892.91
771790,-639.805,-369.163,761.181,1000,2340,260290,-162.409,489.582,500,185,-33,847,500,-10,1906.58
771796,-644.734,-355.713,754.238,980,2480,261080,-164.297,448.35,500,172,-26,848,500,-51,1905.45
771820,-664.818,-310.76,730.769,260,170,260750,-133.509,358.895,-500,210,39,851,-500,800,1866.68
771826,-666.29,-300.425,725.985,-650,3280,259190,-49.0878,344.525,-500,227,187,852,-500,800,1720.3
771837,-661.694,-288.266,729.2,1780,4270,258770,120.428,205.026,-500,294,215,854,-500,705,1681.96
771848,-651.762,-284.5,736.994,2210,5730,258950,185.611,19.2544,-500,323,216,856,-500,519,1681.95
771859,-637.625,-289.364,744.365,3000,5960,258920,270.441,-98.9501,-500,337,261,858,-500,401,1628.09
771881,-599.442,-313.869,768.348,6840,6090,260290,407.882,-263.839,-500,348,311,861,-500,236,1600
771892,-574.601,-331.088,785.977,10440,6560,261600,459.84,-326.319,-500,347,351,863,-500,202,1600
771897,-562.478,-339.168,796.264,14000,7150,263220,484.923,-323.204,-500,348,311,864,-500,176,1600
771908,-534.495,-359.715,815.15,15770,7580,264750,544.406,-368.828,-500,330,291,866,-500,131,1600
771932,-454.937,-408.988,852.56,11880,6730,266270,760.949,-434.75,-500,322,108,869,-500,65,1661.21
771938,-426.093,-420.959,852.423,-5810,5020,248870,961.444,-399.031,-500,300,-249,870,-500,100,2018.52
771950,-364.036,-441.837,816.65,-20850,3560,238180,1010.39,-347.5,-500,221,-255,872,-500,152,2079.4
771961,-316.546,-461.584,779.754,-23210,2800,239760,845.362,-382.839,-500,110,-161,874,-500,117,2017.94
771972,-264.563,-478.363,761.298,-24120,1620,240500,954.581,-294.788,-500,23,-131,876,-500,205,1993.49
771984,-202.664,-485.225,752.264,-26720,1670,241130,1042.06,-81.0431,-500,-66,-170,878,-500,418,2042.71
771990,-168.723,-484.129,749.434,-27400,1810,241550,1131.4,36.5258,-500,-147,-233,879,-500,536,2100
772002,-84.4847,-470.975,742.557,-25880,2960,241810,1523.81,284.836,-500,-218,-338,881,-500,784,2100
772014,30.1445,-445.211,726.281,-21350,2920,242110,2052.05,491.967,-500,-267,-426,883,-500,800,2100
772020,97.4191,-427.233,713.392,-14150,2350,242250,2242.49,599.254,500,-313,-640,884,500,99,2100
772031,229.889,-391.869,672.773,-10320,3750,241510,2413.56,663.069,500,-361,-860,886,500,163,2100
772043,359.674,-353.729,601.704,-8680,3570,240920,2033.34,602.566,500,-419,-936,888,500,102,2100
772054,441.931,-328.259,526.494,-9490,1750,240650,1312.94,407.499,500,-506,-905,890,500,-92,2100
