timestamp,x,y,z,pitch,roll,yaw,vx,vy,vz,battery,cpu_load,vicon_count,set_position,set_velocity,calc_thrust
0,0,0,0,0,0,0,0,0,0,0,0,0,0,0,0
672734,3.13778,9.79475,74.6099,1090,-750,262670,0.000932843,0.00291193,-500,74,-2,1,-500,400,2098
672745,3.1453,9.7881,74.6298,1070,-750,263100,0.624292,0.0171283,-500,78,-4,3,-500,400,2099
672762,3.3617,10.0017,74.6947,1140,-670,263660,6.75703,6.88128,-500,85,-4,6,-500,400,2099
672768,3.35812,9.98942,74.7064,1180,-700,263940,-0.119228,-0.410559,-500,81,-6,7,-500,400,2100
672779,3.39061,9.96317,74.6732,1190,-670,264150,1.47341,-2.2811,-500,74,-6,9,-500,400,2100
672790,3.16773,9.80333,74.6584,1180,-710,264290,-8.40902,-7.41405,-500,72,-7,11,-500,400,2100
672806,3.37244,9.99271,74.6975,1090,-770,264470,0.0538042,0.23086,-500,71,-6,14,-500,400,2100
672817,3.37332,10.0147,74.7552,1080,-760,264580,0.128675,1.22697,-500,62,-9,16,-500,400,2100
672828,3.34698,9.97177,74.6992,1080,-780,264680,0.376995,-0.386531,-500,69,-2,18,-500,400,2098
672839,3.35834,9.97885,74.6815,1020,-780,264780,0.213768,-1.12346,-500,78,3,20,-500,400,2092
672851,3.11602,9.76373,74.6192,1020,-780,264860,-7.35061,-7.64306,-500,88,8,21,-500,400,2087
672883,3.36923,9.97994,74.7154,980,-750,264570,5.57778,6.95669,-500,114,18,24,-500,400,2077
672889,3.37239,9.97393,74.7086,980,-760,264470,0.105294,-0.20011,-500,116,18,25,-500,400,2077
672900,3.36546,10.0101,74.6885,1000,-710,264370,1.07587,1.01171,-500,120,20,27,-500,400,2075
672923,3.37186,10.0027,74.6822,900,-780,264160,0.259579,0.724474,-500,108,18,30,-500,400,2077
672934,3.13862,9.78374,74.604,890,-760,264060,-8.83261,-8.58787,-500,109,18,32,-500,400,2077
672934,3.13862,9.78374,74.604,800,-760,254120,-8.83261,-8.58787,-500,7,-5,32,-500,400,2099
672950,3.58474,10.0878,74.6968,850,-760,249980,16.7368,12.1281,-500,15,-17,34,-500,400,2100
672961,3.23158,9.94142,74.6085,870,-830,249070,-2.50038,-5.64776,-500,10,-35,36,-500,400,2100
672972,3.46813,10.0185,75.216,880,-860,249150,2.85006,-3.3779,-500,28,-44,38,-500,400,2100
672984,3.5053,10.5657,75.7131,920,-840,249170,10.7595,17.904,-500,11,-71,39,-500,400,2100
672995,3.23525,10.2911,74.6345,990,-890,249300,-7.5047,4.95359,-500,-28,-111,41,-500,400,2100
673005,3.1453,10.0484,74.6195,1000,-920,249390,5.76828,-8.37743,-500,-41,-134,43,-500,400,2100
673011,3.22293,10.2871,74.7094,1010,-880,249530,2.58754,7.95863,-500,-56,-159,44,-500,400,2100
673022,3.09295,10.2395,74.7585,1140,-890,249620,-1.73681,21.2368,-500,-66,-180,46,-500,400,2100
673033,3.1497,10.2046,74.8268,4520,1700,249550,-18.6992,-14.2741,-500,-35,30,48,-500,400,2075
673066,-5.70703,3.31946,244.475,6410,6420,255520,-166.341,-108.229,-500,239,810,52,-500,333,1600
673077,-16.1204,-2.95964,356.203,5570,5480,256740,-267.154,-116.346,-500,317,826,54,-500,375,1600
673083,-24.9634,-7.60967,419.19,4200,4990,257010,-294.765,-155.001,-500,430,766,55,-500,205,1600
673094,-38.8348,-16.4003,530.902,2780,4420,256580,-245.424,-146.871,-500,546,760,57,-500,254,1600
673105,-51.3586,-26.5518,640.417,2610,3850,256440,-213.464,-203.375,-500,651,696,59,-500,286,1600
673116,-61.2745,-38.3963,744.424,2940,3290,256000,-182.66,-200.126,-500,748,594,60,-500,317,1600
673128,-76.0228,-51.0804,845.905,2070,2640,254900,-264.82,-228.458,-500,851,488,62,-500,273,1600
673134,-85.3831,-57.8013,890.012,380,2860,252960,-312.012,-224.03,-500,933,305,63,-500,187,1600
673145,-101.69,-71.7333,956.911,-1990,3720,250050,-285.03,-254.255,-500,919,78,65,-500,214,1627.99
673178,-129.65,-146.345,1048.86,150,7060,240780,-61.4404,-631.619,-500,767,-228,69,-500,400,1875.86
673184,-129.715,-168.224,1060.2,1380,7750,238700,-2.16817,-729.295,-500,719,-248,70,-500,400,1887.96
673196,-127.873,-224.292,1084.06,2380,7870,237180,41.0653,-994.551,-500,675,-249,72,-500,400,1877.29
673207,-125.572,-291.68,1108.89,2500,7580,236250,41.7285,-1280.7,-500,664,-246,74,-500,400,1875.44
673229,-122.123,-471.62,1164.98,2410,7570,236460,17.8238,-1839.82,-500,661,-237,77,-500,400,1866.62
673240,-119.725,-582.46,1194.53,2330,7560,237060,37.8009,-2097.04,-500,678,-233,79,-500,400,1862.69
673251,-117.421,-707.399,1222.93,2620,7420,237570,60.9942,-2322.68,-500,706,-239,81,-500,400,1866.75
673261,-113.875,-829.586,1245.45,3890,6520,238770,73.3987,-2491.83,-500,739,-380,83,-500,400,1997.09
673267,-107.371,-900.881,1250.12,7630,6370,242280,216.799,-2376.49,-500,777,-656,84,-500,400,2100
673279,-80.7955,-1014.18,1224.97,12450,7390,247270,550.04,-1612.57,-500,750,-976,86,-500,400,2100
673290,-46.4993,-1068.95,1163.37,13710,10350,248920,615.412,-892.801,-500,629,-914,87,-500,400,2100
673296,-36.3341,-1096.52,1132.89,11310,10370,248110,338.841,-919.252,-500,565,-880,88,-500,400,2100
673308,-36.68,-1150.02,1078.03,8470,11700,247120,-87.9191,-822.492,-500,503,-894,90,-500,400,2100
673318,-45.9397,-1179.73,1029.29,4930,12320,246180,-217.674,-562.778,-500,461,-825,92,-500,282,2100
673329,-59.5483,-1207.26,980.399,3100,10740,246140,-244.915,-488.238,-500,426,-742,94,-500,255,2100
673352,-63.6972,-1248.47,906.285,5030,11250,246990,108.229,-289.245,-500,383,-522,97,-500,400,2100
673363,-54.6337,-1261.12,886.763,6790,11660,247450,206.707,-208.495,-500,339,-439,99,-500,400,2100
673369,-48.3686,-1266.48,880.447,8110,12060,247620,208.836,-178.486,-500,331,-350,100,-500,400,2100
673379,-38.8617,-1272.99,874.812,8310,12510,247540,197.098,-111.611,-500,308,-276,102,-500,400,2100
673390,-31.1217,-1274.27,876.731,8380,12880,247420,118.143,0.17441,-500,323,-209,104,-500,400,2026.62
673413,-27.2674,-1262.21,897.702,6920,12170,246850,-8.02395,123.238,-500,355,-179,107,-500,400,1975.84
673419,-29.0386,-1258.44,902.771,5880,11830,246690,-59.0404,125.804,-500,359,-186,108,-500,400,1978.78
673430,-32.7337,-1251.71,911.454,5070,11750,246740,-81.118,104.539,-500,373,-181,110,-500,400,1966.84
673441,-36.4736,-1245.57,917.373,4490,11600,246970,-47.4954,102.795,-500,397,-182,112,-500,400,1962.1
673464,-37.9667,-1238.78,923.628,5050,11250,247620,37.1846,11.2706,-500,404,-204,115,-500,400,1980.1
673470,-37.5013,-1238.32,923.276,5720,11220,247850,15.5145,15.4709,-500,420,-207,116,-500,400,1982.38
673482,-35.2949,-1240.74,918.542,5800,11220,247840,65.6096,-38.4211,-500,451,-212,118,-500,400,1991.17
673493,-34.2158,-1245.3,912.346,6350,11190,247740,29.8128,-85.7141,-500,460,-216,119,-500,400,2000.12
673504,-33.8831,-1251.2,902.383,6170,11230,247530,5.9659,-112.404,-500,454,-221,121,-500,400,2014.09
673515,-36.1475,-1257.37,889.871,5820,11450,247340,-47.607,-118.481,-500,443,-220,123,-500,400,2023.1
673521,-36.662,-1260.59,881.825,5390,11670,247230,-17.1507,-107.188,-500,439,-200,124,-500,400,2010.54
673532,-38.0654,-1267.26,870.076,5630,11870,247420,-25.9505,-120.871,-500,436,-182,126,-500,400,2000.94
673544,-37.8688,-1274.36,856.91,5970,11820,247710,6.5545,-125.379,-500,423,-162,128,-500,400,1993.47
673576,-34.434,-1291.96,823.641,6220,11810,248370,19.3752,-96.5731,-500,449,-115,132,-500,400,1972.09
673587,-33.7255,-1297.99,811.395,5990,7250,248440,0.70329,-98.8687,500,470,-61,134,500,-400,1928
673593,-34.549,-1300.53,805.651,5150,760,248290,-27.4496,-84.6048,500,471,-64,135,500,-400,1934.48
673604,-35.8996,-1299.04,795.188,4500,-1130,247890,-50.9485,87.2561,500,495,-41,137,500,-400,1919.85
673615,-42.4815,-1283.7,785.109,3330,-2050,247070,-143.603,335.095,500,500,-9,139,500,-400,1897.91
673626,-53.8042,-1256.02,778.85,1660,-2620,245900,-227.731,543.28,500,525,30,141,500,-400,1863.9
673637,-69.303,-1220.36,776.121,-20,-3110,244620,-287.427,681.951,500,541,31,143,500,-400,1863.01
673643,-79.05,-1198.38,774.091,-1190,-3240,243410,-324.901,732.473,500,543,33,144,500,-400,1862.58
673654,-95.3666,-1151.67,772.013,-1620,-3330,242300,-287.148,871.993,500,551,41,146,500,-400,1856.17
673678,-121.487,-1025.36,770.112,-450,-3770,240640,-170.431,1150.62,500,588,42,149,500,-400,1857.49
673689,-129.992,-956.321,768.401,130,-3790,239850,-157.946,1279.87,500,615,56,151,500,-400,1841.94
673695,-135.445,-916.228,767.168,300,-3760,239160,-181.76,1336.44,500,629,41,152,500,-400,1858.58
673707,-144.271,-829.756,764.426,760,-3730,238660,-162.904,1466.72,500,651,47,154,500,-400,1855.68
673729,-165.568,-654.637,755.321,170,-3600,238180,-205.213,1673.89,500,683,32,157,500,-400,1877.88
673740,-177.034,-558.649,749.851,-210,-3570,238160,-213.86,1761.91,500,720,42,159,500,-400,1871.01
673746,-183.909,-504.196,746.033,-450,-3650,238330,-229.141,1815.1,500,737,37,160,500,-400,1880.34
673758,-196.76,-389.963,737.962,-470,-3590,238470,-221.702,1925.75,500,755,53,162,500,-400,1870.8
673769,-207.124,-278.693,731.752,-520,-3610,238470,-177.944,2048.44,500,769,59,164,500,-400,1869.75
673781,-217.412,-150.238,724.394,-430,-3640,238390,-160.561,2180.77,-500,773,57,166,-500,317,1873.73
673787,-221.648,-83.4422,720.388,-270,2980,238370,-141.198,2226.54,-500,756,42,167,-500,358,1896.91
673798,-228.288,42.1718,714.005,290,7060,238390,-103.146,2287.38,-500,774,87,169,-500,396,1862.05
673808,-229.062,150.63,711.133,1250,8110,238290,21.8778,2115.5,-500,781,113,171,-500,400,1832.17
673831,-208.96,352.985,711.391,3780,8290,237640,245.796,1519.58,-500,757,86,174,-500,400,1857.6
673837,-200.448,393.981,711.747,5140,7960,237360,283.738,1366.53,-500,743,87,175,-500,400,1858.26
673849,-183.036,459.879,712.488,5770,7640,237100,292.229,1014.72,-500,733,85,177,-500,400,1859.6
673872,-153.277,528.469,717.545,5410,6750,236300,227.592,347.474,-500,703,68,180,-500,400,1870.42
673882,-144.652,535.469,718.985,4430,6570,236020,165.989,76.6895,-500,700,58,182,-500,400,1878.26
673888,-140.065,533.565,719.296,3530,6640,236010,152.91,-63.4639,-500,686,63,183,-500,400,1878.06
673900,-131.801,516.103,720.155,3230,6930,236350,136.903,-364.568,-500,688,80,185,-500,400,1858.34
673910,-124.81,487.872,722.276,3250,6830,236920,154.867,-649.166,-500,673,76,187,-500,400,1859.56
673922,-117.465,435.887,724.497,3480,6670,237650,124.616,-944.279,-500,655,64,189,-500,400,1868.72
673928,-114.23,402.953,725.291,3260,6570,238630,107.817,-1097.8,-500,643,47,190,-500,400,1886.13
673940,-110.076,322.746,724.395,2670,6580,239750,70.296,-1421.39,-500,628,46,192,-500,400,1887.91
673951,-108.012,233.042,722.541,2330,6680,240670,33.2656,-1704.62,-500,652,65,194,-500,400,1870.42
673962,-107.973,127.289,720.804,2050,6660,241120,-14.8068,-1998.52,-500,669,67,196,-500,400,1868.78
673984,-114.404,-128.06,713.075,1560,7080,240260,-70.4322,-2518.73,500,698,78,199,500,-400,1862.9
673995,-120.181,-277.497,707.619,1270,-760,239500,-114.381,-2769.31,500,701,92,201,500,-400,1854.96
674001,-124.047,-363.514,705.032,720,-4340,238780,-128.884,-2867.25,500,720,101,202,500,-400,1849.17
674025,-157.784,-695.976,697.045,-1510,-4460,237630,-364.885,-2644.42,500,787,113,205,500,-400,1842.27
674031,-169.962,-772.884,694.947,-3070,-3970,237000,-405.906,-2563.58,500,815,112,206,500,-400,1844.81
674042,-193.187,-905.984,690.263,-3970,-3680,236310,-409.039,-2384.96,500,848,114,208,500,-400,1846.43
674052,-212.726,-1017.77,685.912,-3690,-3870,235700,-355.628,-2193.08,500,858,99,210,500,-400,1863.82
674063,-231.496,-1130.09,680.114,-2370,-4140,235640,-330.716,-1983.63,500,847,62,212,500,-400,1904.53
674074,-244.227,-1225.58,671.327,3320,-4290,243180,-194.497,-1622.46,500,779,-62,214,500,-400,2040.82
674093,-230.412,-1282.3,636.12,7680,-3230,246600,265.999,-189.455,500,718,-2,216,500,-234,2016.79
674117,-222.996,-1240.53,623.212,6130,-1170,247140,-179.99,431.832,500,625,122,219,500,-400,1894.43
674123,-232.837,-1227.18,627.302,1080,-2870,245560,-328.036,444.929,500,600,126,220,500,-400,1887.16
674135,-260.21,-1198.22,636.035,-2910,-3850,243590,-499.944,494.152,500,607,135,222,500,-400,1872.17
674157,-312.735,-1119.8,658.344,-3760,-3520,239670,-368.22,885.143,500,619,150,225,500,-400,1838.12
674169,-333.039,-1056.27,671.5,-3230,-3640,238420,-296.443,1115.77,500,636,130,227,500,-400,1851.69
674175,-341.322,-1019.23,676.421,-2270,-3740,237790,-276.108,1234.53,500,653,104,228,500,-400,1868.44
674186,-353.713,-943.602,681.911,-1130,-2990,237600,-225.515,1412.23,-500,685,104,230,-500,274,1865.02
674209,-370.522,-757.998,691.381,120,6110,238170,-97.6043,1631.18,-500,701,125,232,-500,325,1842.6
674219,-370.837,-681.581,695.831,920,7380,238450,18.301,1490.87,-500,727,129,234,-500,400,1828.5
674225,-367.323,-640.761,698.429,2480,8190,238650,117.134,1360.69,-500,750,129,235,-500,400,1826.19
674236,-355.97,-576.914,702.129,4340,8440,238540,244.683,1100.39,-500,762,117,237,-500,400,1834
674247,-340.512,-530.169,703.298,5950,8260,238300,285.598,774.009,-500,763,99,239,-500,400,1851.93
674270,-309.432,-495.965,700.59,6240,7450,237860,241.645,-0.950523,-500,740,102,242,-500,400,1849.7
674276,-304.343,-500.944,700.31,5330,7230,237810,169.633,-165.967,-500,730,103,243,-500,400,1849.01
674287,-296.854,-525.286,700.13,4230,7400,238050,121.99,-523.72,-500,719,90,245,-500,400,1861.07
674298,-292.194,-567.3,697.93,3340,7560,238380,79.3858,-834.169,-500,713,89,247,-500,400,1866.8
674321,-285.751,-709.365,693.924,2470,7440,238790,62.7296,-1478.64,-500,664,101,249,-500,400,1856.87
674331,-283.016,-793.87,693.425,2440,7170,239460,35.8601,-1730.34,-500,644,131,251,-500,400,1827.17
674337,-277.425,-842.83,695.325,2840,7780,242730,186.376,-1631.98,-500,654,275,252,-500,400,1681.03
674348,-257.36,-908.752,711.955,5490,7940,245730,427.059,-1065.75,-500,668,334,254,-500,400,1607.5
674360,-225.718,-959.189,740.422,8050,7910,247240,539.042,-818.558,-500,679,292,256,-500,400,1621.43
674371,-197.882,-1007.22,761.741,8540,7580,247300,498.069,-868.613,-500,689,212,258,-500,400,1684.32
674377,-185.592,-1036.33,769.083,8800,8150,247800,409.637,-970.332,-500,696,194,259,-500,400,1698.59
674388,-165.089,-1089.1,780.538,8440,7530,249170,356.473,-936.758,500,717,223,261,500,-143,1661.48
674399,-150.229,-1140.39,792.657,9010,3360,250220,252.539,-933.194,500,734,163,263,500,-247,1702.81
674409,-139.952,-1182.65,798.177,8570,40,250060,202.028,-801.309,500,749,110,265,500,-297,1749.72
674433,-127.826,-1227,787.197,6060,-5090,247160,75.4451,36.6178,500,763,68,268,500,-400,1806.78
674443,-130.717,-1213.14,780.245,4150,-4580,244740,-60.9193,345.58,500,760,80,270,500,-400,1800.03
674449,-136.265,-1199.16,776.085,2090,-3390,241970,-184.937,465.876,500,769,67,271,500,-400,1815.07
674460,-149.707,-1163.27,767.591,-670,-3100,239810,-259.844,702.532,500,782,85,273,500,-400,1805.63
674471,-165.986,-1117.97,758.699,-2460,-3310,238550,-297.196,875.209,500,792,105,275,500,-400,1793.43
674494,-188.377,-983.254,741.219,-1880,-4320,237970,-137.111,1353.8,500,851,121,278,500,-400,1791.69
674504,-191.706,-907.071,731.489,-330,-4450,237470,-33.5666,1584.97,500,866,112,280,500,-400,1805.13
674510,-193.059,-855.789,724.542,1420,-4020,237050,-45.0809,1709.4,500,876,96,281,500,-400,1825.45
674521,-196.688,-754.215,709.026,1950,-3740,236880,-89.137,1878.21,500,870,85,283,500,-400,1849.77
674532,-204.055,-644.848,692.014,1130,-3460,236900,-160.712,2010.06,500,859,100,285,500,-400,1848.34
674544,-219.053,-519.467,674.795,0,-3350,236960,-279.946,2103.59,500,848,106,287,500,-400,1857.06
674555,-236.939,-398.449,660.939,-1610,-3420,236960,-335.857,2217.32,500,850,112,289,500,-400,1861.13
674561,-247.489,-330.12,653.454,-2570,-3580,236960,-351.651,2277.62,500,870,129,290,500,-400,1850.09
674573,-268.305,-185.964,639.522,-2480,-3730,237010,-330.442,2445.23,500,876,117,292,500,-400,1871.22
674596,-301.902,121.102,608.796,-1090,-80,237260,-270.375,2787.41,-500,887,114,295,-500,229,1901.08
674607,-315.973,278.479,595.663,-690,4430,237350,-239.209,2872.07,-500,905,138,297,-500,230,1886.11
674613,-322.438,363.559,589.813,-570,5750,237500,-215.476,2836,-500,926,161,298,-500,284,1870.51
674637,-326.867,676.154,573.342,1620,7780,238370,102.76,2402.43,-500,878,160,301,-500,400,1883.81
674648,-317.963,799.472,571.311,4030,8370,238700,184.216,2187.63,-500,844,161,303,-500,400,1884.22
674653,-313.186,849.621,572.369,6060,8280,238770,191.101,2005.97,-500,799,126,304,-500,400,1917.89
674665,-300.545,953.67,573.36,6920,8070,238500,203.228,1627.7,-500,756,110,306,-500,400,1934.44
674675,-292.991,1019.05,577.077,6850,7120,238090,130.421,1199.47,-500,717,94,308,-500,400,1945.83
674686,-283.067,1059.04,581.911,6250,5920,237400,223.025,512.807,-500,703,61,310,-500,400,1978.49
674696,-268.282,1057.18,585.404,6650,6060,237170,294.97,-173.817,-500,658,89,312,-500,400,1948.18
674708,-254.349,1028.61,596.802,6860,6770,237360,206.025,-577.562,-500,616,99,313,-500,400,1929.44
674719,-246.559,981.596,610.609,5750,7050,237680,105.699,-951.805,-500,597,101,315,-500,400,1919.76
674725,-245.64,947.917,620.301,3980,7040,238080,30.6618,-1122.63,-500,602,106,316,-500,400,1904.2
674749,-250.031,761.709,656.601,1380,7290,239660,-45.5345,-1789.02,-500,604,91,319,-500,400,1889.44
674755,-251.547,703.719,665.533,1550,7190,240350,-50.535,-1932.98,-500,606,87,320,-500,400,1886.4
674766,-252.516,586.997,681.13,1690,7230,240610,9.40888,-2181.66,-500,629,86,322,-500,400,1874.99
674777,-252.646,456.936,696.015,2420,7190,240400,0.867046,-2416.66,-500,650,86,324,-500,400,1863.08
674788,-253.156,312.841,709.728,2500,7240,239740,-14.8098,-2673.38,-500,676,77,326,-500,400,1859.07
674799,-254.616,154.611,721.055,2300,2440,239080,-29.2189,-2929.02,500,707,83,328,500,-400,1846.98
674810,-257.652,-14.3316,730.361,1980,-3180,238680,-72.2207,-3108.34,500,763,91,330,500,-400,1830.4
674821,-265.503,-185.063,738.61,1080,-4960,238440,-179.965,-3080.14,500,816,84,332,500,-400,1834.12
674826,-272.15,-260.017,741.803,-250,-5020,238370,-265.858,-2998.16,500,862,81,333,500,-400,1830.87
674838,-293.05,-431.657,748.856,-2020,-4810,238530,-396.169,-2803.92,500,902,71,335,500,-400,1835.06
674849,-317.033,-576.283,752.709,-3380,-4190,238690,-445.349,-2574.44,500,927,61,337,500,-400,1840.84
674871,-363.486,-825.514,756.183,-3560,-3320,238490,-385.812,-2070.53,500,940,39,340,500,-400,1860.99
674877,-373.87,-883.821,757.07,-2980,-2990,238110,-346.128,-1943.57,500,920,25,341,500,-400,1873.29
674893,-395.846,-1020.85,759.164,-1890,-2850,237920,-225.327,-1583.8,500,900,17,344,500,-400,1879.35
674899,-401.301,-1064.17,759.464,980,-2720,239900,-181.841,-1444.01,500,879,-61,345,500,-400,1950.68
674910,-398.361,-1117.81,752.902,4770,-2220,243420,150.274,-786.963,500,858,-78,347,500,-349,1982.5
674922,-381.885,-1143.62,739.772,9640,-250,246520,271.244,-314.776,500,851,-36,349,500,-228,1951.51
674934,-370.031,-1147.92,729.506,10940,1510,248760,167.472,1.60247,500,816,-32,351,500,-332,1955.22
674939,-368.828,-1146.55,725.915,8220,670,249420,48.1416,54.5045,500,788,6,352,500,-400,1920.43
674950,-376.692,-1141.45,720.884,4940,-1150,249620,-212.276,112.002,500,767,-4,354,500,-400,1935.77
674961,-392.997,-1127.08,715.737,1940,-1780,249180,-325.269,310.243,500,759,21,356,500,-400,1916.18
674984,-437.642,-1062.64,711.618,-1810,-2460,246750,-381.672,710.86,500,780,65,359,500,-400,1874.71
674995,-455.929,-1015.09,711.351,-2170,-2940,245110,-313.056,912.53,-500,807,81,361,-500,144,1859.07
675000,-463.78,-990.065,710.989,-1910,1260,243570,-314.037,1000.8,-500,825,77,362,-500,185,1862.15
675012,-477.632,-920.559,709.358,-970,4790,242430,-221.491,1214.49,-500,818,76,364,-500,278,1864.43
675023,-483.28,-853.418,707.815,390,6360,241700,-66.9198,1212.82,-500,821,72,366,-500,400,1869.66
675045,-477.214,-739.11,703.606,3770,7870,241180,123.218,914.486,-500,847,73,369,-500,400,1872.04
675056,-469.255,-699.884,701.658,5010,7930,241110,150.943,653.615,-500,852,77,371,-500,400,1867.7
675061,-465.613,-686.728,700.995,5260,8020,240990,145.67,526.237,-500,845,74,372,-500,400,1874.16
675073,-458.295,-669.56,700.312,4880,8020,240790,106.982,217.938,-500,856,87,374,-500,400,1860.68
675084,-454.528,-671.541,701.097,4050,7870,240620,59.4432,-110.255,-500,859,95,376,-500,400,1853
675106,-451.629,-723.725,705.469,2850,7600,240400,21.2881,-680.354,-500,832,90,379,-500,400,1853.4
675112,-451.221,-748.864,707.338,2420,7240,240260,13.5831,-837.96,-500,834,90,380,-500,400,1852.84
675124,-449.857,-812.072,711.09,2360,7170,240080,28.127,-1122.97,-500,845,85,382,-500,400,1853.75
675135,-446.819,-884,714.229,2520,7110,239550,57.207,-1363.29,-500,850,115,384,-500,400,1821.14
675157,-411.596,-985.09,746.513,4970,8850,243520,477.227,-433.39,-500,903,369,387,-500,400,1600
675163,-395.853,-988.567,763.613,9510,10260,246120,524.745,-115.897,-500,927,370,388,-500,400,1600
675175,-358.236,-979.373,797.227,11100,10890,246380,631.973,159.838,-500,950,296,390,-500,400,1600
675186,-327.026,-973.034,820.006,10610,10410,245850,548.838,130.531,-500,965,248,392,-500,400,1600
675207,-284.89,-972.514,844.102,8800,4030,244920,298.031,-94.7197,500,955,138,395,500,-201,1678.18
675218,-275.462,-981.084,847.02,7530,400,244470,129.613,-155.346,500,950,72,397,500,-370,1744.17
675229,-277.158,-989.264,842.889,5360,-2290,243060,-88.3684,-147.493,500,940,32,399,500,-400,1785.18
675235,-282.256,-992.598,839.101,2440,-3630,241070,-169.923,-111.145,500,913,12,400,500,-400,1813.78
675246,-299.095,-992.139,832.134,-430,-3640,239020,-328.931,46.0106,500,909,30,402,500,-400,1801.11
675258,-323.792,-978.934,825.573,-2130,-2920,237760,-400.322,291.505,500,895,5,404,500,-400,1831.15
675280,-370.081,-921.381,809.918,-3040,-3450,237760,-420.179,615.71,500,877,-27,407,500,-400,1867.9
675285,-380.26,-902.518,805.77,-3190,-3630,238360,-407.146,754.531,500,861,-23,408,500,-400,1875.07
675297,-403.245,-849.229,795.317,-3100,-3690,238990,-385.902,963.154,500,838,-6,410,500,-400,1867.51
675309,-424.028,-781.944,788,-2800,-3850,239560,-327.78,1177.99,500,822,6,412,500,-400,1860.4
675320,-443.015,-708.489,783.559,-2180,-3980,240050,-341.81,1374.96,500,831,15,413,500,-400,1855.94
675331,-461.68,-624.596,779.535,-1930,-3740,240420,-332.358,1559.86,500,851,28,415,500,-400,1844.49
675341,-480.001,-539.805,775.073,-2250,-3690,240580,-366.85,1734.27,500,870,33,417,500,-400,1843.62
675347,-491.406,-485.169,772.191,-2870,-3810,240610,-380.165,1821.2,500,898,30,418,500,-400,1847.87
675358,-511.536,-377.557,765.896,-2910,-3830,240380,-362.555,2002.62,500,904,7,420,500,-400,1876.95
675369,-531.19,-259.394,756.657,-2560,-3730,240110,-350.52,2188.38,500,936,20,422,500,-400,1872.45
675392,-568.528,20.1125,733.301,-1430,-4000,240260,-320.762,2555.47,500,970,14,425,500,-400,1896.33
675403,-587.827,167.549,719.739,-1220,-3600,240550,-357.111,2721.78,-500,988,12,427,-500,156,1903.27
675409,-599.472,251.208,711.943,-1470,1550,240780,-388.169,2788.63,-500,994,14,428,-500,111,1914.92
675420,-620.698,407.49,697.882,-1950,3270,240920,-387.674,2849.17,-500,1026,33,430,-500,112,1908.45
675432,-638.836,575.01,682.478,-1910,3650,241110,-281.367,2765.68,-500,1084,53,432,-500,218,1899.98
675443,-645.705,719.83,667.22,470,3060,242490,-52.7948,2570.79,-500,1115,8,434,-500,400,1956.52
675449,-636.668,787.983,655.978,6590,2430,245960,301.231,2271.77,-500,1101,-84,435,-500,400,2059.32
675461,-580.442,881.745,625.358,13050,3630,249140,1154.94,1276.98,-500,1066,-28,437,-500,400,2032.79
675472,-511.628,922.099,604.27,12820,4980,249820,1208.51,611.354,-500,1010,59,439,-500,400,1958.28
675504,-414.218,901.143,600.446,10760,6020,245620,194.13,-537.985,-500,859,94,443,-500,400,1928.49
675514,-415.451,862.956,605.623,7260,6490,243890,-91.5406,-831.542,-500,844,86,445,-500,400,1930.68
675520,-422.144,833.015,609.018,2120,6610,242620,-223.074,-998.033,-500,828,88,446,-500,276,1929.31
675532,-441.442,760.877,617.913,-850,5260,242130,-333.471,-1275.8,-500,811,100,448,-500,166,1908.46
675543,-457.912,683.421,627.668,-1820,4510,242150,-280.139,-1433.3,-500,791,98,450,-500,219,1902.89
675565,-471.334,515.356,651.551,590,5980,241810,-42.3657,-1596.01,-500,787,93,453,-500,400,1889.1
675571,-470.627,466.5,658.306,2020,7030,241010,23.548,-1628.54,-500,787,87,454,-500,400,1889.82
675583,-466.314,360.398,670.915,2840,7270,239790,106.365,-1814.8,-500,785,87,456,-500,400,1879.83
675593,-459.948,260.993,682.019,3570,7360,238540,131.113,-2040.29,-500,782,84,458,-500,400,1874
675604,-452.27,138.775,694.485,3890,6180,237560,141.61,-2280.3,500,785,104,460,500,-358,1849.03
675615,-444.634,2.5303,708.248,3970,-1280,236940,130.968,-2532.46,500,808,109,462,500,-369,1824.83
675627,-441.467,-154.636,722.43,3560,-4310,236520,11.382,-2627.79,500,841,87,464,500,-400,1842.72
675633,-444.279,-232.419,728.211,2210,-4930,236540,-93.7456,-2592.8,500,888,88,465,500,-400,1832.6
675657,-484.584,-516.869,746.96,-1860,-4290,236980,-449.381,-2201.18,500,940,68,468,500,-400,1837.28
675663,-498.835,-579.287,750.085,-4320,-4580,237800,-475.046,-2080.59,500,954,64,469,500,-400,1839.67
675674,-523.897,-678.945,754.437,-3360,-4500,240030,-416.368,-1617.76,500,951,35,471,500,-400,1862.12
675685,-530.099,-717.85,755.393,-330,-3390,240700,-61.539,-567.862,500,950,29,473,500,-400,1869.39
675697,-534.028,-742.809,754.792,1820,-3160,240490,-55.5728,-367.503,500,946,12,475,500,-400,1885.93
675708,-540.976,-757.529,752.672,1610,-3510,239830,-152.491,-237.556,500,934,5,477,500,-400,1896.78
675714,-546.851,-762.68,750.954,610,-3590,239300,-195.809,-171.717,500,928,47,478,500,-400,1857.23
675726,-562.456,-759.276,751.685,80,-2700,238910,-263.693,147.47,500,918,61,480,500,-400,1839.54
675738,-581.063,-739.012,754.012,-1010,-3160,238570,-317.211,380.207,500,912,47,482,500,-400,1850.59
675749,-599.449,-711.34,754.135,-2160,-3940,238350,-337.834,547.946,500,896,27,484,500,-400,1872.5
675754,-607.936,-695.057,753.678,-2730,-4410,238080,-339.473,651.303,500,885,19,485,500,-400,1880.95
675765,-625.506,-649.189,751.904,-2670,-4370,237730,-291.902,912.433,500,885,27,487,500,-400,1874.45
675777,-642.277,-583.513,748.806,-2040,-4280,237360,-269.626,1169.97,500,890,33,489,500,-400,1870.98
675800,-670.818,-411.263,743.838,-1110,-3900,237110,-246.53,1680.56,500,921,62,492,500,-400,1845.93
675811,-685.133,-309.275,741.603,-1340,-1280,237030,-265.427,1903.34,-500,943,57,494,-500,245,1850.58
675821,-697.797,-208.158,738.845,-1290,4020,237120,-242.1,2047.94,-500,966,65,496,-500,235,1844.42
675827,-703.759,-145.74,737.245,-890,5520,237520,-198.726,2080.6,-500,993,58,497,-500,301,1852.98
675850,-705.162,82.669,723.302,2080,7190,238690,101.944,1897.25,-500,1014,39,500,-500,400,1885.22
675862,-694.103,188.44,715.168,4160,7490,239430,213.631,1708.11,-500,995,42,502,-500,400,1888.84
675872,-681.962,264.512,710.646,5720,7450,240160,243.903,1468.27,-500,1003,51,504,-500,400,1881.85
675878,-675.306,304.437,708.645,5740,7200,240650,221.871,1330.82,-500,999,43,505,-500,400,1893.29
675888,-665.045,359.735,705.051,5500,7160,240910,186.856,1040.38,-500,979,54,507,-500,400,1887.32
675900,-656.27,409.523,703.375,4740,7230,240940,133.284,747.984,-500,962,70,509,-500,400,1869.72
675910,-651.216,435.513,705.191,3740,7090,240910,84.1433,443.455,-500,951,72,511,-500,400,1866.29
675922,-645.781,449.911,709.373,3020,6680,240780,94.0826,157.099,-500,936,63,513,-500,400,1869.96
675933,-640.146,447.523,713.445,2690,5930,240520,130.663,-88.3627,-500,931,68,515,-500,400,1868.36
675939,-637.024,440.387,715.986,3150,5670,240140,104.06,-237.888,-500,939,80,516,-500,400,1850.69
675949,-630.833,420.165,720.903,3540,5880,239660,129.229,-454.415,-500,957,91,518,-500,400,1835.63
675960,-624.495,384.613,726.586,3430,6040,239230,110.982,-703.307,-500,969,99,520,-500,400,1822.9
675971,-619.04,335.851,732.361,3300,6330,239090,99.9517,-940.4,-500,979,85,522,-500,400,1831.09
675981,-615.151,278.75,736.007,2880,6570,239060,77.4123,-1206.62,-500,980,63,524,-500,400,1851.07
675991,-612.576,209.3,737.026,2220,6890,239170,47.8578,-1451.99,-500,985,49,526,-500,400,1864.23
676013,-607.011,12.5082,732.989,2650,3250,239500,65.3313,-1996.49,500,1027,58,529,500,-400,1861.46
676025,-604.093,-119.64,726.911,3220,-3700,239350,31.6034,-2251.99,500,1033,48,531,500,-400,1868.77
676031,-605.529,-188.663,723.682,2670,-5820,239140,-47.8813,-2300.78,500,1072,51,532,500,-400,1873.96
676054,-644.016,-438.978,709.87,-2090,-5060,239550,-494.829,-2044.4,500,1113,85,535,500,-400,1851.03
676065,-674.386,-542.577,705.919,-3510,-4000,244840,-551.313,-1788.08,500,1113,91,537,500,-400,1851.1
676071,-681.426,-579.04,704.027,-3800,-4330,251780,-234.666,-1215.43,500,1083,181,538,500,-400,1764.33
676082,-682.894,-623.23,709.568,540,-5170,258560,15.0206,-702.373,500,1055,289,540,500,-400,1645.03
676093,-675.054,-641.527,731.363,6370,-3280,263890,153.468,-235.975,500,1040,338,542,500,-346,1600
676104,-668.926,-644.296,762.091,10060,3010,267280,95.5857,-0.884062,500,1054,373,544,500,-400,1600
676115,-667.779,-636.099,799.71,11160,7510,269650,11.3639,165.731,500,1068,377,546,500,-400,1600
676125,-675.468,-630.885,834.949,7810,7530,272020,-213.131,91.5217,500,1086,425,547,500,-400,1600
676137,-697.016,-634.088,881.168,6430,6930,276050,-365.244,-83.661,500,1111,390,549,500,-400,1600
676142,-703.498,-637.164,899.239,4690,3060,278530,-259.274,-123.045,500,1131,338,550,500,-400,1600
676153,-709.007,-644.428,934.796,4160,-4670,279620,-49.9587,-132.699,500,1178,262,552,500,-400,1600
676164,-707.038,-646.903,960.392,6420,-8390,279290,64.1036,-25.5625,500,1226,178,554,500,-400,1600
676176,-694.134,-627.525,976.467,8110,-6800,276450,222.381,422.011,500,1234,16,556,500,-277,1681.36
676188,-685.346,-587.828,971.831,8280,-3940,272410,97.1771,733.376,500,1244,-80,558,500,-304,1783.91
676194,-686.114,-562.881,963.857,5860,-3570,267950,-25.6198,831.555,500,1264,-103,559,500,-400,1815.75
676205,-698.453,-512.963,944.942,1560,-4150,264120,-279.895,937.535,500,1273,-124,561,500,-400,1853.86
676216,-720.697,-458.449,921.222,-2010,-850,260900,-421.872,1012.87,-500,1266,-119,563,-500,78,1867.92
676227,-743.146,-399.751,897.902,-3330,2160,258330,-397.247,1082.11,-500,1268,-91,565,-500,102,1858.66
676238,-759.254,-342.595,875.867,-2900,3310,256460,-233.617,1013.8,-500,1254,-80,567,-500,266,1865.36
676244,-764.42,-314.143,864.522,-1150,4750,255340,-172.187,948.408,-500,1217,-83,568,-500,327,1876.56
676255,-766.331,-268.787,844.328,1180,6270,254830,5.34893,772.928,-500,1186,-73,570,-500,400,1882.93
676266,-760.934,-236.024,825.735,2930,7000,254580,127.323,526.571,-500,1174,-45,572,-500,400,1869.98
676277,-752.269,-220.212,809.882,3890,7260,254520,172.625,208.11,-500,1158,-19,574,-500,400,1857.75
676289,-743.074,-224.626,795.802,3800,7250,254660,137.301,-178.243,-500,1132,-16,576,-500,400,1865.08
676295,-739.916,-236.015,789.315,3360,7230,254920,105.26,-379.618,-500,1110,0,577,-500,400,1855.35
676307,-735.887,-277.028,778.105,2820,7140,255440,50.2275,-788.77,-500,1091,8,579,-500,400,1855.37
676318,-734.868,-336.068,769.945,2190,7020,255970,14.3755,-1179.07,-500,1077,5,581,-500,400,1863.97
676329,-736.13,-414.684,761.3,1990,7050,256610,-29.9561,-1530.07,-500,1064,-4,582,-500,400,1881.02
676341,-738.837,-521.095,750.675,1830,7000,257250,-47.6538,-1873.28,-500,1058,-13,584,-500,400,1894.09
676347,-740.673,-582.672,744.206,1670,6720,257940,-61.1743,-2052.57,-500,1068,-7,585,-500,400,1898.17
676360,-741.648,-728.78,729.911,2880,9720,267560,17.1544,-2283.92,-500,1099,84,587,-500,400,1818.82
676366,-725.482,-780.238,726.676,5660,10660,275500,538.862,-1715.25,-500,1102,264,588,-500,400,1640.62
676378,-674.552,-844.961,743.793,10320,12460,282930,858.354,-1039.94,-500,1088,340,590,-500,400,1600
676390,-633.055,-899.103,775.804,11100,14230,288310,644.64,-838.009,-500,1065,176,592,-500,400,1682.59
676409,-585.932,-946.335,817.551,11020,10250,288250,427.649,-369.024,500,1051,105,594,500,-72,1719.46
676420,-570.445,-954.51,830.657,10300,6410,288190,236.39,-97.1454,500,1048,120,596,500,-263,1699.34
676432,-555.771,-950.154,846.726,10060,3530,288390,256.773,120.636,500,1065,89,597,500,-243,1711.79
676443,-547.555,-939.771,858.578,10480,2430,288360,133.029,236.056,500,1087,86,599,500,-336,1706.86
676453,-543.241,-920.16,867.545,10300,2490,287540,79.0967,431.245,500,1101,51,601,500,-400,1734.88
676459,-541.753,-905.618,871.07,9320,1230,286750,49.604,484.722,500,1097,25,602,500,-400,1756.56
676471,-544.009,-872.718,875.101,7690,80,285880,-49.8659,582.589,500,1111,26,604,500,-400,1751.93
676482,-548.848,-838.323,876.87,6100,-840,284790,-102.378,638.026,500,1125,19,606,500,-400,1757.1
676493,-555.636,-799.756,875.904,5420,-1080,284000,-125.973,729.725,500,1153,0,608,500,-400,1775.51
676504,-563.089,-755.606,869.715,4570,-1210,283130,-121.6,820.252,500,1174,4,610,500,-400,1778.16
676514,-568.318,-710.79,863.561,2990,590,281040,-79.2225,918.609,500,1188,-87,612,500,-400,1851.89
676520,-570.702,-677.623,854.873,3120,-1510,278920,-79.4725,1105.59,500,1194,-17,613,500,-400,1820.92
676532,-569.006,-610.284,838.395,2520,-2860,278430,53.8065,1069.02,500,1187,-61,615,500,-400,1867.05
676544,-568.791,-544.805,819.351,1050,-3260,277620,3.35126,1068.09,500,1160,-124,616,500,-400,1944.59
676555,-564.411,-496.461,795.284,1070,-3630,278160,132.477,839.309,500,1161,-82,618,500,-400,1924.68
676565,-553.371,-462.28,776.731,2700,-2460,279450,230.473,648.735,500,1136,-64,620,500,-269,1920.62
676576,-541.307,-437.061,760.404,3790,-1100,280120,207.91,385.13,500,1129,0,622,500,-292,1869.94
676582,-535.952,-428.456,754.291,3620,-1810,263570,178.508,286.811,500,1139,-68,623,500,-321,1934.01
676593,-525.906,-419.756,737.129,1850,-13830,262960,188.872,127.392,500,1108,-358,625,500,-311,2100
676626,-460.643,-440.787,543.308,29710,-37960,279140,539.32,-326.728,-500,759,-713,629,-500,400,2100
676637,-423.912,-483.926,464.095,45010,-59140,269600,708.242,-1034.55,-500,578,-480,631,-500,400,2100
676643,-404.164,-534.823,433.458,53240,-96390,238270,658.278,-1696.58,-500,374,-289,632,-500,400,2100
676653,-375.963,-642.594,399.976,47290,-129960,210170,502.059,-2272.77,-500,98,-84,634,-500,400,2100
676677,0,0,0,31700,-147170,201000,11961.9,26363,-500,-413,-721,637,-500,400,2100
676688,-371.687,-795.121,394.222,33180,-141850,204190,-235.54,637.741,-500,-660,-1034,639,-500,-400,2100
676698,-388.267,-719.119,356.402,38010,-121200,219350,-358.578,1840.43,-500,-858,-891,641,-500,195,2100
676704,0,0,0,38600,-84790,248060,12942.2,23970.6,-500,-928,-693,642,-500,400,2100
676719,-405.696,-425.786,342.979,31310,-55180,271990,57.9882,2773.27,-500,-897,-717,645,-500,369,2100
676725,-401.659,-355.699,338.334,26760,-44270,282100,134.551,2336.25,-500,-826,-971,646,-500,400,2100
676736,-387.199,-262.573,302.076,30930,-44940,285920,278.721,1431.13,-500,-786,-1303,648,-500,400,2100
676747,-374.343,-223.021,219.223,34380,-32110,285500,164.991,364.051,-500,-795,-716,650,-500,400,2100
676758,-380.555,-243.698,199.381,25760,-25020,286910,148.227,-264.717,-500,-772,-1004,651,-500,400,2100
676770,-372.697,-281.182,154.913,21050,-19330,290100,-34.5435,-800.482,-500,-750,-581,653,-500,400,2100
676776,-378.716,-306.39,144.076,15350,-13050,291710,-200.63,-840.262,-500,-719,-629,654,-500,299,2100
676788,-379.633,-327.495,110.4,11350,-8920,292210,14.7138,-240.524,-500,-672,-469,656,-500,400,2100
676799,-379.828,-334.362,86.4392,-900,1590,292970,-12.4851,-122.046,-500,-600,-529,658,-500,400,2100
676810,-378.784,-350.285,79.4661,-1440,6050,293110,18.2898,-310.543,-500,-499,-592,660,-500,400,2100
676816,-380.522,-351.737,76.9243,5670,-5150,293820,-57.9201,-48.3869,500,-415,-424,661,500,-400,2100
676827,-376.902,-339.43,76.4202,1890,840,293770,100.304,202.529,500,-358,-417,663,500,-399,2100
676839,-378.723,-345.985,76.5439,-90,3080,293640,-45.1793,-142.712,500,-292,-346,665,500,-400,2100
676861,-376.652,-339.437,75.9031,3810,-2970,293470,33.1826,73.7692,500,-173,-262,667,500,-400,2100
676867,-377.029,-340.929,75.3821,1810,1490,293410,-12.58,-49.7306,500,-128,-196,668,500,-400,2100
676878,-378.647,-344.395,75.7486,2910,-2470,293370,-30.9329,-23.8423,500,-81,-144,670,500,-400,2100
676890,-376.335,-341.22,75.4203,2560,-920,293190,48.6802,35.9948,500,-45,-125,672,500,-400,2100
676901,-378.345,-343.073,75.4479,2400,-730,293190,-48.8732,-41.1204,500,-7,-78,674,500,-400,2100
676912,-376.941,-341.936,75.298,2250,-1750,293050,33.7094,36.7849,500,24,-49,676,500,-400,2100
676918,-377.053,-341.797,75.3005,2070,-690,292980,-3.73795,4.61887,500,68,-10,677,500,-400,2100
676930,-377.559,-342.487,75.2376,1980,-1500,292860,6.83064,12.6253,500,109,22,679,500,-400,2075
676941,-377.967,-341.844,74.7413,1780,-1100,292760,-27.3024,2.09886,500,136,44,681,500,-400,2052
