timestamp,x,y,z,pitch,roll,yaw,vx,vy,vz,battery,cpu_load,vicon_count,set_position,set_velocity,calc_thrust
0,0,0,0,0,0,0,0,0,0,0,0,0,0,0,0
841005,12.4297,0.914986,75.532,0,0,0,0.00295592,0.000217594,-1.46398,0,0,1,-1.46398,1,2074.4
841016,11.781,0.582257,75.2605,0,0,0,-10.704,-9.26277,-0.931611,0,0,3,-0.931611,-8,2075.5
841027,12.3587,0.186509,74.8792,0,0,0,-0.861605,-10.6592,-0.724781,0,0,5,-0.724781,-3,2076.6
841033,12.3956,0.425832,75.0304,0,0,0,1.23205,7.97745,-0.681331,0,0,6,-0.681331,8,2077.7
841044,12.3791,0.71809,75.2815,0,0,0,-0.561992,-22.8723,-1.14894,0,0,8,-1.14894,-21,2078.8
841067,12.5405,1.08954,75.9074,0,0,0,7.22002,12.6717,-1.74326,0,0,11,-1.74326,14,2081
841078,12.6435,1.04577,76.0171,0,0,0,-0.104674,-5.8037,-1.95181,0,0,13,-1.95181,7,2082.1
841084,12.5136,1.08968,75.9316,0,0,0,-4.33106,1.46361,-1.74348,0,0,14,-1.74348,3,2083.31
841096,12.5107,1.06576,75.8882,0,0,0,1.08728,-0.174711,-1.70522,0,0,16,-1.70522,1,2084.41
841106,12.5061,1.04824,75.9128,0,0,0,-0.431179,-0.638364,-1.67718,0,0,18,-1.67718,1,2085.51
841118,12.5303,1.06633,75.8916,0,0,0,0.776574,-0.839415,-1.70613,0,0,20,-1.70613,0,2086.61
841129,12.4845,1.07952,75.8367,0,0,0,-1.10049,0.762581,-1.72722,0,0,22,-1.72722,2,2087.71
841134,12.5111,1.09604,75.8627,0,0,0,1.06526,0.660948,-1.75366,0,0,23,-1.75366,2,2088.81
841145,12.4941,1.08898,75.8461,0,0,0,-0.0219663,-0.330852,-1.74237,0,0,25,-1.74237,1,2089.91
841156,12.5054,1.08247,75.8788,0,0,0,0.960048,-0.209442,-1.73195,0,0,27,-1.73195,1,2091.01
841167,12.4175,1.11298,75.7726,0,0,0,-2.7042,1.19335,-1.78077,0,0,29,-1.78077,2,2092.11
841178,12.3663,0.677722,75.4482,0,0,0,-4.04482,-13.6335,-1.08435,0,0,31,-1.08435,-12,2093.21
841190,12.4048,0.668258,75.4457,0,0,0,1.3067,-1.18612,-1.06921,0,0,33,-1.06921,0,2094.42
841196,12.3785,0.675233,75.4469,0,0,0,-0.87516,0.232487,-1.08037,0,0,34,-1.08037,1,2095
841206,12.4046,0.675634,75.4494,0,0,0,1.23578,-0.644141,-1.08101,0,0,36,-1.08101,0,2095
841217,12.3823,0.651203,75.4595,0,0,0,-0.679636,0.204185,-1.04192,0,0,38,-1.04192,1,2095
841228,12.4004,0.646727,75.4571,0,0,0,0.557341,-0.86585,-1.03476,0,0,40,-1.03476,0,2095
841251,12.3885,1.09281,75.9059,0,0,0,0.76967,12.8118,-1.7485,0,0,43,-1.7485,14,2095
841257,12.3743,1.0913,75.9093,150,800,253120,-0.473121,-0.050268,-1.74609,-62,46,44,-1.74609,1,2049
841268,12.3939,1.12018,75.8783,180,840,254140,0.440745,0.944801,-1.79229,-47,35,46,-1.79229,2,2059
841280,12.4161,1.08844,75.9001,200,860,255160,-0.18671,-0.58849,-1.7415,-27,32,48,-1.7415,1,2062
841291,12.3746,1.11973,75.8715,230,900,256180,-0.0346434,1.6863,-1.79157,-15,25,50,-1.79157,3,2070
841297,12.3724,1.07393,75.8946,300,900,257190,-0.0724715,-1.52691,-1.71828,0,25,51,-1.71828,0,2070
841313,12.3492,1.14651,75.889,360,930,258050,-0.191249,2.36782,-1.73971,-2,17,54,-1.73971,0,2078
841319,12.3504,1.09923,75.9119,260,990,258890,0.0404896,-1.57617,-1.75876,-8,8,55,-1.75876,0,2086
841329,12.3873,1.05508,75.9056,220,1040,259520,-0.450756,0.485595,-1.68813,-10,5,57,-1.68813,2,2090
841352,12.4381,1.01899,75.8813,160,1110,260550,3.9795,-1.74496,-1.63039,-5,5,60,-1.63039,0,2090
841364,12.4429,0.964893,75.891,110,1180,260970,0.336,-0.032008,-1.54537,-6,4,62,-1.54537,0,2091
841380,12.5554,0.982704,75.9911,110,1110,261530,4.97873,-3.77052,-1.57233,12,15,65,-1.57233,-2,2081
841391,12.5576,1.04525,76.0415,170,960,254260,3.53923,-0.0720846,-1.67585,3,-2,67,-1.67585,4,2095
841402,12.0939,0.754842,75.9062,100,1000,249110,-14.6608,-9.59403,-1.20775,16,-11,69,-1.20775,-8,2100
841412,12.2499,0.110963,75.7531,310,1390,247980,-2.50152,-10.3191,-0.177542,30,-18,71,-0.177542,-10,2100
841430,12.304,0.857235,75.7905,210,1060,249740,-1.14655,-7.32547,-1.37158,66,-25,74,-1.37158,-5,2100
841436,12.2639,0.515377,75.2371,280,890,250170,-1.33637,-11.3953,-0.824604,72,-39,75,-0.824604,-10,2100
841448,12.8427,0.629444,75.8097,310,870,250630,19.9192,13.6426,-1.00711,56,-66,77,-1.00711,14,2100
841460,12.4377,0.625542,75.3914,340,840,251260,8.14017,-0.731138,-1.00087,53,-88,79,-1.00087,0,2100
841466,12.8768,1.26377,75.9177,370,840,251800,14.6348,21.2742,-2.02203,60,-104,80,-2.02203,23,2100
841478,12.3093,0.446861,75.2828,980,680,252060,-1.06185,-11.041,-0.714978,48,-79,82,-0.714978,-10,2100
841490,12.4644,0.713628,82.2805,2420,860,252730,-1.56196,5.31136,-1.14181,-21,-54,84,-1.14181,6,2100
841502,15.2449,2.26118,104.448,3850,1740,253550,68.7903,26.5796,-2.34206,63,270,86,-2.34206,27,1882
841508,11.0906,2.88829,132.452,3900,210,254670,-138.474,20.9036,-4.62126,134,609,87,-4.62126,25,1600
841531,-13.3238,-7.50822,332.168,2050,-1600,256640,-272.853,-110.855,12.0132,347,793,90,12.0132,-122,1600
841543,-26.0163,-10.9877,457.81,2170,-760,256950,-184.139,-42.6694,15.5322,450,777,92,15.5322,-88,1600
841549,-28.8044,-11.6343,521.112,2360,750,257240,-92.9364,-21.5522,18.6148,571,764,93,18.6148,-40,1600
841561,-33.8774,-12.2867,645.396,2530,1980,257190,-83.2724,-14.0774,19.6586,711,668,95,19.6586,-33,1600
841572,-32.5201,-14.1096,748.548,2520,2920,256500,31.2463,-48.3651,22.5754,825,523,96,22.5754,-70,1600
841583,-28.4105,-16.9396,835.131,3140,3480,255700,107.828,-70.7351,24.274,959,439,98,24.274,-59,1600
841594,-26.8878,-22.9488,908.686,3540,2780,254830,-9.03919,-125.849,31.6841,1061,361,100,31.6841,-127,1600
841604,-23.4366,-34.8954,965.519,2890,740,254100,18.8325,-253.266,45.7019,1141,186,102,45.7019,-270,1600
841610,-22.0178,-43.7093,990.625,2620,-690,252920,47.2925,-293.798,69.9349,1223,120,103,69.9349,-363,1600
841622,-23.2961,-60.4879,1032.43,1780,-1850,252560,-35.7694,-274.001,96.7807,1256,74,105,96.7807,-370,1600
841644,-29.392,-81.5422,1086.37,630,-2060,251000,-38.0859,-141.365,130.468,1368,-71,108,130.468,-271,1696.44
841650,-31.726,-84.2049,1094.11,300,-800,248800,-77.7979,-88.7569,134.728,1395,-99,109,134.728,-223,1724.78
841662,-35.2136,-88.0808,1105.36,870,-780,246340,-57.4676,-44.1435,140.929,1446,-141,111,140.929,-185,1762.26
841674,-38.4283,-90.3058,1108.83,1370,-620,243820,-54.3218,-37.1867,144.489,1480,-178,113,144.489,-181,1802.98
841685,-43.1014,-92.2464,1105.68,1670,-470,241620,-108.609,-37.4279,147.594,1505,-196,115,147.594,-185,1818.81
841696,-51.5358,-94.088,1099.31,1080,-420,239900,-162.93,-36.2273,148.802,1512,-210,117,148.802,-178,1834.74
841702,-57.4383,-94.9058,1094.92,490,-120,238880,-196.749,-27.2604,151.849,1531,-210,118,151.849,-179,1833.69
841714,-71.3852,-96.9217,1085.49,-20,-70,238410,-238.294,-34.2738,155.075,1546,-228,120,155.075,-189,1852.67
841736,-99.808,-100.883,1059.3,-880,-60,238400,-260.69,-29.3577,161.413,1565,-241,123,161.413,-190,1878.38
841747,-112.309,-102.496,1043.2,-870,-280,238840,-210.545,-25.9965,162.746,1570,-241,125,162.746,-196,1885.06
841752,-117.495,-102.95,1035.67,-480,-340,239390,-207.474,-18.1474,164.72,1535,-243,126,164.72,-182,1896.69
841763,-126.48,-103.186,1018.88,-60,-80,239950,-153.71,-2.96608,165.097,1276,-343,128,165.097,-168,2011.69
841774,-134.621,-102.13,1004.72,590,290,240460,-153.753,12.257,163.408,1008,-368,130,163.408,-151,2050.99
841796,-149.165,-102.461,1013.78,720,50,241120,-146.77,-35.2407,163.938,607,-343,133,163.938,-199,2022.68
841808,-157.672,-104.642,1040.36,380,-730,240880,-148.19,-32.9474,165.846,447,-337,135,165.846,-205,2007.86
841813,-161.538,-105.577,1055.37,-120,-820,240260,-154.643,-37.4202,168.924,331,-308,136,168.924,-206,1953.9
841825,-171.09,-107.263,1099.65,-560,-970,239490,-161.402,-20.6588,171.622,259,-311,138,171.622,-192,1941.64
841836,-178.966,-107.532,1145.67,-750,-820,238970,-149.091,6.36785,172.051,187,-320,140,172.051,-165,1951.13
841847,-185.173,-105.61,1194.75,-750,-490,238660,-124.285,46.8667,168.976,161,-298,142,168.976,-122,1929.57
841857,-189.403,-102.342,1242.89,-770,-360,238680,-74.7226,86.0494,163.747,167,-292,144,163.747,-77,1923.94
841868,-190.181,-97.3694,1296.1,300,120,238940,6.19175,108.966,155.791,189,-289,146,155.791,-46,1921.3
841879,-187.837,-91.5781,1348.4,1840,620,239420,56.6366,103.947,146.525,201,-304,148,146.525,-42,1933.65
841879,-187.837,-91.5781,1348.4,2890,40,240100,56.6366,103.947,146.525,215,-373,148,146.525,-42,1996.19
841896,-180.137,-87.8838,1418.49,3830,-1620,241210,122.903,-0.280911,140.614,253,-454,149,140.614,-140,2091.24
841907,-169.689,-89.7433,1447.32,4840,-3030,242080,185.498,-48.3813,143.589,272,-457,151,143.589,-191,2089.4
841918,-160.158,-92.3797,1472.36,5260,-4080,242810,152.367,-42.7278,147.808,287,-483,153,147.808,-190,2100
841929,-151.835,-92.5726,1491.27,5590,-4340,243110,137.884,16.7464,148.116,288,-543,155,148.116,-131,2100
841941,-146.617,-87.6531,1502.22,5620,-3640,243350,71.7386,103.858,145.23,276,-575,157,145.23,-85,2100
841947,-145.298,-83.4325,1504.86,4650,-3050,243870,43.9592,140.689,133.492,275,-619,158,133.492,7,2100
841958,-144.413,-73.2757,1502.97,3550,-1460,244300,10.5338,198.02,117.241,266,-608,160,117.241,80,2100
841980,-146.367,-48.2929,1496.45,2550,1010,244660,-14.1296,212.607,77.2686,260,-538,163,77.2686,135,2100
841991,-145.268,-39.6904,1494.05,2540,860,244440,30.1632,132.696,63.5046,256,-475,165,63.5046,69,2100
842001,-142.141,-35.7583,1495.63,3060,-80,243940,66.5157,56.8801,57.2133,263,-425,167,57.2133,0,2078.91
842012,-135.839,-35.8976,1499.25,3530,-1430,243170,123.155,-26.0755,56.3932,281,-395,169,56.3932,-39,2049.87
842017,-132.594,-36.9908,1500.93,3980,-2290,242220,129.831,-43.7271,59.1853,308,-362,170,59.1853,-102,2013.74
842029,-126.219,-39.8706,1504.35,4380,-2380,241270,90.3319,-48.7459,63.7929,339,-352,172,63.7929,-112,2004.42
842040,-123.451,-42.6088,1504.85,4070,-2270,240660,39.154,-48.82,68.1742,358,-337,174,68.1742,-116,1990.03
842051,-125.312,-44.5721,1502.93,2810,-1820,240460,-49.9096,-35.0057,71.3154,377,-335,176,71.3154,-106,1988.62
842061,-130.122,-46.4297,1498.7,1290,-1660,240490,-105.798,-38.9757,74.2875,382,-332,178,74.2875,-113,1986.19
842072,-137.895,-46.9082,1491.93,460,-1580,240550,-137.309,-13.1279,75.0531,381,-322,180,75.0531,-88,1978.73
842078,-141.273,-46.3986,1487.71,370,-1490,240440,-112.62,16.9864,74.2377,401,-298,181,74.2377,-57,1956
842090,-144.94,-43.6751,1478.41,800,-1280,240330,-39.5276,58.125,69.8802,427,-286,183,69.8802,-11,1941
842101,-144.782,-39.0585,1466.72,1820,-510,240340,20.8177,90.1634,62.4935,445,-288,185,62.4935,27,1943
842112,-142.379,-33.3196,1451.59,2480,660,240360,52.927,107.346,53.3113,465,-271,187,53.3113,54,1928
842124,-138.724,-29.2019,1432.25,3010,1470,240390,50.8584,55.439,46.723,480,-239,189,46.723,8,1894
842130,-137.308,-28.8406,1422.68,2850,1700,240350,47.1731,12.0427,46.145,472,-214,190,46.145,-34,1869
842141,-136.534,-32.5929,1405.72,2130,780,240140,5.92601,-103.901,52.1486,474,-193,192,52.1486,-156,1847.89
842152,-138.398,-41.1743,1388.94,1280,-890,239680,-40.8175,-179.842,65.8788,484,-182,194,65.8788,-245,1837.73
842164,-141.892,-53.6306,1368.75,650,-2230,238890,-68.2329,-209.083,85.809,487,-178,196,85.809,-294,1832.53
842175,-147.536,-63.3726,1348.44,-80,-2680,237980,-113.173,-160.16,94.9897,482,-183,198,94.9897,-286,1836.33
842181,-150.84,-66.6405,1336.46,-590,-2490,237140,-110.15,-108.93,106.625,482,-184,199,106.625,-215,1836.14
842192,-157.759,-69.0991,1312.31,-870,-1910,236490,-126.187,-19.5242,110.558,458,-195,201,110.558,-130,1847.99
842204,-164.343,-65.853,1283.68,-1030,-810,236030,-108.099,72.1281,105.365,419,-211,203,105.365,-33,1864.91
842215,-168.485,-58.1514,1255.35,-710,710,235820,-56.5556,152.834,93.0422,384,-200,205,93.0422,59,1854.84
842221,-169.45,-53.148,1239.73,-90,1980,235750,-32.1401,166.777,85.0368,344,-213,206,85.0368,81,1866.76
842231,-168.285,-44.7606,1213.15,700,2530,235960,46.453,165.532,71.617,314,-209,208,71.617,93,1862.72
842242,-163.215,-38.1506,1183.63,1850,2470,236530,107.73,114.556,61.0409,278,-201,210,61.0409,53,1854.64
842254,-153.63,-35.892,1151.33,2890,1980,237220,171.94,9.29414,57.4272,252,-188,212,57.4272,-48,1842.53
842264,-144.243,-38.6974,1124.44,3500,1030,237830,198.52,-74.9983,61.9158,252,-164,214,61.9158,-136,1818.3
842276,-135.083,-47.8715,1092.47,3960,-140,238360,134.03,-180.012,76.5944,232,-163,216,76.5944,-256,1816.01
842286,-131.141,-59.1542,1064.29,3510,-1980,238880,49.9954,-234.918,94.6468,209,-181,218,94.6468,-329,1841.34
842298,-133.456,-73.8188,1028.08,2720,-3210,239430,-70.5509,-235.068,106.827,181,-186,220,106.827,-360,1861.36
842304,-137.709,-80.2518,1009.83,1690,-3520,239850,-141.757,-214.434,128.403,158,-161,221,128.403,-342,1867.8
842316,-151.522,-88.5078,974.985,310,-2770,240100,-268.256,-117.086,141.613,112,-146,223,141.613,-258,1879.67
842327,-168.087,-90.3108,946.468,-1320,-1650,240240,-313.159,-13.8807,144.497,64,-143,225,144.497,-158,1898.55
842338,-185.925,-86.6646,919.817,-2310,-280,240300,-294.187,91.9755,138.663,32,-133,227,138.663,-46,1911.02
842344,-194.522,-82.7111,905.687,-2090,1130,240330,-286.572,131.783,132.338,4,-114,228,132.338,0,1903.49
842356,-206.852,-72.9856,879.297,-1490,2150,240420,-172.167,174.85,116.777,-19,-104,230,116.777,58,1913.79
842367,-211.514,-63.9434,857.052,60,2890,240610,-67.1634,148.275,102.309,-44,-92,232,102.309,45,1920.81
842378,-210.816,-56.9756,837.057,1680,2730,240850,31.119,100.959,91.161,-86,-83,234,91.161,9,1928.05
842389,-206.825,-55.0015,818.477,2880,1840,241020,78.253,16.5759,88.0024,-126,-81,236,88.0024,-71,1940.2
842399,-204.232,-58.4801,803.259,3480,640,240980,49.9013,-63.0248,93.5681,-167,-59,238,93.5681,-156,1936.71
842405,-205.187,-63.7522,795.846,3320,-680,240720,-31.8341,-175.738,102.004,-177,-22,239,102.004,-277,1901.83
842416,-208.462,-73.7478,786.841,2360,-2280,240390,-95.9068,-208.522,117.997,-160,2,241,117.997,-326,1883.11
842428,-218.502,-86.1257,778.808,980,-3420,240220,-204.525,-210.167,137.801,-166,-9,243,137.801,-347,1900.63
842450,-249.277,-94.2602,763.641,-1390,-2860,240210,-309.195,31.1753,150.816,-184,25,246,150.816,-119,1879.93
842456,-258.475,-91.2804,761.228,-2200,-1080,240210,-306.596,99.3258,146.049,-186,36,247,146.049,-46,1870.86
842468,-275.186,-79.5385,757.775,-2480,1030,240170,-252.15,229.959,127.262,-187,43,249,127.262,102,1866.59
842479,-284.725,-64.3745,755.929,-1600,3150,240060,-156.135,282.458,102.999,-177,54,251,102.999,179,1855.99
842501,-280.607,-39.4782,751.796,1130,4200,239920,132.593,155.8,63.1652,-166,46,254,63.1652,92,1866.11
842512,-268.951,-35.7535,748.696,3050,2900,239980,232.015,22.2752,58.0967,-181,48,256,58.0967,47,1866.44
842517,-262.927,-36.5703,747.373,4960,1240,239720,240.937,-32.671,58.5125,-176,68,257,58.5125,-91,1852.55
842529,-250.723,-45.5769,746.207,5220,-420,239270,181.989,-184.997,72.9231,-165,93,259,72.9231,-257,1824.26
842540,-246.414,-60.4516,747.715,3920,-2390,239310,48.9204,-291.023,96.7225,-155,82,261,96.7225,-387,1833.82
842562,-259.931,-92.5902,747.314,520,-5040,240360,-215.8,-236.345,148.144,-148,66,264,148.144,-384,1849.9
842568,-267.954,-97.0228,747.15,-1120,-4370,240780,-267.432,-147.753,155.236,-144,52,265,155.236,-302,1862.95
842580,-287.242,-98.5535,745.613,-2540,-2400,240990,-332.283,23.3228,157.686,-157,42,267,157.686,-134,1874.15
842591,-304.707,-90.3454,743.689,-3220,230,241020,-304.901,173.632,144.553,-185,40,269,144.553,29,1878.73
842612,-320.982,-58.7021,744.799,-1810,3940,241070,-11.2911,310.762,93.9234,-181,57,272,93.9234,216,1860.81
842624,-315.222,-42.7588,746.133,500,4270,241140,150.644,242.653,80.0614,-177,56,274,80.0614,208,1861.17
842630,-307.992,-37.5279,746.122,3120,3840,241110,240.986,174.365,60.0446,-165,67,275,60.0446,114,1849.58
842641,-292.675,-33.24,747.521,5400,2650,240820,293.568,34.9557,53.184,-158,67,277,53.184,-18,1848.34
842651,-279.515,-37.71,748.548,6310,470,240440,239.231,-135.837,60.336,-140,70,279,60.336,-196,1843.37
842674,-272.003,-70.906,748.132,3830,-3420,240050,-73.3698,-354.423,113.45,-149,63,282,113.45,-467,1852.48
842685,-282.804,-89.1006,748.923,1020,-5170,240260,-243.637,-319.902,142.561,-160,67,284,142.561,-462,1845.71
842690,-290.355,-95.7106,749.688,-1560,-5550,240500,-302.038,-264.398,153.137,-167,54,285,153.137,-417,1860.01
842702,-312.426,-104.085,750.894,-3370,-4470,240570,-384.04,-93.2548,166.536,-164,62,287,166.536,-259,1848.94
842714,-334.515,-97.4317,753.175,-4060,-1730,240350,-360.139,164.671,155.891,-178,54,289,155.891,8,1855.02
842725,-349.148,-79.7575,754.553,-4170,1690,239900,-224.22,368.195,127.612,-181,47,291,127.612,240,1861.86
842736,-354.573,-56.0247,755.66,-2980,4780,239360,-45.9369,441.072,89.6396,-175,40,293,89.6396,351,1867.93
842746,-347.943,-35.025,754.817,-790,6700,239040,195.524,391.93,71.7172,-170,36,295,71.7172,376,1872.05
842752,-339.837,-24.4138,753.506,2030,6580,238900,270.196,353.706,39.0621,-174,44,296,39.0621,314,1865.62
842763,-315.305,-13.2067,750.701,5030,5100,238780,483.513,157.031,21.1307,-178,39,298,21.1307,135,1872.86
842774,-286.563,-14.3695,746.808,7730,2510,238570,532.455,-76.8877,22.9912,-187,39,300,22.9912,-99,1875.98
842797,-242.326,-54.3761,738.502,8290,-2730,238130,214.228,-484.913,87.0018,-204,45,303,87.0018,-571,1878.69
842808,-241.993,-85.1386,736.202,5000,-5920,238220,-71.0232,-571.4,108.794,-183,70,305,108.794,-653,1852.76
842814,-248.833,-101.906,735.499,980,-8080,238600,-228.012,-558.907,163.049,-183,59,306,163.049,-721,1862.97
842825,-271.471,-126.849,732.981,-2700,-8590,239020,-470.82,-391.038,202.959,-188,53,308,202.959,-593,1870.96
842835,-299.861,-136.007,730.707,-6370,-6360,239370,-582.872,-100.97,217.611,-173,56,310,217.611,-318,1871.79
842858,-359.008,-96.396,722.395,-8850,1260,238900,-379.975,601.104,154.234,-132,79,313,154.234,446,1854.31
842868,-367.445,-57.8416,717.325,-6940,5760,238660,-98.0761,813.992,92.5466,-146,65,315,92.5466,721,1873.33
842874,-364.3,-31.3038,713.188,-1670,10560,238930,104.842,884.593,50.0861,-188,62,316,50.0861,800,1880.66
842885,-345.159,16.0558,706.989,3040,13380,239280,437.589,820.443,-25.6893,-213,73,318,-25.6893,800,1873.64
842896,-308.374,49.4891,702.942,7250,14460,239510,729.775,506.561,-79.1825,-260,67,320,-79.1825,585,1882.91
842919,-207.194,31.7929,703.726,14580,6170,239400,893.2,-602.311,-50.8686,-315,82,322,-50.8686,-551,1869.36
842924,-187.58,9.91756,705.054,16380,-4680,238720,784.577,-875.012,-15.8681,-316,104,323,-15.8681,-800,1843.2
842936,-155.666,-61.3266,712.276,14980,-10650,238420,415.257,-1287.24,98.1225,-343,96,325,98.1225,-800,1846.29
842947,-160.451,-137.176,722.069,8190,-11800,239410,-231.349,-1377.32,219.482,-342,112,327,219.482,-800,1822.25
842957,-195.264,-201.893,733.386,-2750,-12140,241210,-825.774,-1255.48,323.03,-328,98,329,323.03,-800,1826.94
842968,-255.168,-257.161,745.2,-9180,-12100,241750,-1152.03,-889.184,411.458,-311,84,331,411.458,-800,1831.28
842979,-319.787,-285.589,753.99,-10850,-11830,241050,-1175.53,-359.558,440,-285,77,333,440,-799,1831.04
842991,-382.903,-276.619,761.896,-13780,-10310,239340,-1002.75,337.826,440,-273,109,335,440,-102,1792.42
842996,-402.337,-256.679,765.655,-12910,-5190,236630,-777.361,797.595,410.687,-289,103,336,410.687,386,1796.04
843008,-429.435,-191.195,777.155,-7840,-210,238310,-386.496,1079.87,305.913,-262,101,338,305.913,773,1792.48
843019,-429.959,-152.592,787.923,-4330,3270,239360,68.0094,537.293,244.147,-231,143,340,244.147,293,1739.35
843030,-426.183,-130.392,803.661,-1010,2410,240310,82.9091,363.241,208.627,-214,120,342,208.627,154,1745.12
843042,-417.764,-117.26,817.704,-610,1700,242030,173.749,190.456,187.616,-188,95,344,187.616,2,1759.28
843048,-410.414,-114.893,823.213,-20,1150,243950,244.99,78.9139,183.828,-176,112,345,183.828,-104,1738.28
843072,-379.434,-114.176,843.334,1020,-780,247120,251.397,-18.253,182.682,-140,64,348,182.682,-200,1767.99
843078,-371.697,-115.296,845.36,740,-1330,249910,257.885,-37.317,184.473,-109,120,349,184.473,-221,1713.74
843089,-355.912,-116.537,851.047,1440,-930,252740,294.411,-24.8399,186.458,-102,151,351,186.458,-211,1672.29
843100,-338.008,-117.578,861.503,2990,-660,255060,313.556,-9.92783,188.125,-106,138,353,188.125,-198,1677.98
843122,-310.601,-112.247,881.174,2900,320,257230,196.941,71.6424,179.595,-49,141,356,179.595,-107,1655.26
843134,-301.526,-107.228,889.557,1650,180,256580,120.655,81.9738,175.5,-35,119,358,175.5,-90,1672.58
843139,-299.45,-105.685,892.137,-180,-50,255540,83.0105,61.7213,169.096,-8,112,359,169.096,-107,1673.46
843151,-298.684,-105.392,895.686,-1970,-110,254470,0.574615,-9.85496,168.627,11,107,361,168.627,-178,1674.69
843173,-296.331,-109.965,896.758,-3320,-370,253090,21.4979,-40.5444,175.943,43,92,364,175.943,-216,1686.04
843184,-292.025,-110.092,894.374,-3430,-570,252380,94.3649,0.0362801,176.147,45,73,366,176.147,-176,1707.16
843195,-285.842,-108.441,889.802,-3110,-760,251070,138.12,49.1719,173.505,52,68,368,173.505,-124,1716.09
843201,-280.585,-106.398,886.76,-2280,-730,249170,175.255,68.0944,170.236,51,56,369,170.236,-102,1728.86
843212,-267.432,-99.8827,878.845,-1030,-70,247130,247.468,144.474,159.812,50,54,371,159.812,-15,1737.59
843224,-250.054,-87.9038,868.434,1910,1090,244950,294.925,213.978,140.646,59,14,373,140.646,73,1781.44
843236,-231.878,-77.1271,850.298,4580,1960,242810,298.517,162.252,131.191,58,-17,375,131.191,65,1820.6
843241,-224.694,-73.8112,841.336,5330,1550,240820,287.335,132.636,118.098,48,-19,376,118.098,14,1839.79
843252,-213.047,-73.0461,818.739,4700,290,239230,191.149,-24.968,116.874,27,-19,378,116.874,-141,1857.87
843263,-208.565,-79.9673,795.652,3200,-1710,238310,69.5321,-146.081,127.948,2,-18,380,127.948,-274,1875.42
843274,-209.6,-92.0443,772.2,1460,-3690,237990,-40.0849,-230.787,147.271,-29,-11,382,147.271,-378,1887.34
843296,-229.59,-111.994,728.496,-1320,-4720,238020,-245.024,-102.157,179.19,-71,28,385,179.19,-281,1883.57
843308,-247.509,-110.486,708.049,-3070,-2940,238090,-310.974,74.4184,180.35,-101,30,387,180.35,-204,1890.01
843313,-254.588,-106.764,700.328,-4440,-540,238080,-283.167,148.883,170.823,-144,27,388,170.823,-21,1908.53
843324,-267.369,-92.4053,683.858,-3820,2040,237900,-204.9,314.751,147.848,-179,43,390,147.848,166,1905.98
843336,-271.864,-70.8428,668.147,-2080,4190,237590,-28.588,369.952,113.348,-199,61,392,113.348,256,1903.81
843347,-265.537,-51.9487,656.862,460,5240,237330,164.426,328.16,83.118,-204,86,394,83.118,245,1884.02
843353,-258.02,-44.1505,651.727,2880,4990,237090,250.583,259.942,70.6408,-228,91,395,70.6408,189,1883.26
843364,-239.084,-37.993,643.755,5200,3550,236870,366.993,53.132,60.7889,-253,91,397,60.7889,-7,1890.81
843376,-215.785,-45.6102,636.428,6720,340,236570,385.766,-192.722,72.9764,-272,104,399,72.9764,-265,1882.81
843387,-199.694,-66.307,632.058,6460,-3750,236210,276.364,-411.342,106.091,-265,99,401,106.091,-517,1890.46
843408,-204.301,-119.679,622.366,2170,-9270,236530,-269.964,-498.221,191.487,-298,124,404,191.487,-689,1876.61
843420,-232.39,-139.812,622.764,-1930,-9730,237180,-546.631,-281.898,210.168,-292,142,406,210.168,-599,1857.84
843426,-252.45,-143.532,623.985,-5700,-7430,237540,-668.696,-124.017,229.652,-271,158,407,229.652,-353,1838.31
843437,-292.717,-136.169,627.197,-8360,-2410,237320,-734.313,210.753,217.871,-248,170,409,217.871,-7,1825.62
843448,-329.737,-109.448,631.59,-9400,2740,236560,-627.597,551.585,175.117,-234,166,411,175.117,376,1824.92
843470,-351.281,-24.8597,637.466,-5810,10970,235170,119.143,821.797,39.7756,-171,175,414,39.7756,782,1810.87
843476,-339.989,-1.90387,638.244,-40,13540,235250,376.397,765.195,3.04619,-153,171,415,3.04619,762,1814.04
843488,-295.741,33.647,638.027,7280,13820,235770,858.292,519.378,-53.8352,-152,163,417,-53.8352,573,1821.02
843511,-167.45,19.1704,634.542,15970,3870,235270,1135.8,-563.883,-30.6726,-172,132,420,-30.6726,-533,1854.6
843522,-116.492,-34.4312,630.896,17110,-4870,234780,841.397,-1111.21,10.6414,-182,124,422,10.6414,-800,1866.18
843528,-98.9539,-73.0818,628.916,17100,-10780,234690,584.591,-1288.35,116.931,-208,114,423,116.931,-800,1879.23
843540,-94.5714,-159.068,627.972,12040,-12480,235810,-119.53,-1470.75,254.509,-199,135,425,254.509,-800,1860.05
843552,-135.073,-246.038,630.276,1740,-12830,237940,-849.983,-1409.41,393.661,-193,126,427,393.661,-800,1863.22
843563,-198.785,-312.021,631.93,-7390,-12840,239370,-1237.72,-1100.33,440,-169,123,429,440,-800,1867.3
843569,-237.739,-337.725,632.451,-10410,-12410,239070,-1298.48,-856.803,440,-117,143,430,440,-800,1846.55
843580,-307.811,-358.84,633.402,-15800,-13050,237640,-1261.66,-233.11,440,-100,236,432,440,-673,1752.56
843592,-363.075,-333.236,644.697,-15010,-9950,234910,-782.084,606.941,440,-86,196,434,440,166,1778.99
843603,-389.316,-280.818,651.891,-11700,-6510,235240,-387.886,986.184,440,-77,121,436,440,546,1852.06
843609,-389.876,-249.458,652.916,-10680,-1640,238310,-18.6734,1045.36,399.132,-57,207,437,399.132,646,1765
843620,-388.197,-203.207,662.615,-9010,2250,241850,40.6929,832.934,325.132,-35,240,439,325.132,507,1724.69
843643,-341.894,-144.523,703.581,-2780,2400,251700,511.477,412.488,231.238,0,312,442,231.238,181,1614.09
843649,-324.316,-133.064,718.191,70,1340,255240,585.929,381.967,212.903,30,315,443,212.903,169,1601.07
843660,-292.579,-116.858,744.739,1840,1180,257320,554.978,282.318,186.973,45,313,445,186.973,95,1600
843671,-263.725,-103.269,772.942,3610,1780,258670,499.404,224.93,165.231,88,365,447,165.231,59,1600
843681,-240.442,-93.0465,802.198,5610,2190,259320,467.409,197.142,148.874,124,379,449,148.874,48,1600
843692,-217.246,-84.5211,837.247,6210,2600,259200,423.682,149.677,135.234,148,362,451,135.234,14,1600
843715,-182.77,-68.5762,907.086,3530,370,258380,219.346,87.3133,109.722,242,384,454,109.722,-22,1600
843726,-174.598,-63.2294,940.769,3130,200,258520,123.839,98.8326,105.12,284,380,456,105.12,-9,1600
843732,-171.828,-60.784,958.376,2500,830,259320,92.3205,81.5137,97.2544,323,362,457,97.2544,-15,1600
843743,-169.421,-54.3126,989.19,2140,1490,260020,21.4468,149.02,86.9001,357,367,459,86.9001,62,1600
843754,-166.988,-49.8417,1019,2010,2310,260580,49.8168,64.0103,79.7467,380,323,461,79.7467,-15,1600
843765,-164.436,-46.4416,1044.65,1270,2540,260450,40.0735,47.2842,74.3066,400,294,463,74.3066,-27,1600
843776,-161.982,-44.9723,1066.88,-180,2520,259410,44.3856,14.2524,71.9557,417,274,465,71.9557,-57,1600
843782,-160.909,-45.3789,1078.33,-1420,1760,258190,35.779,-13.5518,72.6062,473,272,466,72.6062,-86,1600
843794,-160.31,-48.5166,1098.93,-1860,890,257150,18.1247,-54.7285,77.6265,487,239,468,77.6265,-132,1600
843817,-156.855,-56.9222,1125.45,-1990,-180,256160,46.4965,-62.7445,91.0755,519,162,471,91.0755,-153,1600
843828,-155.185,-59.5744,1129.69,-2400,250,255900,31.2767,-44.5928,93.1786,528,121,473,93.1786,-145,1600
843834,-153.773,-60.5361,1129.71,-2960,580,255530,47.0609,-32.0554,96.8577,535,97,474,96.8577,-128,1600
843844,-151.588,-61.4176,1128.56,-3480,920,255220,69.3789,-11.727,98.2682,564,82,476,98.2682,-109,1600
843855,-148.519,-61.26,1124.46,-3560,1160,254880,69.0991,5.99622,98.016,553,72,478,98.016,-92,1600
843866,-144.554,-61.326,1118.28,-2690,1410,254730,70.7992,5.47488,98.1217,545,64,480,98.1217,-92,1600
843888,-134.569,-61.0029,1104.78,-1360,2180,255420,94.4139,10.0979,97.6047,501,46,483,97.6047,-87,1600
843894,-131.501,-60.7494,1101.48,-1040,2100,255590,102.249,8.45114,97.199,500,54,484,97.199,-88,1600
843906,-126.071,-59.9232,1095.79,-850,1790,255680,99.0147,22.9678,95.877,500,72,486,95.877,-72,1600
843916,-121.48,-59.0135,1091.85,-470,1460,255480,73.2918,15.6305,94.4215,505,76,488,94.4215,-78,1600
843928,-114.852,-56.3076,1087.93,-50,1520,254600,114.279,40.4628,90.0922,517,58,490,90.0922,-49,1600
843940,-108.354,-53.0021,1080.85,210,1490,253420,100.649,55.3882,87.462,520,27,492,87.462,-32,1600
843946,-104.626,-51.2269,1075.13,450,1270,252290,124.249,59.1731,81.9631,514,-22,493,81.9631,-22,1622
843970,-89.8916,-40.4779,1036.3,1670,1520,250740,167.979,95.1846,64.7647,486,-91,496,64.7647,30,1726.96
843981,-82.4351,-33.5822,1010.95,3720,1920,250480,118.102,122.803,59.6261,462,-132,498,59.6261,68,1774.45
843986,-80.4136,-31.1959,997.458,5340,2960,248790,80.8613,95.4509,49.9135,446,-181,499,49.9135,45,1846.07
843998,-80.9142,-30.8951,959.313,4740,2440,245790,-39.056,-31.9857,49.4322,406,-193,501,49.4322,-81,1890.85
844021,-103.752,-58.7744,885.5,1130,-1030,239150,-272.512,-332.443,94.0391,331,-142,504,94.0391,-426,1900.56
844031,-120.487,-76.4822,857.548,-650,-3040,236700,-357.084,-353.244,122.371,307,-110,506,122.371,-475,1892.26
844042,-141.574,-91.9852,830.499,-2150,-3840,235160,-399.243,-240.083,137.573,285,-66,508,137.573,-454,1860.83
844052,-162.286,-98.9956,809.944,-3000,-3130,234290,-423.344,-97.7901,154.481,282,-37,510,154.481,-337,1849.7
844058,-174.912,-99.4238,798.63,-3360,-1420,233860,-420.848,-14.2727,159.078,275,-43,511,159.078,-173,1870.97
844069,-196.947,-93.8954,777.657,-3470,780,233670,-390.031,124.336,150.233,265,-34,513,150.233,-25,1881.03
844091,-225.89,-66.5227,738.826,-1740,4330,233700,-163.927,252.792,106.436,275,0,516,106.436,146,1876.51
844103,-228.359,-52.3445,720.434,400,4680,233870,-7.13347,209.744,83.7513,248,13,518,83.7513,125,1880.47
844113,-223.922,-45.5448,707.761,2730,4110,234080,105.737,108.112,72.8718,213,36,520,72.8718,35,1867.83
844119,-220.101,-44.829,701.825,4590,2870,234200,127.368,23.8609,71.7264,194,52,521,71.7264,-47,1856.74
844130,-214.332,-50.4974,694.215,5040,770,234110,94.7499,-139.273,80.7958,184,74,523,80.7958,-220,1838.93
844141,-213.239,-66.475,690.55,4190,-1840,234060,-4.76347,-346.488,106.36,162,76,525,106.36,-452,1836.9
844153,-222.57,-89.2686,689.239,2190,-4360,234150,-208.143,-395.457,142.83,148,45,527,142.83,-538,1868.07
844164,-241.026,-110.725,686.283,-520,-5630,234450,-381.107,-378.372,177.159,137,33,529,177.159,-555,1886.72
844175,-267.776,-123.421,684.211,-3490,-5840,234870,-521.397,-184.342,190.1,119,40,531,190.1,-459,1881.04
844185,-295.739,-124.26,684.913,-5900,-4220,235450,-564.88,61.0312,201.258,99,55,533,201.258,-295,1868.9
844191,-312.469,-118.44,687.025,-6850,-840,235860,-557.663,194.019,189.504,103,75,534,189.504,4,1845.76
844201,-336.01,-97.958,691.818,-6610,3210,235990,-442.033,449.983,156.733,100,63,536,156.733,293,1853.02
844212,-351.718,-65.5148,697.033,-4830,6830,235930,-205.491,623.856,104.824,99,69,538,104.824,519,1841.93
844224,-351.707,-27.6061,703.826,-1450,9310,235760,80.511,623.94,44.1698,83,57,540,44.1698,579,1848.58
844236,-332.454,2.73056,710.713,2020,10510,235790,398.402,445.913,17.0349,87,56,542,17.0349,548,1848.92
844242,-316.893,11.0978,714.211,5670,9620,235930,518.71,278.909,-17.7565,87,70,543,-17.7565,296,1828.4
844254,-278.082,11.0866,723.74,8780,5640,235930,690.484,-96.3252,-17.7385,75,72,545,-17.7385,-78,1818.74
844276,-218.463,-54.1512,740.753,11090,-5220,235600,372.615,-823.685,86.6419,80,45,548,86.6419,-800,1832.1
844282,-213.732,-81.8175,745.29,8300,-8730,235860,157.726,-922.211,130.908,56,34,549,130.908,-800,1838.49
844294,-227.424,-139.802,754.2,2150,-10050,236740,-357.607,-967.726,223.683,43,22,551,223.683,-800,1844.43
844306,-268.152,-191.91,764.032,-4400,-10620,237800,-770.294,-803.626,307.057,39,11,553,307.057,-800,1846.64
844312,-295.154,-210.65,769.534,-8400,-10670,238380,-900.072,-624.662,337.04,28,1,554,337.04,-800,1851.33
844324,-355.157,-226.865,779.835,-9080,-10090,238360,-982.095,-120.683,362.984,6,-3,556,362.984,-483,1849.2
844334,-404.462,-215.11,790.102,-9020,-3970,238270,-957.276,347.699,344.177,9,0,558,344.177,3,1838.04
844346,-458.008,-173.105,804.132,-8800,2910,238350,-845.534,801.6,276.968,37,1,560,276.968,524,1824.82
844358,-495.695,-114.626,816.538,-9140,8830,238430,-534.656,1012.67,232.011,55,-35,562,232.011,704,1851.47
844364,-505.635,-83.7945,820.982,-8270,12730,238510,-331.344,1027.73,134.071,48,-43,563,134.071,800,1856.52
844376,-500.274,-26.8647,830.832,-3910,14460,239620,243.941,901.79,42.9836,55,-14,565,42.9836,800,1819.66
844387,-465.373,11.5777,841.999,3650,15320,241640,740.139,628.461,-18.5243,49,-24,567,-18.5243,646,1819.66
844398,-410.854,26.4463,853.594,11100,13160,243300,1040.5,118.207,-42.3141,64,-25,569,-42.3141,160,1812.33
844409,-352.354,10.7206,864.311,15950,6160,243450,1037.51,-461.818,-17.153,67,-41,571,-17.153,-444,1818.68
844415,-325.514,-11.5874,869.05,17840,-3870,242460,894.675,-743.602,18.5399,81,-58,572,18.5399,-762,1830.87
844426,-295.152,-71.2754,875.644,15950,-9880,241650,411.075,-1164.56,114.041,79,-68,574,114.041,-800,1838.62
844438,-304.038,-147.639,882.312,9160,-13610,241120,-346.632,-1291.5,236.223,88,-12,576,236.223,-800,1776.18
844450,-330.944,-194.252,895.507,3300,-12310,242360,-311.397,-561.042,283.873,123,4,578,283.873,-800,1753.77
844455,-337.9,-206.095,901.19,-1810,-7900,244030,-278.252,-473.741,329.752,136,0,579,329.752,-800,1760.45
844466,-357.494,-217.904,910.598,-5230,-4910,245890,-304.938,-129.979,348.646,145,97,581,348.646,-478,1643.09
844490,-369.919,-212.742,958.194,-5710,-910,248600,20.5115,94.315,347.007,201,90,584,347.007,-329,1628.76
844501,-363.96,-203.806,977.09,-4400,-90,249940,142.403,184.295,333.462,216,64,586,333.462,-189,1625.5
844507,-358.757,-198.594,985.498,-2520,-250,251490,173.411,173.75,317.75,247,52,587,317.75,-144,1625.6
844518,-344.59,-187.946,998.976,-1330,30,252890,274.774,197.659,300.714,254,74,589,300.714,-103,1600
844530,-325.303,-178.274,1016.02,690,640,254420,324.852,147.859,285.238,283,75,591,285.238,-137,1600
844541,-308.144,-170.09,1030.4,2760,1430,256300,310.255,139.113,272.143,317,74,593,272.143,-133,1600
844552,-290.924,-162.95,1043.19,4230,2090,258070,318.777,113.352,265.254,353,82,595,265.254,-121,1600
844558,-282.431,-159.825,1049.46,4320,2830,258930,283.116,104.149,255.72,398,103,596,255.72,-151,1600
844569,-269.584,-153.803,1060.71,4460,2800,259500,233.509,124.341,246.085,418,117,598,246.085,-121,1600
844591,-249.905,-144.902,1083.36,5010,3400,261740,170.956,41.5777,231.844,469,127,601,231.844,-190,1600
844602,-242.377,-143.366,1094.05,4460,4320,262470,144.801,44.242,229.386,511,177,603,229.386,-185,1600
844608,-239.687,-142.471,1100.87,4690,4570,262370,89.6685,29.8455,227.954,557,195,604,227.954,-198,1600
844619,-236.908,-143.278,1114.75,3150,4020,261780,18.2315,-42.3294,229.245,595,192,606,229.245,-271,1600
844630,-237.418,-146.225,1126.37,830,2960,261380,-25.9252,-45.6064,233.96,613,224,608,233.96,-279,1600
844642,-239.063,-153.133,1141.93,-710,1830,261000,-37.2741,-129.413,245.013,642,262,610,245.013,-374,1600
844654,-239.935,-162.083,1160.52,-970,920,260560,-6.35159,-140.83,252.572,653,237,612,252.572,-410,1600
844660,-239.278,-165.899,1168.66,-730,160,259880,21.8886,-127.208,265.438,656,201,613,265.438,-392,1600
844672,-237.041,-170.514,1182.87,-850,-370,259400,42.7381,-65.7122,272.822,679,196,615,272.822,-338,1600
844694,-231.433,-170.203,1204.02,-50,-370,259830,91.118,50.8444,272.324,738,218,618,272.324,-221,1600
844700,-228.621,-167.266,1210.21,1080,-130,260060,93.7219,97.8802,267.626,724,183,619,267.626,-169,1600
844712,-221.669,-159.505,1220.21,1740,110,259820,128.317,141.237,255.208,705,136,621,255.208,-113,1600
844723,-215.1,-151.029,1226.14,1630,410,259420,116.925,174.054,241.646,697,117,623,241.646,-67,1600
844734,-209.314,-142.258,1229.98,1210,870,259080,106.217,154.395,227.613,699,112,625,227.613,-73,1600
844746,-203.62,-133.749,1234.45,500,1570,258640,91.9679,132.967,220.38,688,111,627,220.38,-69,1600
844752,-201.143,-130.855,1236.5,60,1670,258460,82.5892,96.4726,209.367,699,123,628,209.367,-112,1600
844764,-194.851,-126.11,1241.7,160,1800,258420,115.27,81.0693,201.775,708,126,630,201.775,-120,1600
844775,-186.512,-122.509,1246.89,930,2040,258770,161.824,71.6047,196.014,713,166,632,196.014,-124,1600
844796,-165.293,-114.327,1263.1,1450,2250,258780,225.247,82.3936,182.923,745,189,633,182.923,-100,1600
844802,-157.902,-111.623,1269.09,2280,2610,258690,246.375,90.1141,178.597,763,204,634,178.597,-88,1600
844813,-142.944,-105.268,1281.1,3130,2820,258390,259.268,118.989,168.429,776,223,636,168.429,-49,1600
844824,-126.795,-98.9145,1295.55,3850,2930,258190,297.995,122.614,158.263,788,225,638,158.263,-35,1600
844836,-108.205,-92.3295,1312.1,4750,2860,258420,316.917,117.793,147.727,820,250,640,147.727,-29,1600
844847,-91.7685,-86.6276,1328.29,5890,2550,258560,296.587,100.069,138.604,866,258,642,138.604,-38,1600
844853,-82.3989,-83.6333,1337.54,6720,2570,258540,312.321,99.81,133.813,908,244,643,133.813,-34,1600
844864,-67.4427,-76.8596,1350.77,7280,3230,258380,291.237,107.372,122.975,939,224,645,122.975,-15,1600
844888,-45.6296,-65.9886,1366.98,7000,3750,257920,128.663,61.5295,105.582,959,145,648,105.582,-44,1600
844898,-41.1807,-65.1081,1366.48,5870,3710,257540,52.8821,7.12974,104.173,964,103,650,104.173,-97,1600
844904,-39.0873,-64.8348,1364.4,4040,3640,256960,69.7799,9.10967,103.736,960,63,651,103.736,-94,1600
844916,-39.2216,-66.2727,1355.11,2300,3520,256380,-7.98375,-35.7556,106.036,959,57,653,106.036,-141,1600
844939,-40.7312,-68.3189,1332.32,-50,2920,254910,-18.0848,-22.1791,109.31,932,27,656,109.31,-131,1600
844950,-38.9532,-68.4489,1320.37,-320,2760,254030,12.0738,4.55639,109.737,907,6,658,109.737,-120,1600
844956,-36.4731,-67.8865,1312.2,-380,2390,253170,82.6728,18.7494,108.618,873,-31,659,108.618,-89,1633
844967,-32.4222,-65.7289,1297.18,-380,2340,252510,86.2075,47.0141,105.166,847,-25,661,105.166,-58,1630
844979,-26.771,-62.1168,1281.17,-530,2340,251810,102.991,74.1495,99.3869,830,-39,663,99.3869,-25,1644
844990,-20.5211,-57.9572,1266.32,-400,2390,251150,105.619,70.776,92.7316,793,-46,665,92.7316,-21,1651
845001,-12.7606,-52.0216,1252.63,-260,2500,250420,134.928,102.965,88.1769,765,-55,667,88.1769,25,1661
845011,-5.79024,-46.237,1240.88,260,2630,249890,139.128,115.294,78.591,753,-48,669,78.591,37,1652
845016,-1.90378,-43.5359,1235.17,500,2780,249560,155.458,108.045,69.6575,733,-55,670,69.6575,38,1661
845027,6.81383,-36.9242,1222.63,770,2740,249370,144.432,129.338,59.0788,708,-69,672,59.0788,70,1673
845038,15.8796,-30.1174,1209.84,660,3030,249060,173.942,120.416,48.1878,693,-68,674,48.1878,72,1673
845050,26.2747,-23.8166,1196.8,520,3310,248980,178.431,97.9112,38.1066,692,-49,676,38.1066,59,1654
845062,38.4089,-18.7903,1185.86,790,3270,249210,212.42,73.0401,33.5704,701,-29,678,33.5704,60,1636
845068,45.1663,-17.2239,1180.3,1370,2790,249680,225.246,52.2135,27.5582,696,-34,679,27.5582,24,1636
845091,71.1525,-10.571,1160.6,2470,2020,250100,232.348,59.4149,16.9137,673,-60,682,16.9137,42,1665
845102,81.0841,-7.25965,1149.08,2820,1680,250130,192.864,53.7787,11.6154,662,-67,684,11.6154,42,1672
845113,88.2514,-3.81057,1136.32,2940,1430,250200,126.226,60.0413,8.49857,657,-81,686,8.49857,56,1686
845118,89.607,-2.538,1130.16,2380,1500,250310,54.2244,50.9028,4.0608,648,-104,687,4.0608,46,1707
845130,91.0422,0.356837,1113.34,1470,1520,250160,25.803,49.9684,-0.57094,636,-116,689,-0.57094,50,1721
845142,90.877,4.68655,1094.47,910,1780,250150,17.3005,83.9909,-7.49848,634,-120,691,-7.49848,91,1722
845153,88.5969,9.51158,1075.48,220,2120,250470,-52.0859,89.6884,-15.2185,634,-134,693,-15.2185,104,1738
845164,84.3159,13.6979,1053.85,-750,2150,250670,-82.4918,68.3672,-18.6349,617,-136,695,-18.6349,104,1747.29
845170,82.5466,15.6789,1041.74,-1610,2200,250890,-58.9778,66.033,-25.0862,592,-127,696,-25.0862,91,1760.61
845193,76.295,20.6778,1003.42,-2110,1960,252530,-57.1872,20.2627,-33.0844,558,-57,699,-33.0844,53,1719.26
845204,74.5948,20.9965,990.838,-1830,1550,253410,-11.6655,3.73721,-33.5945,551,-27,701,-33.5945,37,1700.33
845215,74.1718,22.1419,982.51,-1430,930,253960,-3.6019,23.306,-34.3084,544,-16,703,-34.3084,52,1691.59
845221,72.7825,22.6757,978.686,-1160,760,253920,-46.3103,17.7937,-36.2812,539,-21,704,-36.2812,54,1704.05
845232,71.8019,24.4768,971.352,-720,830,253370,-14.5858,43.5308,-39.1628,532,-39,706,-39.1628,82,1725.92
845254,72.5174,33.5948,949.153,1530,3240,249380,27.5898,53.9765,-53.7516,490,-126,709,-53.7516,107,1831.68
845266,73.5315,34.8702,930.363,830,2900,248750,-0.609115,-3.31785,-55.9515,465,-132,711,-55.9515,101,1846.24
845272,72.6667,34.2899,921.327,460,2480,248870,-28.8254,-19.3417,-54.8639,461,-102,712,-54.8639,35,1832.1
845296,70.2742,22.5315,889.204,1490,1310,246670,-42.3323,-179.637,-36.0504,447,-118,715,-36.0504,-143,1871.9
845307,68.8307,10.9767,871.72,1940,190,244560,-49.5367,-213.271,-27.7998,412,-133,717,-27.7998,-178,1892.95
845312,67.2632,5.01875,863.234,1670,-1170,242360,-62.6977,-238.319,-8.03,402,-126,718,-8.03,-230,1902.37
845323,62.4918,-8.5097,846.418,740,-2330,240290,-119.748,-244.96,13.6155,380,-134,720,13.6155,-258,1922.26
845334,54.478,-18.9316,829.379,-130,-2430,238600,-159.032,-167.465,30.2905,361,-136,722,30.2905,-197,1939.43
845346,42.4685,-23.7081,810.849,-960,-1530,237210,-212.335,-48.2263,37.933,335,-125,724,37.933,-86,1944.84
845358,30.7418,-20.8156,796.047,-1590,-10,236110,-179.335,77.2596,37.0134,287,-105,726,37.0134,-17,1933.07
845363,26.002,-17.8125,791.129,-1510,1500,235290,-189.594,120.124,28.5,272,-78,727,28.5,91,1915.65
845374,19.8493,-7.55824,783.752,-440,3300,234750,-89.5071,216.639,12.0932,269,-32,729,12.0932,204,1877.9
845385,19.5709,2.59761,781.237,1030,4190,234460,27.6238,171.101,-4.15618,287,2,731,-4.15618,175,1842.06
845408,34.1337,8.29459,782.225,3480,2560,234430,162.845,-56.0663,-13.2713,299,-23,734,-13.2713,-42,1866.46
845414,39.5139,5.42012,781.515,4500,1400,235060,179.34,-95.8155,-8.67219,299,-16,735,-8.67219,-87,1861.21
845426,46.4747,-7.20095,779.833,4850,-100,236020,105.374,-232.555,11.5215,304,-16,737,11.5215,-244,1859.7
845437,47.6156,-22.9995,778.329,3930,-1320,236980,-8.12722,-314.883,36.7991,294,-18,739,36.7991,-351,1866.09
845459,24.6836,-59.2427,775.255,470,-3640,238860,-309.48,-300.565,94.7883,258,-17,742,94.7883,-395,1865.89
845470,3.46507,-70.278,774.91,-1480,-3570,239510,-400.457,-179.505,103.829,260,-32,744,103.829,-329,1879.92
845476,-10.473,-72.8778,774.179,-3310,-2680,239790,-464.601,-86.6588,116.604,248,-42,745,116.604,-203,1891.24
845487,-35.7627,-70.3243,772.626,-4400,-780,239780,-449.692,102.176,112.519,230,-47,747,112.519,-10,1899.86
845498,-58.1187,-57.8601,771.367,-4230,1910,239790,-382.172,255.326,92.5762,221,-49,749,92.5762,162,1903.22
845519,-78.6738,-19.432,769.513,-1360,5840,240240,-80.3766,369.71,31.0913,209,-62,752,31.0913,338,1918.5
845551,-54.2548,6.49827,769.023,4820,4240,240300,214.123,-62.485,-10.3972,219,-15,757,-10.3972,-52,1873.8
845561,-46.7201,-5.98348,770.298,4910,760,239770,128.024,-306.786,9.57357,230,-4,759,9.57357,-316,1860.94
845572,-45.1334,-27.2968,771.731,3720,-2720,239260,-3.3178,-405.617,27.4502,236,-10,761,27.4502,-399,1865.38
845578,-48.6685,-40.1667,772.409,1810,-4940,239090,-117.836,-428.998,64.2668,236,-9,762,64.2668,-493,1864.57
845588,-61.5428,-59.8079,773.941,-870,-5700,239220,-298.92,-369.923,95.6926,235,-6,764,95.6926,-465,1859.5
845612,-117.509,-71.7292,780.221,-4920,-2980,239130,-503.68,98.6045,114.767,234,-19,767,114.767,-16,1868.79
845623,-144.572,-56.8833,782.028,-5400,420,238840,-463.49,330.73,91.0133,225,-31,769,91.0133,239,1879.55
845629,-156.024,-43.5276,783.213,-4840,4410,238780,-381.737,445.189,69.6442,235,-23,770,69.6442,375,1870.81
845640,-170.577,-16.2748,785.111,-3130,7440,238840,-222.095,501.722,26.0397,240,-18,772,26.0397,475,1864.44
845651,-172.054,10.0287,786.661,-500,8980,239070,28.3632,459.048,-16.0459,249,-17,774,-16.0459,475,1862.35
845674,-139.858,29.4083,789.158,4520,6230,239120,386.355,-28.2464,-48.4091,278,-15,778,-48.4091,157,1860.62
845680,-128.27,23.7252,788.786,6440,2330,238750,386.266,-189.437,-37.9603,290,-10,779,-37.9603,-151,1852.97
845704,-101.526,-32.9861,785.967,5860,-4150,237970,27.3748,-584.968,52.7778,353,20,782,52.7778,-637,1827.25
845710,-105.376,-51.7409,784.719,2870,-6770,237900,-128.339,-625.159,82.7854,355,6,783,82.7854,-707,1841.25
845721,-124.692,-82.7167,782.164,-1180,-8060,238060,-430.577,-543.586,132.347,352,-1,785,132.347,-675,1850.35
845732,-158.748,-104.978,778.517,-5370,-7680,238320,-677.669,-312.453,167.964,343,-6,787,167.964,-480,1857.36
845743,-200.967,-110.458,775.219,-8380,-4300,238380,-787.418,-25.7041,176.734,331,-4,789,176.734,-202,1860.12
845754,-242.087,-95.1438,773.564,-9380,490,238200,-724.76,358.052,152.23,317,-9,791,152.23,205,1865.58
845766,-275.886,-59.8808,771.719,-9790,5250,238040,-489.223,648.795,126.951,288,-22,793,126.951,399,1879.31
845772,-284.556,-38.0429,771.305,-8040,9190,238110,-289.008,727.93,60.8686,280,-6,794,60.8686,667,1866.79
845783,-283.861,3.34312,772.394,-2740,12680,239040,124.296,738.366,-5.34899,300,20,796,-5.34899,743,1838.98
845806,-220.089,50.2482,780.377,7850,13890,241170,733.957,107.984,-80.3972,317,13,799,-80.3972,188,1838.6
845817,-178.16,32.0077,783.192,11940,8010,240880,740.357,-445.134,-72.5788,331,25,801,-72.5788,-122,1826.66
845823,-156.849,9.93969,785.13,14180,-1530,239450,710.372,-735.6,-15.9035,376,23,802,-15.9035,-719,1823.71
845834,-132.704,-49.1588,784.819,13070,-8690,238150,324.275,-1160.44,78.6541,391,8,804,78.6541,-800,1840.96
845846,-140.01,-123.961,783.881,7100,-10320,238100,-287.493,-1261.18,198.337,385,12,806,198.337,-800,1836.73
845857,-181.27,-188.392,783.528,-2150,-10580,238880,-879.231,-1126.04,301.427,374,7,808,301.427,-800,1842.02
845868,-242.001,-235.369,785.215,-8400,-10650,239260,-1153.87,-740.958,346.953,376,22,810,346.953,-800,1826.61
845874,-278.018,-250.446,786.583,-9910,-10490,238840,-1200.57,-502.563,400.714,362,14,811,400.714,-800,1830.54
845897,-398.055,-220.695,794.34,-14000,-6500,237990,-669.47,751.925,353.112,370,105,814,353.112,398,1735.07
845909,-407.02,-155.052,809.104,-11140,-2270,238040,-138.101,1092.83,300.54,387,95,816,300.54,794,1738.71
845915,-408.069,-131.266,818.493,-8860,1540,239440,-34.9779,792.876,210.026,428,138,817,210.026,582,1682.6
845926,-401.624,-103.149,839.039,-6610,2500,240590,131.004,454.227,165.039,462,166,819,165.039,289,1636.3
845936,-391.356,-87.4578,859.878,-3530,2250,242160,217.729,267.565,139.933,512,151,821,139.933,127,1633.62
845958,-356.134,-63.9792,897.567,1570,840,245300,428.529,165.377,102.367,558,146,824,102.367,63,1603.41
845969,-330.824,-58.3088,915.359,5150,770,247970,450.545,52.1141,93.2941,560,111,826,93.2941,-41,1626.14
845980,-303.55,-58.6218,929.742,8530,1330,250140,502.114,9.24023,94.1646,553,82,828,94.1646,-112,1647.08
845990,-278.038,-58.6534,939.729,11340,1440,251670,491.16,11.1401,94.2911,535,37,830,94.2911,-106,1680.18
845996,-262.53,-58.4975,943.451,13690,1430,252980,516.911,5.19607,93.596,508,28,831,93.596,-88,1684.03
846007,-230.408,-59.6252,949.91,15840,2100,261360,593.067,-35.8126,95.4004,485,0,833,95.4004,-131,1706.21
846018,-198.563,-59.0685,952.332,9600,2600,247910,570.912,14.7022,94.5097,471,-282,835,94.5097,-79,1986.25
846029,-161.143,-54.5362,924.055,-8930,5530,230160,752.024,111.334,87.2579,425,-707,837,87.2579,24,2100
846051,-121.668,-51.7968,777.082,-28330,8410,223310,249.385,-62.095,82.8749,181,-716,840,82.8749,-144,2100
846062,-101.912,-51.6871,707.108,-25400,8060,228160,379.073,-2.26,82.609,61,-912,842,82.609,-77,2100
846068,-87.8281,-48.5665,659.454,-28690,7650,231050,469.48,104.021,77.7064,-66,-1358,843,77.7064,26,2100
846080,-54.0728,-34.5344,519.021,-35550,8940,233530,562.04,263.19,55.2551,-250,-1680,845,55.2551,207,2100
846092,-29.6475,-15.2164,344.41,-39630,10220,235880,383.513,300.309,38.7611,-483,-1613,847,38.7611,304,2100
846097,-21.3128,-8.11285,276.385,-29690,10340,240570,333.387,284.144,12.9806,-687,-1003,848,12.9806,271,2100
846109,-23.6626,6.6847,176.427,-20420,7240,243340,-222.455,253.302,-10.6955,-800,-923,850,-10.6955,263,2100
846119,-34.0473,16.3759,132.648,-14350,5570,243730,-307.913,210.017,-26.2015,-871,-851,852,-26.2015,236,2100
846130,-43.0618,16.42,100.104,-10440,4140,242030,-186.773,-55.0933,-26.2719,-913,-683,854,-26.2719,-28,2100
846142,-44.3174,4.95485,82.0569,-7880,4470,240590,40.1692,-220.008,-7.92776,-917,-560,856,-7.92776,-212,2100
846153,-43.7558,1.32237,80.0317,-8120,2700,240220,19.0768,-3.95732,-2.11579,-907,-526,858,-2.11579,-1,2100
846164,-45.8475,2.1514,78.0731,-670,2360,240870,-109.84,69.2714,-0.671386,-872,-503,860,-0.671386,-29,2100
846170,-50.3808,1.28491,76.339,1830,5840,241710,-151.111,-28.8831,-2.05585,-840,-452,861,-2.05585,-26,2100
846181,-51.2379,-1.42324,76.6992,-1270,1740,241980,57.5202,-42.7903,2.27718,-823,-396,863,2.27718,-45,2100
