timestamp,x,y,z,pitch,roll,yaw,vx,vy,vz,battery,cpu_load,vicon_count,set_position,set_velocity,calc_thrust
0,0,0,0,0,0,0,0,0,0,0,0,0,0,0,0
0,0,0,0,600,650,260560,0,0,500,-2508,88,0,500,-640,2007
3354236,24.6412,-595.22,73.2999,610,660,260450,0.00146926,-0.0354907,500,-2496,95,1,500,-653,2001
3354248,24.7679,-595.239,73.4409,590,650,260330,0.939183,1.0458,500,-2484,100,3,500,-673,1995
3354259,24.7188,-595.251,73.4488,590,600,260230,0.0514392,0.11195,500,-2483,95,5,500,-694,2000
3354270,24.7324,-595.268,73.4375,620,630,260130,3.6018,-1.45913,500,-2484,94,7,500,-715,2001
3354282,24.7277,-595.234,73.4132,640,620,260030,-0.562023,0.759092,500,-2489,88,9,500,-733,2007
3354292,24.7156,-595.271,73.4326,690,620,259930,-0.17014,-0.814186,500,-2491,83,11,500,-754,2012
3354298,24.7041,-595.249,73.4472,700,600,259820,-0.38392,0.731203,500,-2495,80,12,500,-773,2015
3354309,24.7356,-595.282,73.4339,740,590,259720,1.27626,0.793312,500,-2499,78,14,500,-790,2017
3354320,24.6915,-595.265,73.4343,720,590,259620,1.86402,-1.45639,500,-2505,73,16,500,-793,2022
3354331,24.7052,-595.307,73.4701,690,570,259520,-0.491382,-1.26582,500,-2509,70,18,500,-793,2024
3354342,24.711,-595.324,73.4527,700,590,259410,0.137498,-0.650689,500,-2511,63,19,500,-792,2031
3354348,24.7114,-595.32,73.4565,690,560,259310,0.0134335,0.116459,500,-2513,61,20,500,-791,2034
3354360,24.7321,-595.332,73.4568,720,520,259210,0.876779,-0.273062,500,-2517,59,22,500,-791,2036
3354367,24.6972,-595.337,73.4551,720,510,259100,-3.39776,2.09503,500,-2512,64,24,500,-789,2031
3354394,24.7218,-595.34,73.4386,720,610,258900,0.71821,-0.206767,500,-2516,60,27,500,-790,2035
3354400,24.7525,-595.347,73.4727,670,560,258800,1.02337,-0.235734,500,-2515,60,28,500,-791,2036
3354412,24.7596,-595.335,73.4579,640,580,258700,0.264771,-0.581897,500,-2521,58,30,500,-791,2037
3354424,24.6445,-595.293,73.3232,620,540,258590,-3.06808,1.53192,500,-2521,58,31,500,-789,2037
3354430,24.7516,-595.361,73.4411,620,590,258490,3.56991,-2.26137,500,-2527,51,32,500,-793,2043
3354441,24.7122,-595.344,73.4373,630,600,258390,0.30434,-0.444117,500,-2536,46,34,500,-791,2049
3354452,24.5958,-595.309,73.3295,580,570,258290,-4.45644,3.08362,500,-2553,37,36,500,-787,2058
3354463,24.7226,-595.327,73.447,530,590,258180,-1.54658,-0.0264547,500,-2564,29,38,500,-790,2066
3354474,24.696,-595.306,73.4393,480,610,258080,-0.0329606,-0.193221,500,-2565,28,40,500,-790,2067
3354486,24.7068,-595.3,73.4597,430,580,257980,-0.725952,0.231441,500,-2568,28,42,500,-790,2067
3354492,24.7141,-595.298,73.4458,390,530,257880,0.244335,0.0667636,500,-2564,28,43,500,-790,2067
3354504,24.7082,-595.319,73.4289,380,520,257780,0.0800628,-0.57112,500,-2557,32,45,500,-791,2063
3354515,24.7957,-595.262,73.4768,370,520,257670,2.86174,1.86724,-500,-2546,39,47,-500,407,2056
3354527,24.7092,-595.297,73.4357,370,530,257570,0.301028,1.17956,-500,-2547,38,49,-500,421,2057
3354533,24.6762,-595.264,73.3977,360,540,257480,-1.10052,1.09734,-500,-2547,39,50,-500,446,2056
3354557,24.6853,-595.282,73.4655,340,580,257270,-0.760681,-0.911255,-500,-2536,43,53,-500,485,2052
3354563,24.7949,-595.579,73.3292,370,570,257160,3.65059,-9.89641,-500,-2543,37,54,-500,495,2058
3354575,24.7723,-595.582,73.3146,350,590,257060,-0.102533,0.144645,-500,-2546,34,56,-500,526,2061
3354598,24.8361,-595.492,73.3362,140,430,248940,0.509768,1.24338,-500,-195,-113,59,-500,567,2100
3354604,24.8154,-595.022,73.5738,230,420,248530,-0.689516,15.6866,-500,-231,-141,60,-500,604,2100
3354615,25.0868,-595.197,73.3016,350,480,249270,-10.1705,-22.9503,-500,-226,-148,62,-500,578,2100
3354638,24.834,-594.953,73.2281,340,430,249680,-8.25618,6.33207,-500,-235,-177,65,-500,652,2100
3354649,24.9612,-594.499,73.8729,370,380,249770,-4.86472,34.1879,-500,-277,-212,67,-500,650,2100
3354655,25.1062,-595.113,73.4547,420,360,249860,4.83417,-20.4608,-500,-306,-242,68,-500,663,2100
3354667,24.9176,-595.009,73.5896,490,330,249970,-6.49668,4.91759,-500,-324,-270,70,-500,712,2100
3354678,25.0222,-595.199,73.4124,750,630,250050,2.67732,24.1692,-500,-350,-294,72,-500,755,2100
3354700,24.765,-596.472,89.0975,5180,6880,251460,21.5277,13.0131,-500,-170,9,75,-500,783,2086
3354710,33.0124,-593.924,128.217,6120,10180,253290,219.162,83.4588,-500,-81,645,77,-500,800,1600
3354716,40.2177,-590.555,179.225,7970,11810,253790,240.176,112.303,-500,-44,711,78,-500,800,1600
3354727,53.5662,-588.221,283.101,8010,10790,253620,197.036,7.03739,-500,44,768,80,-500,800,1600
3354738,53.1096,-593.684,396.573,7420,8410,252960,-47.9329,-102.351,-500,155,808,82,-500,672,1600
3354749,49.3514,-598.643,515.666,6150,7500,252920,-73.7369,-41.535,-500,297,812,84,-500,740,1600
3354770,42.4109,-596.44,740.598,4430,8160,254730,-59.5537,50.2981,-500,545,709,87,-500,800,1600
3354782,37.6397,-590.507,856.366,3980,8660,255850,-77.2881,106.893,-500,677,611,89,-500,800,1600
3354788,35.0697,-587.272,908.948,3820,9380,256690,-85.6673,107.843,-500,771,485,90,-500,800,1600
3354798,32.8276,-581.91,985.385,3480,9270,257470,-42.3656,88.9409,-500,861,319,92,-500,800,1600
3354809,31.1498,-576.999,1051.38,3550,9590,258160,-6.88823,102.232,-500,944,222,94,-500,800,1600
3354842,44.1373,-565.844,1163.62,6370,11010,258550,139.169,47.2552,-500,1037,-63,98,-500,800,1678.36
3354853,49.6565,-563.892,1180.63,7070,12070,258720,97.2434,31.7241,-500,1030,-116,100,-500,800,1733.73
3354859,53.1709,-563.298,1187.35,7170,12580,258610,117.147,19.8058,-500,1049,-125,101,-500,800,1745.24
3354870,59.3332,-563.743,1197.24,7390,13090,258320,110.416,-16.3061,-500,1068,-152,103,-500,800,1771.82
3354894,73.6962,-569.692,1207.54,7550,13780,257180,120.812,-64.1242,-500,1081,-159,106,-500,795,1779.24
3354900,75.8449,-572.707,1209.18,7130,13570,256290,71.622,-100.491,-500,1077,-157,107,-500,699,1776.95
3354911,78.6734,-578.162,1211.42,6620,12960,255430,38.1232,-100.392,-500,1082,-131,109,-500,694,1750.56
3354923,78.5378,-583.687,1216.29,6300,11620,255190,-28.291,-88.0826,500,1096,-82,111,500,-501,1703.01
3354935,73.311,-586.762,1227.53,3940,6070,255070,-124.566,-39.6493,500,1104,-17,113,500,-481,1635.1
3354945,69.6552,-588.607,1241.98,3150,2340,255430,-74.3802,-55.6094,500,1116,-9,115,500,-467,1628.04
3354951,67.1257,-590.47,1251.09,3290,890,255860,-84.3169,-62.0832,500,1146,-29,116,500,-543,1637.97
3354963,62.4682,-590.621,1268.21,3470,40,256430,-93.0659,11.849,500,1169,-64,118,500,-479,1678.04
3354985,45.2521,-578.465,1293.2,2850,-1430,256650,-182.114,142.112,500,1231,-57,121,500,-378,1668.33
3354996,35.2641,-568.435,1303.79,2480,-1760,256790,-182.213,188.029,500,1231,-116,123,500,-339,1727.64
3355007,26.2007,-556.945,1308.92,2380,-1690,256650,-139.287,208.483,500,1231,-141,125,500,-329,1752.19
3355012,22.5152,-552.192,1310.46,2360,-1980,256220,-147.422,190.138,500,1277,-118,126,500,-357,1726.76
3355024,14.8149,-541.574,1314.28,2220,-2390,256030,-111.839,169.606,500,1304,-133,128,500,-389,1744.32
3355034,10.4362,-533.062,1314.6,2300,-2270,255900,-81.3653,170.886,500,1309,-113,130,500,-395,1720.83
3355045,6.12307,-524.924,1316.22,1840,-2400,255770,-73.0211,137.178,500,1302,-138,132,500,-448,1748.39
3355055,3.36152,-517.984,1316.74,2070,-2210,255590,-42.7122,141.221,500,1334,-112,134,500,-453,1724.95
3355067,1.69871,-509.748,1318.45,2210,-1810,255470,-28.1886,135.231,500,1342,-88,136,500,-474,1696.31
3355078,1.18773,-502.94,1321.6,2260,-1500,255200,-1.15487,123.201,500,1349,-96,138,500,-500,1702.62
3355084,1.4362,-499.966,1322.88,2510,-1540,255010,8.28224,99.1242,500,1335,-111,139,500,-542,1718.04
3355095,2.29304,-495.26,1324.71,2470,-2040,254890,15.552,78.9447,500,1349,-98,141,500,-581,1704.46
3355105,2.87264,-492.582,1326.45,2260,-2680,254840,5.90627,40.1261,500,1364,-99,143,500,-646,1704.85
3355127,4.9149,-490.808,1329.63,2180,-3330,254810,21.7631,11.8649,500,1349,-109,146,500,-715,1711
3355139,5.39401,-489.962,1330.74,1920,-3440,254860,1.44944,18.7413,500,1360,-104,148,500,-739,1711
3355145,5.73466,-489.595,1331.32,1800,-3550,254820,11.3548,12.2399,500,1370,-99,149,500,-755,1706
3355155,5.72244,-489.446,1331.64,2060,-3560,254720,0.90643,2.62036,500,1324,-114,151,500,-783,1719
3355178,6.52718,-487.28,1335.36,1850,-4100,254620,31.4804,34.8389,500,1367,-106,154,500,-741,1710
3355189,6.8915,-485.609,1335.63,1800,-4020,254540,9.99109,32.0506,500,1350,-91,156,500,-748,1696
3355195,7.14834,-484.935,1336.9,1550,-4170,254540,8.56116,22.4681,500,1379,-76,157,500,-759,1682
3355206,7.67637,-483.114,1339.11,1300,-4100,254430,11.3776,40.0089,500,1399,-88,159,500,-738,1693
3355217,9.27039,-481.134,1338.97,1480,-3770,254310,33.7428,37.0672,500,1385,-91,161,500,-739,1695
3355228,9.5737,-479.861,1339.07,1570,-3700,254300,3.86772,33.1411,500,1386,-89,163,500,-748,1694
3355240,9.92891,-478.384,1338.3,1370,-3950,254320,5.61557,29.7957,500,1366,-84,165,500,-752,1690
3355251,10.1369,-477.166,1338.99,1330,-4120,254260,8.29329,24.1286,500,1399,-66,167,500,-764,1670
3355256,10.4829,-476.911,1339.24,1080,-4370,254300,13.8397,10.1716,500,1422,-61,168,500,-774,1669
3355268,10.4586,-475.219,1338.51,980,-4480,254310,-0.25508,31.6943,500,1452,-34,170,500,-750,1639
3355280,10.4021,-473.677,1339.19,1020,-4380,254280,4.26743,23.7729,500,1461,-46,172,500,-759,1651
3355291,10.166,-472.094,1338.35,780,-4610,254260,-3.64795,28.676,500,1441,-37,174,500,-755,1642
3355303,9.93402,-470.6,1339.65,340,-5010,254250,0.416579,23.6885,500,1430,-52,176,500,-758,1658
3355308,9.6943,-470.238,1339.61,330,-5150,254140,-9.58853,14.4709,500,1419,-49,177,500,-773,1654
3355320,8.74208,-469.327,1339.84,190,-5080,254210,-25.973,14.027,500,1416,-52,179,500,-775,1658
3355330,7.72119,-468.301,1340.16,840,-3100,254150,-20.6975,9.7195,-500,1432,-17,181,-500,431,1625
3355353,5.34253,-470.046,1342.58,4380,3320,254330,-10.1632,-31.5507,-500,1447,-25,183,-500,423,1628
3355363,3.97749,-472.739,1342.8,5100,4540,254550,-30.4118,-62.9345,-500,1434,-19,185,-500,424,1624
3355374,3.44079,-476.154,1342.87,5420,5330,254660,-3.93048,-73.9461,-500,1424,-15,187,-500,435,1620
3355380,2.79518,-478.999,1343.29,5860,6050,254870,-21.5205,-94.8418,-500,1416,-17,188,-500,400,1622
3355390,3.35578,-483.671,1342.9,5950,6580,255030,-0.391681,-90.6024,-500,1418,0,190,-500,423,1606
3355401,2.99328,-488.863,1342.51,5800,7020,255280,-7.94728,-103.723,-500,1424,0,192,-500,423,1605
3355411,3.28653,-494.377,1341.05,5840,7240,255500,9.93044,-112.362,-500,1402,0,194,-500,430,1605
3355423,2.22348,-502.199,1339.63,5400,7140,255710,-19.0719,-139.281,-500,1387,1,196,-500,409,1605
3355435,1.54501,-512.308,1337.14,5110,7070,255930,-5.68394,-182.65,-500,1369,-9,198,-500,373,1614
3355440,1.69428,-517.331,1335.68,4870,7120,256110,5.97077,-200.916,-500,1360,-8,199,-500,365,1615
3355452,-0.277852,-532.138,1331.34,4720,7020,256350,-57.9093,-266.538,-500,1362,9,201,-500,289,1600
3355464,-2.97606,-551.94,1326.63,4250,6300,256910,-54.2576,-347.172,-500,1355,12,203,-500,200,1600
3355476,-6.99495,-576.03,1321.06,3610,5390,257950,-66.507,-430.086,-500,1332,8,205,-500,104,1600
3355481,-8.68842,-587.311,1318.66,2860,4480,258600,-67.739,-451.264,-500,1335,34,206,-500,80,1600
3355492,-13.3619,-616.064,1314.91,1940,3650,259000,-85.5369,-543.758,-500,1351,45,208,-500,-34,1600
3355516,-28.4138,-693.464,1308.09,1080,1470,258990,-115.19,-692.366,-500,1359,33,211,-500,-228,1600
3355527,-36.6054,-735.9,1303.24,890,40,258510,-149.124,-786.833,-500,1359,16,213,-500,-356,1600
3355537,-45.9564,-778.503,1296.71,60,-1770,258080,-195.785,-865.112,-500,1373,25,215,-500,-436,1600
3355543,-52.1664,-804.926,1292.56,-700,-3520,257830,-207.001,-880.782,-500,1367,33,216,-500,-506,1600
3355555,-63.6637,-856.066,1284.97,-1140,-4470,257580,-187.07,-829.385,-500,1345,5,218,-500,-458,1600
3355566,-72.691,-896.243,1276.3,-1270,-4840,257540,-133.944,-704.546,-500,1293,-16,220,-500,-314,1620
3355578,-79.7185,-925.375,1266.36,-460,-4020,256770,-68.9761,-420.94,-500,1250,-69,222,-500,27,1674
3355583,-79.209,-931.82,1260.33,1020,-1620,256110,20.3793,-257.821,-500,1218,-42,223,-500,241,1647
3355594,-80.385,-938.477,1251.87,2440,1430,255510,-29.3377,-68.1434,-500,1208,-34,225,-500,473,1642
3355606,-77.1376,-938.279,1241.85,4380,3880,255240,61.2274,44.708,-500,1199,24,227,-500,643,1600
3355628,-69.7652,-933.756,1235.96,6120,7280,254980,25.9692,-25.3885,-500,1192,70,230,-500,605,1600
3355639,-69.3262,-937.513,1236.27,5600,7290,254980,-1.9135,-66.85,-500,1198,67,232,-500,570,1600
3355645,-70.1712,-941.315,1236.1,4810,7170,255150,-28.1647,-126.731,-500,1194,49,233,-500,513,1600
3355668,-76.5427,-952.818,1229.8,3570,6900,255480,-94.9039,-60.8701,-500,1173,53,236,-500,611,1600
3355678,-78.6394,-955.697,1227.28,3520,6960,255570,-70.3704,-30.83,-500,1184,76,238,-500,671,1600
3355690,-80.2861,-955.579,1225.28,3670,7080,255460,-24.8983,3.76127,-500,1193,95,240,-500,734,1600
3355696,-81.393,-955.03,1224.73,4050,7430,255370,-36.8981,18.3061,-500,1190,92,241,-500,772,1600
3355707,-83.5199,-953.536,1223.63,4450,7760,255190,-39.9405,26.7116,-500,1186,98,243,-500,800,1600
3355718,-84.8088,-951.888,1222.93,4540,8190,255010,-37.3119,50.2749,-500,1183,94,245,-500,800,1600
3355730,-85.0963,-953.161,1221.43,4290,8290,254800,-2.34827,-23.0917,500,1190,101,246,500,-440,1600
3355736,-85.4592,-954.435,1220.88,2670,5080,254200,-12.0957,-42.4586,500,1200,129,247,500,-485,1600
3355748,-84.8361,-956.47,1220.35,840,1740,253590,19.3904,-46.0847,500,1215,107,249,500,-508,1600
3355770,-79.4236,-954.656,1206.98,1920,-4560,249510,71.52,59.1196,500,1219,-122,252,500,-419,1717
3355781,-77.4166,-944.941,1178.21,1920,-4310,245910,27.7398,214.917,500,1208,-192,254,500,-246,1797
3355787,-77.092,-935.904,1158.8,1260,-1940,242380,10.817,301.222,500,1181,-203,255,500,-148,1807
3355799,-79.2347,-910.856,1118.35,560,780,239440,-57.2082,456.467,500,1164,-200,257,500,49,1805
3355822,-84.5408,-858.772,1036.58,-190,3400,235920,-32.8743,412.525,500,1101,-220,260,500,6,1854.75
3355833,-84.5227,-840.137,996.171,-190,2630,235200,7.54305,315.965,500,1071,-191,262,500,-117,1862.23
3355838,-82.8591,-834.358,978.185,-80,760,234970,66.5413,231.13,500,1046,-159,263,500,-239,1843.74
3355849,-78.5181,-824.394,941.186,180,-1290,235030,85.9134,170.559,500,1030,-135,265,500,-326,1848.47
3355859,-73.3512,-816.409,909.395,400,-2560,235200,93.3724,190.382,500,1002,-121,267,500,-320,1860.07
3355870,-67.1219,-806.11,876.281,680,-2540,235390,119.897,193.786,500,981,-100,269,500,-336,1865.76
3355893,-59.9898,-769.135,815.044,700,-910,235670,44.7511,365.018,500,901,-77,272,500,-138,1891.27
3355904,-59.2103,-747.453,790.2,360,100,235770,8.42212,391.814,500,882,-43,274,500,-103,1877.42
3355910,-59.8531,-735.041,778.402,20,590,235860,-21.4287,413.725,500,870,-9,275,500,-73,1855.04
3355921,-59.6526,-713.813,760.257,-290,610,235960,-3.09972,390.02,500,858,2,277,500,-109,1857.71
3355945,-55.4764,-673.956,728.125,-370,-450,236110,59.7298,319.646,500,798,14,280,500,-220,1869.75
3355956,-50.5035,-656.421,716.837,100,-830,236130,104.413,310.408,500,777,14,282,500,-220,1875.16
3355962,-47.4941,-646.419,711.31,720,-1250,236080,100.315,333.418,500,747,13,283,500,-230,1886.71
3355974,-41.7534,-625.172,701.596,1330,-990,236000,79.7855,353.371,500,725,22,285,500,-208,1885.78
3355985,-38.2709,-604.039,695.327,1460,-500,235980,50.154,388.266,500,722,36,287,500,-167,1876.08
3355991,-37.29,-591.878,692.801,800,-50,235930,32.6964,405.367,500,721,38,288,500,-147,1876.33
3356003,-37.623,-567.496,689.51,160,130,235790,-13.4413,423.014,500,706,31,290,500,-117,1886.23
3356015,-39.8398,-543.888,687.361,-420,230,235610,-39.6302,396.341,500,698,44,292,500,-143,1875.22
3356026,-41.6189,-521.961,687.569,-700,260,235470,-24.0457,397.95,500,690,36,294,500,-147,1883.29
3356032,-41.3804,-510.678,687.471,-740,90,235410,7.95292,376.108,500,680,33,295,500,-185,1886.66
3356044,-39.7427,-487.971,688.487,-180,-450,235410,32.5899,378.982,500,685,45,297,500,-193,1874.1
3356067,-32.823,-443.126,693.346,420,-1300,235480,58.8623,411.434,500,676,33,300,500,-175,1881.7
3356078,-30.4596,-419.178,696.155,720,-890,235480,38.9916,439.516,500,663,30,302,500,-153,1885.95
3356084,-29.8084,-404.782,698.714,690,-230,235410,21.7068,479.859,500,652,29,303,500,-91,1882.97
3356094,-29.447,-380.442,703.907,520,640,235300,4.70995,474.735,500,649,33,305,500,-92,1875.04
3356105,-29.961,-353.784,711.177,310,880,235220,-10.7601,480.992,500,647,29,307,500,-80,1873.45
3356116,-30.5719,-328.456,719.482,-130,900,235340,-8.55409,436.211,500,654,35,309,500,-132,1860.97
3356127,-29.6931,-304.233,728.494,-380,160,235600,25.2711,440.844,500,654,18,311,500,-140,1869.91
3356139,-26.9874,-278.632,736.611,1290,2790,235970,55.9632,418.612,-500,658,19,313,-500,800,1864.61
3356149,-22.9466,-258.422,744.25,4640,11510,236780,88.3031,390.96,-500,661,34,315,-500,800,1844.62
3356155,-20.4069,-251.305,749.924,6040,14920,237150,84.6561,237.234,-500,656,46,316,-500,800,1826.09
3356166,-17.5218,-258.274,762.557,5360,14770,236960,52.3275,-239.89,-500,642,42,318,-500,320,1818.93
3356178,-17.0026,-300.733,776.413,2630,7750,236310,-4.98558,-853.557,-500,645,43,320,-500,-368,1806.75
3356190,-17.9126,-373.373,788.175,-780,-2880,235940,-29.353,-1290.44,-500,673,26,322,-500,-800,1815.23
3356196,-19.4704,-413.07,792.382,-2860,-9340,235900,-51.926,-1323.26,-500,697,7,323,-500,-800,1830.83
3356211,-25.2431,-499.174,801.116,-3640,-10680,235670,-92.6915,-988.19,-500,718,5,326,-500,-762,1828.04
3356217,-28.4558,-521.608,804.62,-3300,-8660,235240,-107.091,-747.784,-500,745,5,327,-500,-300,1821.98
3356228,-34.5149,-544.623,810.642,-1450,-1480,234880,-108.252,-325.007,-500,745,-13,329,-500,184,1835.14
3356239,-40.0977,-549.991,814.601,610,5490,234840,-89.1228,-36.1561,-500,744,-23,331,-500,520,1843.02
3356250,-42.99,-553.254,817.569,1870,9510,234880,-40.3873,-80.661,-500,743,-19,332,-500,472,1837.7
3356262,-41.753,-570.533,820.843,2540,9370,234880,28.0386,-371.128,-500,757,-7,334,-500,328,1823.55
3356268,-40.3792,-587.005,822.683,2300,6100,234780,45.792,-549.044,-500,758,-17,335,-500,-70,1830.57
3356278,-36.5947,-625.92,823.893,960,330,234710,67.4385,-840.176,-500,761,-26,337,-500,-417,1836.6
3356289,-33.6892,-678.594,823.565,-320,-3880,234820,42.6404,-978.994,-500,782,-36,339,-500,-583,1847.92
3356300,-33.3496,-730.311,821.056,-1200,-5620,234980,-9.80782,-914.428,-500,782,-45,341,-500,-509,1860.05
3356311,-35.4116,-772.857,817.999,-1720,-4450,235140,-46.643,-720.939,-500,788,-38,343,-500,-290,1855.63
3356323,-40.1189,-806.028,815.426,-1590,-1310,235290,-74.4921,-502.52,-500,786,-31,345,-500,-150,1850.03
3356329,-42.4302,-818.412,814.218,-880,1840,235500,-77.0437,-412.817,-500,795,-23,346,-500,65,1842.83
3356339,-43.9427,-836.561,812.595,390,4080,235810,-16.6338,-354.444,-500,796,-24,348,-500,116,1846.19
3356363,-39.9778,-892.054,804.764,960,3820,236270,55.8051,-566.056,-500,805,-35,351,-500,-141,1862.63
3356374,-35.6772,-928.511,799.042,590,1320,236410,76.6215,-687.103,-500,787,-31,353,-500,-231,1863.87
3356379,-34.0741,-946.898,796.551,260,-1090,236470,64.1244,-735.482,-500,780,-24,354,-500,-350,1860.5
3356391,-30.2506,-990.906,791.315,50,-2560,236500,62.4166,-730.521,-500,788,-14,356,-500,-355,1855.84
3356402,-29.4691,-1027.4,787.279,180,-2410,236520,-3.64358,-638.931,-500,791,-18,358,-500,-236,1861.18
3356424,-35.0181,-1083.33,776.34,370,800,236470,-85.3943,-449.439,-500,785,-20,361,-500,2,1871.25
3356435,-40.481,-1107.18,770.201,150,2370,236210,-99.619,-433.265,-500,771,-26,363,-500,29,1880.68
3356440,-43.2304,-1118.53,767.553,-380,2890,235800,-109.975,-454.139,-500,769,-7,364,-500,16,1866.71
3356451,-49.146,-1146.02,762.869,-1140,2450,235420,-118.906,-520.665,-500,766,2,366,-500,-50,1862.62
3356462,-50.1591,-1176.52,759.647,-1120,1430,235230,-8.09745,-577.153,-500,749,7,368,-500,-152,1859.33
3356473,-47.7885,-1208.12,758.427,-760,660,235180,68.1312,-579.364,-500,733,9,370,-500,-184,1856.42
3356495,-34.2829,-1268.47,757.406,1170,-80,235470,160.575,-510.912,-500,713,3,373,-500,-150,1865.57
3356507,-26.6844,-1296.77,757.21,1840,350,235670,147.653,-449.515,-500,713,-4,375,-500,-113,1873.03
3356513,-23.32,-1309.33,756.287,2330,1410,235840,112.145,-418.685,-500,705,-22,376,-500,-32,1891.89
3356523,-19.0443,-1327.46,754.832,2790,3060,236110,73.4813,-344.325,-500,715,-31,378,-500,67,1902.37
3356534,-15.4334,-1342.22,750.444,3550,5190,236690,68.4792,-239.929,-500,715,-50,380,-500,193,1925.27
3356557,-5.81959,-1352.84,738.359,-730,-6500,237760,111.184,9.64611,500,717,-9,383,500,-720,1893.64
3356563,-3.98635,-1348.66,735.791,-1140,-7930,237530,61.1079,139.303,500,721,4,384,500,-575,1885.97
3356575,-0.448294,-1322.28,732.465,-410,-4840,236750,36.7187,543.667,500,723,29,386,500,-113,1864.82
3356586,0.222343,-1278.96,732.188,1120,1650,236000,3.27108,842.906,500,726,43,388,500,242,1849.14
3356597,-0.525915,-1227.27,732.943,2440,6660,235650,-24.1639,943.029,500,752,59,390,500,381,1831.54
3356608,-0.921741,-1181.68,733.578,3370,8440,235570,13.6928,769.187,500,764,57,392,500,188,1832.01
3356614,-0.684392,-1162.6,733.371,3010,6460,235710,7.91164,636.054,500,760,46,393,500,49,1843.18
3356626,0.745039,-1140.08,731.644,1440,1820,236120,22.9723,297.886,500,770,41,395,500,-338,1850.61
3356638,1.12756,-1131.53,727.741,120,-1670,236830,14.6187,116.378,500,769,27,396,500,-548,1866.84
3356649,-0.0615707,-1126.03,722.215,-750,-4640,237350,-19.4819,117.53,500,766,29,398,500,-554,1869.41
3356655,-1.65754,-1121.46,718.988,-1530,-5560,237860,-53.1988,152.395,500,767,24,399,500,-515,1878.19
3356667,-5.03927,-1103.55,712.784,-1450,-4050,238150,-65.9722,329.799,500,767,31,401,500,-320,1876.36
3356679,-8.80342,-1073.86,707.607,-1070,-1490,238440,-57.7099,523.891,500,775,27,403,500,-106,1882.7
3356690,-10.7397,-1039.98,701.593,0,1200,238850,-23.1213,623.886,500,782,30,405,500,-11,1884.95
3356696,-10.901,-1020.99,698.458,1110,2810,239260,-5.37676,632.952,500,798,48,406,500,8,1871.47
3356708,-10.0176,-987.277,692.198,1580,2470,239610,34.5752,527.635,500,795,56,408,500,-122,1868.64
3356730,-8.73893,-945.306,683.075,1060,-1470,239810,-5.70221,318.878,500,789,74,411,500,-356,1858.2
3356741,-11.2572,-928.233,681.005,130,-2840,239880,-45.3802,319.868,500,778,74,413,500,-348,1858.95
3356747,-13.8483,-917.859,680.302,-670,-3200,239910,-86.3687,345.802,500,771,67,414,500,-312,1866.64
3356758,-19.32,-894.763,679.008,-1370,-2300,239730,-118.546,443.778,500,761,55,416,500,-191,1878.84
3356769,-25.3114,-865.102,677.697,-1620,-430,239410,-119.092,570.976,500,766,61,418,500,-42,1878.1
3356780,-28.7905,-831.406,677.053,-900,950,239250,-63.3088,620.714,500,791,83,420,500,3,1855.75
3356792,-30.216,-793.653,676.895,-10,1570,239320,-18.3322,622.217,500,811,86,422,500,16,1852.01
3356803,-28.8743,-761.872,675.322,680,1740,239460,21.689,559.326,500,819,78,424,500,-45,1860.76
3356808,-27.8809,-748.663,674.488,1220,1010,239640,39.7379,528.381,500,826,87,425,500,-122,1854.06
3356820,-27.272,-720.794,671.811,1060,-120,239790,7.82,427.779,500,821,78,427,500,-228,1864.28
3356831,-26.996,-696.779,669.125,450,-1400,239790,-29.2465,437.073,500,804,74,429,500,-210,1870.57
3356853,-32.9267,-647.851,666.9,-1080,-1860,239590,-73.9625,493.569,500,772,87,431,500,-133,1859.62
3356859,-34.8034,-632.508,667.566,-1100,-1000,239420,-62.5555,511.43,500,759,77,432,500,-113,1868.21
3356870,-37.777,-601.509,668.7,-620,190,239170,-37.009,557.245,500,762,78,434,500,-66,1867.45
3356882,-39.8915,-563.867,669.667,0,1430,238720,-29.0364,609.451,500,758,77,436,500,-3,1866.79
3356904,-39.9732,-502.391,671.712,540,1300,238090,16.7398,510.235,500,728,64,439,500,-120,1879.52
3356915,-38.7003,-477.175,672.659,470,310,237920,20.7588,450.285,500,722,78,441,500,-173,1865.29
3356921,-37.4941,-464.738,673.922,-50,-630,237780,40.2064,414.544,500,713,80,442,500,-237,1862.01
3356932,-37.1926,-443.36,676.963,-860,-1250,237720,0.603015,382.835,500,690,74,444,500,-262,1865.69
3356943,-37.2866,-420.728,680.633,-1000,-1260,237630,-4.50582,418.887,-500,682,66,446,-500,800,1869.88
3356964,-37.4853,-378.317,690.675,5240,14220,238690,4.90968,297.776,-500,651,66,449,-500,800,1863.08
3356976,-38.2542,-382.511,698.974,5080,15520,238720,-11.6116,-205.356,-500,619,59,451,-500,614,1868.64
3356982,-38.2893,-398.76,703.501,2730,11120,238180,-1.16951,-541.646,-500,611,72,452,-500,-64,1848.02
3356993,-38.6287,-452.277,713.12,-1050,450,237800,17.769,-1076.3,-500,614,56,454,-500,-683,1851.33
3357004,-37.0632,-522.249,720.663,-3270,-8320,237920,20.5555,-1299.76,-500,621,32,456,-500,-784,1873.44
3357014,-34.9533,-581.78,725.338,-3750,-10670,238060,35.5293,-1126.48,-500,628,49,458,-500,-789,1853.81
3357025,-33.7266,-626.32,733.093,-3200,-10050,238050,15.2284,-679.091,-500,634,66,460,-500,-308,1830.6
3357036,-34.602,-645.366,742.717,-1370,-3940,237920,-26.1177,-226.888,-500,646,65,462,-500,211,1821.82
3357047,-36.9963,-644.18,751.871,960,3970,237960,-44.3658,77.551,-500,659,45,464,-500,572,1834.43
3357053,-38.5681,-640.929,756.126,2440,9520,238100,-52.3955,108.348,-500,681,46,465,-500,633,1830.99
3357065,-39.9669,-641.012,763.255,3130,10870,237880,-15.2644,-66.4119,-500,681,47,467,-500,445,1824.22
3357076,-39.154,-658.65,769.247,3090,8600,237080,13.8373,-427.24,-500,681,46,469,-500,42,1819.32
3357097,-33.8772,-739.338,779.218,120,-1880,234960,40.0141,-918.822,-500,698,38,472,-500,-513,1820.16
3357108,-33.8228,-790.536,782.702,-1910,-5210,234440,-4.74835,-915.471,-500,708,27,474,-500,-502,1828.28
3357118,-35.7735,-829.758,785.439,-3080,-5260,234250,-46.5006,-751.517,-500,722,29,476,-500,-315,1824.01
3357129,-40.2516,-859.321,787.559,-2810,-2860,234290,-63.3441,-437.745,-500,718,13,478,-500,27,1838.26
3357134,-41.5726,-868.502,788.376,-1070,1490,234440,-52.8399,-367.243,-500,731,8,479,-500,104,1843.62
3357146,-43.4668,-883.85,787.914,750,4560,234710,-13.0438,-229.081,-500,747,16,481,-500,245,1834.98
3357169,-36.3268,-921.139,785,2960,5550,235090,106.943,-439.332,-500,742,-4,484,-500,-20,1857.33
3357175,-33.5776,-937.45,782.22,2760,3120,235100,91.6374,-543.682,-500,741,-4,485,-500,-128,1857.64
3357187,-29.0084,-978.559,775.647,1580,280,235040,65.6364,-728.52,-500,755,5,487,-500,-325,1858
3357210,-26.9778,-1069.15,762.148,-870,-3230,235130,-26.0131,-764.69,-500,783,8,490,-500,-346,1862.9
3357220,-30.0916,-1102.68,754.962,-1730,-2550,235070,-73.2164,-646.726,-500,780,17,492,-500,-204,1860.76
3357231,-33.9193,-1131.01,747.84,-1920,-540,234960,-56.5926,-485.699,-500,785,30,494,-500,-36,1853.52
3357236,-35.618,-1141.39,743.914,-1090,1490,235000,-67.9461,-414.908,-500,794,19,495,-500,47,1866.75
3357247,-36.9203,-1161.56,734.94,-100,3090,235200,10.3837,-345.188,-500,789,17,497,-500,94,1878.1
3357271,-29.1332,-1209.45,711.282,1420,3330,235330,107.208,-462.097,-500,786,24,500,-500,-67,1888.38
3357277,-26.3547,-1224.73,704.913,1370,1750,235270,92.6176,-509.407,-500,768,20,501,-500,-113,1897.73
3357289,-19.6096,-1259.38,691.563,1070,160,235270,104.604,-599.526,-500,745,22,503,-500,-221,1909.74
3357300,-14.9091,-1292.89,680.305,640,-920,235260,77.7494,-607.839,-500,748,51,505,-500,-224,1889.02
3357322,-10.5422,-1350.24,664.359,-20,-340,235580,13.0265,-445.027,-500,714,72,508,-500,-27,1880.21
3357332,-8.60417,-1367.53,658.004,860,1970,236110,28.3226,-303.989,-500,701,74,510,-500,120,1883.49
3357343,-6.00404,-1379.27,652.852,2260,4510,237100,65.4962,-151.78,-500,691,75,512,-500,277,1886.81
3357349,-3.94851,-1384.27,650.394,2180,4160,238460,68.5178,-166.677,500,689,86,513,500,-795,1881.99
3357373,10.1745,-1382.76,642.771,-630,-9100,240250,82.8792,143.22,500,697,100,516,500,-572,1870.27
3357383,13.8184,-1361.26,641.127,-390,-7510,240090,59.6493,514.431,500,696,98,518,500,-160,1874.73
3357394,11.7511,-1319.03,638.657,580,-1530,239290,-47.9237,855.244,500,696,97,520,500,78,1873.11
3357400,9.09618,-1290.71,637.365,1330,4520,238230,-88.4964,943.925,500,692,88,521,500,394,1889.07
3357411,2.971,-1238.4,634.315,1730,8010,237180,-113.226,936.737,500,703,100,523,500,417,1877.72
3357421,-1.24084,-1198.57,631.856,1400,7450,236040,-91.9721,740.867,500,714,125,525,500,207,1854.79
3357433,-1.61395,-1168.38,631.009,680,3850,235020,-6.42994,421.868,500,730,140,527,500,-169,1840.48
3357455,7.12488,-1145.25,627.614,-780,-3760,233880,90.7349,160.085,500,724,112,529,500,-504,1870.27
3357461,8.78445,-1139.17,626.445,-1480,-5230,233680,55.3189,202.636,500,715,107,530,500,-455,1877.35
3357473,9.65192,-1119.53,624.987,-1350,-3920,233600,8.10712,375.405,500,708,123,532,500,-254,1866.66
3357516,2.78237,-994.043,634.42,560,3430,234070,10.7371,528.539,500,759,113,537,500,-79,1865.23
3357527,6.54078,-969.244,634.867,930,1650,234260,83.3014,419.197,500,753,106,539,500,-231,1871.99
3357533,9.17435,-958.66,634.582,1040,-910,234460,87.7855,352.801,500,750,110,540,500,-310,1868.34
3357557,15.9549,-923.697,638.731,90,-3460,234890,12.232,304.263,500,739,103,543,500,-346,1871.24
3357563,15.3661,-912.81,640.196,-590,-3080,235290,-19.6281,362.886,500,733,97,544,500,-276,1877.21
3357575,12.1977,-886.926,644.233,-850,-1750,235730,-69.8709,453.694,500,747,108,546,500,-159,1863.09
3357587,7.43023,-855.951,649.176,-880,-180,236020,-81.4377,532.273,500,767,118,548,500,-71,1850.19
3357598,4.26276,-825.338,654.696,-730,700,236160,-36.4638,560.536,500,772,102,550,500,-48,1860.93
3357604,2.44186,-808.295,657.272,-280,1120,236220,-60.6966,568.106,500,758,86,551,500,-35,1874.86
3357615,2.97473,-778.704,661.677,-50,880,236220,-0.0886701,525.486,500,755,86,553,500,-107,1871.48
3357626,5.631,-751.944,666.486,380,-70,236130,43.4598,477.429,500,771,96,555,500,-179,1857.73
3357638,10.5595,-724.925,672.67,390,-690,236030,86.7868,452.339,500,782,89,556,500,-227,1859.84
3357638,10.5595,-724.925,672.67,450,-1200,235940,86.7868,452.339,500,777,81,556,500,-230,1866.91
3357644,11.995,-712.084,675.772,380,-1300,235820,47.8484,428.051,500,779,84,557,500,-245,1863.53
3357644,11.995,-712.084,675.772,40,-1450,235580,47.8484,428.051,500,801,91,557,500,-248,1854.57
3357644,11.995,-712.084,675.772,-150,-1450,235440,47.8484,428.051,500,814,78,557,500,-252,1868.65
3357659,14.484,-679.213,683.434,-70,-1570,235450,33.1862,438.284,500,811,57,558,500,-231,1882.66
3357685,10.9214,-614.545,698.691,-370,-1800,235810,-27.404,497.442,500,811,60,559,500,-139,1867.59
3357699,5.02033,-572.886,703.791,-810,10,236350,-84.3016,595.131,500,813,37,560,500,-5,1884.65
3357705,1.67132,-553.348,706.113,-860,1480,236800,-111.634,651.258,500,793,26,561,500,73,1897.05
3357705,1.67132,-553.348,706.113,-560,2670,237240,-111.634,651.258,500,800,40,561,500,81,1883.26
3357721,-6.10885,-496.47,709.95,-210,3340,237740,-97.2522,710.983,500,795,43,562,500,147,1877.34
3357736,-8.47972,-443.176,712.818,240,3720,238260,-31.6115,710.587,-500,773,36,563,-500,800,1882.2
3357771,15.2612,-355.871,728.03,7950,12960,240020,202.736,244.051,-500,761,46,566,-500,685,1859.23
3357777,20.5199,-354.962,732.284,8470,13060,240060,175.287,30.313,-500,734,30,567,-500,481,1872.94
3357789,27.659,-379.981,740.76,6270,8200,239120,116.683,-567.953,-500,722,26,569,-500,-148,1868.26
3357801,28.9458,-437.537,748.684,1760,-650,238080,-20.2729,-1072.17,-500,729,24,571,-500,-653,1865.01
3357813,24.8756,-509.783,755.594,-2840,-7560,237770,-91.2866,-1186.14,-500,735,24,573,-500,-758,1863.48
3357819,21.1257,-542.839,759.467,-5190,-9480,237650,-124.997,-1101.88,-500,726,26,574,-500,-676,1855.52
3357830,14.0549,-588.239,768.562,-5270,-7780,237340,-131.397,-705.194,-500,726,31,576,-500,-252,1843.24
3357853,4.98942,-613.742,789.032,520,3650,236850,-29.2517,-22.7051,-500,757,30,579,-500,448,1828.73
3357864,6.28771,-614.571,796.798,2850,7590,236730,47.6534,-38.4646,-500,777,34,581,-500,480,1821.16
3357869,7.74989,-617.96,800.62,4460,8310,236470,58.487,-135.581,-500,799,52,582,-500,318,1796.13
3357881,13.1063,-638.688,809.408,4330,6200,235870,102.461,-430.083,-500,801,42,584,-500,-12,1796.83
3357914,13.0933,-772.73,847.814,-2340,-3220,238590,-45.5274,-860.246,-500,850,95,588,-500,-439,1712.22
3357924,15.2862,-810.707,861.112,-2110,-4700,240170,75.7175,-739.38,-500,843,179,590,-500,-378,1617.53
3357930,17.6709,-832.094,873.247,-1690,-5350,242430,79.4879,-712.877,-500,858,169,591,-500,-363,1616.7
3357941,23.8802,-869.694,895.518,-970,-5790,244030,96.9239,-673.098,-500,886,202,593,-500,-340,1600
3357953,26.8238,-906.358,923.986,-490,-5880,245580,51.7497,-592.076,-500,922,223,595,-500,-242,1600
3357975,32.4792,-974.574,973.692,-990,-4390,243320,29.8625,-635.259,-500,993,88,598,-500,-299,1604.4
3357981,33.3102,-992.695,980.507,-1910,-3600,241850,27.6983,-604.042,-500,953,-13,599,-500,-269,1696.05
3357993,29.5127,-1030.71,985.768,-2750,-3950,243720,-69.2685,-619.507,-500,898,-118,601,-500,-273,1792.37
3358016,11.6149,-1080.04,974.881,-7180,-6440,248240,-201.533,-281.939,-500,814,-183,604,-500,-146,1859.75
3358027,-3.52052,-1085.67,962.655,-11030,-9470,251700,-305.037,-41.056,-500,776,-318,606,-500,437,2025.37
3358033,-14.8137,-1085.3,950.394,-14710,-11780,254880,-376.44,12.5691,-500,718,-470,607,-500,522,2100
3358044,-35.8654,-1082.11,915.866,-15110,-9680,257540,-372.654,67.6466,-500,634,-584,609,-500,593,2100
3358067,-62.4777,-1050.55,808.774,-14900,-6100,262860,-79.3893,445.528,-500,452,-735,612,-500,800,2100
3358073,-60.035,-1032.58,773.998,-15660,-6900,264910,81.4239,599.093,-500,367,-879,613,-500,800,2100
3358085,-45.7686,-995.265,690.385,-14920,-4510,266950,243.427,604.298,-500,268,-1031,615,-500,800,2100
3358108,-18.6118,-916.028,468.002,-11490,-420,271140,190.68,814.307,-500,53,-1224,618,-500,800,2100
3358114,-12.3091,-890.932,401.972,-8360,2020,273660,210.091,836.535,-500,-61,-1090,619,-500,800,2100
3358126,3.67784,-839.332,279.656,-4700,5460,276420,296.612,852.048,-500,-160,-960,621,-500,800,2100
3358159,54.2691,-757.15,77.1049,-1310,3430,282230,113.295,127.928,500,-297,-52,625,500,-175,2100
3358170,56.4027,-755.253,73.661,-4360,-5200,283800,58.8801,69.2001,500,-242,36,627,500,-376,2063
3358176,59.4115,-752.827,75.0524,-2940,-210,283490,100.293,80.8614,500,-191,26,628,500,-249,2069
3358187,56.0122,-756.905,74.2868,-3370,560,283310,-56.0567,-82.997,500,-143,62,630,500,-518,2036
3358198,56.2859,-755.997,73.9417,-3330,-2700,283030,5.51084,40.75,500,-102,93,632,500,-375,2005
